$GPGGA,023508.80,3439.65537381,N,13744.68863270,E,4,05,1.6,9.464,M,38.490,M,1.8,0012*44
$GPGGA,023508.85,3439.65537933,N,13744.68863043,E,4,05,1.6,9.474,M,38.490,M,0.9,0012*41
$GPGGA,023508.90,3439.65537925,N,13744.68863085,E,4,05,1.6,9.477,M,38.490,M,0.9,0012*4B
$GPGGA,023508.95,3439.65537911,N,13744.68863280,E,4,05,1.6,9.476,M,38.490,M,0.9,0012*4F
$GPGGA,023509.00,3439.65537896,N,13744.68863170,E,4,05,1.6,9.468,M,38.490,M,1.0,0012*47
$GPGGA,023509.05,3439.65537814,N,13744.68863138,E,4,05,1.6,9.469,M,38.490,M,1.0,0012*45
$GPGGA,023509.10,3439.65537932,N,13744.68863150,E,4,05,1.6,9.477,M,38.490,M,1.1,0012*44
$GPGGA,023509.15,3439.65538105,N,13744.68863072,E,4,05,1.6,9.477,M,38.490,M,1.1,0012*43
$GPGGA,023509.20,3439.65537964,N,13744.68863197,E,4,05,1.6,9.472,M,38.490,M,1.2,0012*49
$GPGGA,023509.25,3439.65537822,N,13744.68863129,E,4,05,1.6,9.473,M,38.490,M,1.3,0012*4A
$GPGGA,023509.30,3439.65537685,N,13744.68862990,E,4,05,1.6,9.469,M,38.490,M,1.3,0012*4D
$GPGGA,023509.35,3439.65537818,N,13744.68863079,E,4,05,1.6,9.471,M,38.490,M,1.4,0012*43
$GPGGA,023509.40,3439.65537926,N,13744.68863276,E,4,05,1.6,9.470,M,38.490,M,1.4,0012*41
$GPGGA,023509.45,3439.65537839,N,13744.68863094,E,4,05,1.6,9.477,M,38.490,M,1.5,0012*43
$GPGGA,023509.50,3439.65537855,N,13744.68863168,E,4,05,1.6,9.476,M,38.490,M,1.5,0012*4E
$GPGGA,023509.55,3439.65537872,N,13744.68863358,E,4,05,1.6,9.476,M,38.490,M,1.5,0012*4F
$GPGGA,023509.60,3439.65537873,N,13744.68863355,E,4,05,1.6,9.475,M,38.490,M,1.6,0012*45
$GPGGA,023509.65,3439.65537949,N,13744.68863145,E,4,05,1.6,9.469,M,38.490,M,1.6,0012*46
$GPGGA,023509.70,3439.65537998,N,13744.68863218,E,4,05,1.6,9.468,M,38.490,M,1.7,0012*45
$GPGGA,023509.75,3439.65537637,N,13744.68863331,E,4,05,1.6,9.476,M,38.490,M,1.8,0012*40
$GPGGA,023509.80,3439.65537608,N,13744.68863174,E,4,05,1.6,9.478,M,38.490,M,1.8,0012*4B
$GPGGA,023509.85,3439.65537858,N,13744.68862988,E,4,05,1.6,9.473,M,38.490,M,1.9,0012*45
$GPGGA,023509.90,3439.65538027,N,13744.68863103,E,4,05,1.6,9.465,M,38.490,M,1.9,0012*43
$GPGGA,023509.95,3439.65537655,N,13744.68863271,E,4,05,1.6,9.462,M,38.490,M,0.9,0012*4A
$GPGGA,023510.00,3439.65538109,N,13744.68862945,E,4,05,1.6,9.455,M,38.490,M,1.0,0012*4E
$GPGGA,023510.05,3439.65537865,N,13744.68862908,E,4,05,1.6,9.450,M,38.490,M,1.0,0012*4B
$GPGGA,023510.10,3439.65537638,N,13744.68862976,E,4,05,1.6,9.449,M,38.490,M,1.1,0012*49
$GPGGA,023510.15,3439.65537594,N,13744.68863371,E,4,05,1.6,9.458,M,38.490,M,1.1,0012*45
$GPGGA,023510.20,3439.65538095,N,13744.68862868,E,4,05,1.6,9.445,M,38.490,M,1.2,0012*45
$GPGGA,023510.25,3439.65538160,N,13744.68862779,E,4,05,1.6,9.449,M,38.490,M,1.3,0012*49
$GPGGA,023510.30,3439.65538017,N,13744.68862944,E,4,05,1.6,9.454,M,38.490,M,1.3,0012*40
$GPGGA,023510.35,3439.65537980,N,13744.68863040,E,4,05,1.6,9.453,M,38.490,M,1.4,0012*41
$GPGGA,023510.40,3439.65537876,N,13744.68862908,E,4,05,1.6,9.445,M,38.490,M,1.4,0012*48
$GPGGA,023510.45,3439.65537906,N,13744.68863032,E,4,05,1.6,9.451,M,38.490,M,1.5,0012*4E
$GPGGA,023510.50,3439.65538079,N,13744.68862889,E,4,05,1.6,9.447,M,38.490,M,1.5,0012*4A
$GPGGA,023510.55,3439.65537944,N,13744.68862665,E,4,05,1.6,9.450,M,38.490,M,1.5,0012*4D
$GPGGA,023510.60,3439.65537821,N,13744.68862808,E,4,05,1.6,9.450,M,38.490,M,1.6,0012*4F
$GPGGA,023510.65,3439.65537860,N,13744.68863056,E,4,05,1.6,9.448,M,38.490,M,1.6,0012*44
$GPGGA,023510.70,3439.65538049,N,13744.68862972,E,4,05,1.6,9.448,M,38.490,M,1.7,0012*43
$GPGGA,023510.75,3439.65537739,N,13744.68863102,E,4,05,1.6,9.449,M,38.490,M,1.8,0012*49
$GPGGA,023510.80,3439.65538144,N,13744.68862815,E,4,05,1.6,9.447,M,38.490,M,1.8,0012*40
$GPGGA,023510.85,3439.65538526,N,13744.68862891,E,4,05,1.6,9.443,M,38.490,M,1.9,0012*4C
$GPGGA,023510.90,3439.65538050,N,13744.68862958,E,4,05,1.6,9.459,M,38.490,M,0.9,0012*42
$GPGGA,023510.95,3439.65537823,N,13744.68863227,E,4,05,1.6,9.461,M,38.490,M,0.9,0012*4D
$GPGGA,023511.00,3439.65537448,N,13744.68863481,E,4,05,1.6,9.479,M,38.490,M,1.0,0012*4A
$GPGGA,023511.05,3439.65537679,N,13744.68863256,E,4,05,1.6,9.474,M,38.490,M,1.0,0012*4E
$GPGGA,023511.10,3439.65537476,N,13744.68863311,E,4,05,1.6,9.476,M,38.490,M,1.1,0012*46
$GPGGA,023511.15,3439.65537382,N,13744.68863404,E,4,05,1.6,9.483,M,38.490,M,1.1,0012*46
$GPGGA,023511.20,3439.65537556,N,13744.68863347,E,4,05,1.6,9.477,M,38.490,M,1.2,0012*47
$GPGGA,023511.25,3439.65537681,N,13744.68863484,E,4,05,1.6,9.475,M,38.490,M,1.3,0012*40
$GPGGA,023511.30,3439.65537618,N,13744.68863471,E,4,05,1.6,9.478,M,38.490,M,1.3,0012*43
$GPGGA,023511.35,3439.65537708,N,13744.68863311,E,4,05,1.6,9.477,M,38.490,M,1.4,0012*4F
$GPGGA,023511.40,3439.65537731,N,13744.68863027,E,4,05,1.6,9.472,M,38.490,M,1.4,0012*44
$GPGGA,023511.45,3439.65537318,N,13744.68863284,E,4,05,1.6,9.474,M,38.490,M,1.5,0012*42
$GPGGA,023511.50,3439.65537291,N,13744.68863449,E,4,05,1.6,9.474,M,38.490,M,1.5,0012*41
$GPGGA,023511.55,3439.65537574,N,13744.68863434,E,4,05,1.6,9.474,M,38.490,M,1.5,0012*42
$GPGGA,023511.60,3439.65537545,N,13744.68863388,E,4,05,1.6,9.473,M,38.490,M,1.6,0012*42
$GPGGA,023511.65,3439.65537520,N,13744.68863259,E,4,05,1.6,9.468,M,38.490,M,1.6,0012*43
$GPGGA,023511.70,3439.65537770,N,13744.68863082,E,4,05,1.6,9.460,M,38.490,M,1.7,0012*4D
$GPGGA,023511.75,3439.65537739,N,13744.68863355,E,4,05,1.6,9.467,M,38.490,M,1.8,0012*44
$GPGGA,023511.80,3439.65537530,N,13744.68863338,E,4,05,1.6,9.465,M,38.490,M,1.8,0012*4C
$GPGGA,023511.85,3439.65537243,N,13744.68863437,E,4,05,1.6,9.479,M,38.490,M,1.9,0012*4E
$GPGGA,023511.90,3439.65537568,N,13744.68863233,E,4,05,1.6,9.461,M,38.490,M,1.9,0012*4F
$GPGGA,023511.95,3439.65537581,N,13744.68863189,E,4,05,1.6,9.465,M,38.490,M,2.0,0012*41
$GPGGA,023512.00,3439.65537519,N,13744.68863345,E,4,05,1.6,9.475,M,38.490,M,2.0,0012*4C
$GPGGA,023512.05,3439.65537522,N,13744.68863282,E,4,05,1.6,9.476,M,38.490,M,1.0,0012*4B
$GPGGA,023512.10,3439.65537386,N,13744.68863365,E,4,05,1.6,9.480,M,38.490,M,1.1,0012*47
$GPGGA,023512.15,3439.65537718,N,13744.68863064,E,4,05,1.6,9.476,M,38.490,M,1.1,0012*4A
$GPGGA,023512.20,3439.65537575,N,13744.68863396,E,4,05,1.6,9.473,M,38.490,M,1.2,0012*4D
$GPGGA,023512.25,3439.65537617,N,13744.68863193,E,4,05,1.6,9.476,M,38.490,M,1.3,0012*4C
$GPGGA,023512.30,3439.65538084,N,13744.68863060,E,4,05,1.6,9.482,M,38.490,M,1.3,0012*4D
$GPGGA,023512.35,3439.65537826,N,13744.68863071,E,4,05,1.6,9.489,M,38.490,M,1.4,0012*4B
$GPGGA,023512.40,3439.65537678,N,13744.68863263,E,4,05,1.6,9.476,M,38.490,M,1.4,0012*4D
$GPGGA,023512.45,3439.65537657,N,13744.68863097,E,4,05,1.6,9.477,M,38.490,M,1.5,0012*4C
$GPGGA,023512.50,3439.65537650,N,13744.68863011,E,4,05,1.6,9.476,M,38.490,M,1.5,0012*40
$GPGGA,023512.55,3439.65537667,N,13744.68862942,E,4,05,1.6,9.476,M,38.490,M,1.5,0012*4F
$GPGGA,023512.60,3439.65537796,N,13744.68863257,E,4,05,1.6,9.473,M,38.490,M,0.6,0012*4F
$GPGGA,023512.65,3439.65537654,N,13744.68863706,E,4,05,1.6,9.471,M,38.490,M,0.6,0012*46
$GPGGA,023512.70,3439.65537377,N,13744.68863226,E,4,05,1.6,9.466,M,38.490,M,0.7,0012*46
$GPGGA,023512.75,3439.65538228,N,13744.68862935,E,4,05,1.6,9.468,M,38.490,M,0.8,0012*4E
$GPGGA,023512.80,3439.65536897,N,13744.68861692,E,4,05,1.6,9.482,M,38.490,M,0.8,0012*41
$GPGGA,023512.85,3439.65536979,N,13744.68861816,E,4,05,1.6,9.483,M,38.490,M,0.9,0012*47
$GPGGA,023512.90,3439.65537844,N,13744.68862805,E,4,05,1.6,9.465,M,38.490,M,0.9,0012*44
$GPGGA,023512.95,3439.65537887,N,13744.68863008,E,4,05,1.6,9.460,M,38.490,M,0.9,0012*4F
$GPGGA,023513.00,3439.65537643,N,13744.68862901,E,4,05,1.6,9.463,M,38.490,M,1.0,0012*4E
$GPGGA,023513.05,3439.65537596,N,13744.68863120,E,4,05,1.6,9.465,M,38.490,M,1.0,0012*4C
$GPGGA,023513.10,3439.65537587,N,13744.68863086,E,4,05,1.6,9.469,M,38.490,M,1.1,0012*48
$GPGGA,023513.15,3439.65537700,N,13744.68863112,E,4,05,1.6,9.473,M,38.490,M,1.1,0012*47
$GPGGA,023513.20,3439.65537438,N,13744.68863087,E,4,05,1.6,9.460,M,38.490,M,1.2,0012*45
$GPGGA,023513.25,3439.65537678,N,13744.68863096,E,4,05,1.6,9.462,M,38.490,M,1.3,0012*45
$GPGGA,023513.30,3439.65537766,N,13744.68863134,E,4,05,1.6,9.462,M,38.490,M,1.3,0012*46
$GPGGA,023513.35,3439.65537770,N,13744.68863136,E,4,05,1.6,9.463,M,38.490,M,1.4,0012*40
$GPGGA,023513.40,3439.65537370,N,13744.68862828,E,4,05,1.6,9.466,M,38.490,M,1.4,0012*44
$GPGGA,023513.45,3439.65537251,N,13744.68863078,E,4,05,1.6,9.452,M,38.490,M,1.5,0012*49
$GPGGA,023513.50,3439.65538157,N,13744.68862788,E,4,05,1.6,9.429,M,38.490,M,1.5,0012*42
$GPGGA,023513.55,3439.65536718,N,13744.68863124,E,4,05,1.6,9.491,M,38.490,M,0.6,0012*44
$GPGGA,023513.60,3439.65536288,N,13744.68861779,E,4,05,1.6,9.523,M,38.490,M,0.6,0012*4A
$GPGGA,023513.65,3439.65536529,N,13744.68862979,E,4,05,1.6,9.511,M,38.490,M,0.6,0012*4F
$GPGGA,023513.70,3439.65536467,N,13744.68862836,E,4,05,1.6,9.507,M,38.490,M,0.7,0012*4C
$GPGGA,023513.75,3439.65536637,N,13744.68862652,E,4,05,1.6,9.497,M,38.490,M,0.8,0012*45
$GPGGA,023513.80,3439.65536572,N,13744.68862629,E,4,05,1.6,9.512,M,38.490,M,0.8,0012*4D
$GPGGA,023513.85,3439.65537102,N,13744.68862348,E,4,05,1.6,9.491,M,38.490,M,0.9,0012*43
$GPGGA,023513.90,3439.65537064,N,13744.68862197,E,4,05,1.6,9.482,M,38.490,M,0.9,0012*44
$GPGGA,023513.95,3439.65536903,N,13744.68862540,E,4,05,1.6,9.511,M,38.490,M,0.9,0012*4D
$GPGGA,023514.00,3439.65536765,N,13744.68862336,E,4,05,1.6,9.499,M,38.490,M,1.0,0012*46
$GPGGA,023514.05,3439.65536835,N,13744.68862505,E,4,05,1.6,9.506,M,38.490,M,1.0,0012*48
$GPGGA,023514.10,3439.65536440,N,13744.68862680,E,4,05,1.6,9.543,M,38.490,M,1.1,0012*4C
$GPGGA,023514.15,3439.65535988,N,13744.68862882,E,4,05,1.6,9.514,M,38.490,M,1.1,0012*4D
$GPGGA,023514.20,3439.65536668,N,13744.68862089,E,4,05,1.6,9.505,M,38.490,M,1.2,0012*49
$GPGGA,023514.25,3439.65536835,N,13744.68861959,E,4,05,1.6,9.504,M,38.490,M,1.3,0012*4D
$GPGGA,023514.30,3439.65537116,N,13744.68861914,E,4,05,1.6,9.493,M,38.490,M,1.3,0012*46
$GPGGA,023514.35,3439.65537051,N,13744.68862494,E,4,05,1.6,9.505,M,38.490,M,1.4,0012*4E
$GPGGA,023514.40,3439.65536552,N,13744.68862869,E,4,05,1.6,9.517,M,38.490,M,1.4,0012*46
$GPGGA,023514.45,3439.65536433,N,13744.68862677,E,4,05,1.6,9.511,M,38.490,M,1.5,0012*43
$GPGGA,023514.50,3439.65536145,N,13744.68862946,E,4,05,1.6,9.513,M,38.490,M,1.5,0012*4C
$GPGGA,023514.55,3439.65537127,N,13744.68861902,E,4,05,1.6,9.539,M,38.490,M,1.5,0012*47
$GPGGA,023514.60,3439.65537296,N,13744.68862112,E,4,05,1.6,9.494,M,38.490,M,1.6,0012*47
$GPGGA,023514.65,3439.65536336,N,13744.68862645,E,4,05,1.6,9.499,M,38.490,M,1.6,0012*40
$GPGGA,023514.70,3439.65537450,N,13744.68863092,E,4,05,1.6,9.472,M,38.490,M,0.7,0012*4A
$GPGGA,023514.75,3439.65536658,N,13744.68863780,E,4,05,1.6,9.491,M,38.490,M,0.8,0012*42
$GPGGA,023514.80,3439.65535690,N,13744.68864212,E,4,05,1.6,9.529,M,38.490,M,0.8,0012*44
$GPGGA,023514.85,3439.65538437,N,13744.68862921,E,4,05,1.6,9.496,M,38.490,M,0.9,0012*4A
$GPGGA,023514.90,3439.65538495,N,13744.68862887,E,4,05,1.6,9.489,M,38.490,M,0.9,0012*45
$GPGGA,023514.95,3439.65538144,N,13744.68862598,E,4,05,1.6,9.473,M,38.490,M,0.9,0012*4F
$GPGGA,023515.00,3439.65540497,N,13744.68861687,E,4,05,1.6,9.402,M,38.490,M,1.0,0012*46
$GPGGA,023515.05,3439.65540651,N,13744.68861412,E,4,05,1.6,9.398,M,38.490,M,1.0,0012*41
$GPGGA,023515.10,3439.65540105,N,13744.68861968,E,4,05,1.6,9.412,M,38.490,M,1.1,0012*47
$GPGGA,023515.15,3439.65539698,N,13744.68862913,E,4,05,1.6,9.420,M,38.490,M,1.1,0012*41
$GPGGA,023515.20,3439.65539957,N,13744.68862729,E,4,05,1.6,9.415,M,38.490,M,1.2,0012*49
$GPGGA,023515.25,3439.65540506,N,13744.68862140,E,4,05,1.6,9.397,M,38.490,M,1.3,0012*4F
$GPGGA,023515.30,3439.65540826,N,13744.68861650,E,4,05,1.6,9.396,M,38.490,M,1.3,0012*40
$GPGGA,023515.35,3439.65540494,N,13744.68861798,E,4,05,1.6,9.411,M,38.490,M,1.4,0012*4A
$GPGGA,023515.40,3439.65540508,N,13744.68861758,E,4,05,1.6,9.418,M,38.490,M,1.4,0012*49
$GPGGA,023515.45,3439.65540785,N,13744.68861523,E,4,05,1.6,9.411,M,38.490,M,1.5,0012*4D
$GPGGA,023515.50,3439.65540733,N,13744.68861483,E,4,05,1.6,9.404,M,38.490,M,1.5,0012*4B
$GPGGA,023515.55,3439.65540060,N,13744.68861976,E,4,05,1.6,9.412,M,38.490,M,1.5,0012*4F
$GPGGA,023515.60,3439.65535128,N,13744.68865154,E,4,05,1.6,9.502,M,38.490,M,0.6,0012*48
$GPGGA,023515.65,3439.65535489,N,13744.68865475,E,4,05,1.6,9.491,M,38.490,M,0.6,0012*4E
$GPGGA,023515.70,3439.65536444,N,13744.68864124,E,4,05,1.6,9.475,M,38.490,M,0.7,0012*43
$GPGGA,023515.75,3439.65536573,N,13744.68864018,E,4,05,1.6,9.479,M,38.490,M,0.8,0012*4E
$GPGGA,023515.80,3439.65536096,N,13744.68864206,E,4,05,1.6,9.485,M,38.490,M,0.8,0012*44
$GPGGA,023515.85,3439.65535264,N,13744.68865928,E,4,05,1.6,9.508,M,38.490,M,0.9,0012*4E
$GPGGA,023515.90,3439.65535647,N,13744.68866233,E,4,05,1.6,9.391,M,38.490,M,0.9,0012*4B
$GPGGA,023515.95,3439.65535614,N,13744.68861650,E,4,05,1.6,9.438,M,38.490,M,0.9,0012*4A
$GPGGA,023516.00,3439.65536630,N,13744.68862495,E,4,05,1.6,9.478,M,38.490,M,1.0,0012*44
$GPGGA,023516.05,3439.65536274,N,13744.68862762,E,4,05,1.6,9.485,M,38.490,M,1.0,0012*4C
$GPGGA,023516.10,3439.65536422,N,13744.68862872,E,4,05,1.6,9.478,M,38.490,M,1.1,0012*40
$GPGGA,023516.15,3439.65536477,N,13744.68862689,E,4,05,1.6,9.480,M,38.490,M,1.1,0012*48
$GPGGA,023516.20,3439.65536752,N,13744.68862752,E,4,05,1.6,9.477,M,38.490,M,1.2,0012*46
$GPGGA,023516.25,3439.65536532,N,13744.68863342,E,4,05,1.6,9.479,M,38.490,M,1.3,0012*4C
$GPGGA,023516.30,3439.65536427,N,13744.68863600,E,4,05,1.6,9.478,M,38.490,M,1.3,0012*4F
$GPGGA,023516.35,3439.65536399,N,13744.68863319,E,4,05,1.6,9.480,M,38.490,M,1.4,0012*45
$GPGGA,023516.40,3439.65536441,N,13744.68862898,E,4,05,1.6,9.471,M,38.490,M,1.4,0012*48
$GPGGA,023516.45,3439.65536279,N,13744.68863088,E,4,05,1.6,9.468,M,38.490,M,1.5,0012*41
$GPGGA,023516.50,3439.65536377,N,13744.68862990,E,4,05,1.6,9.467,M,38.490,M,1.5,0012*44
$GPGGA,023516.55,3439.65536270,N,13744.68862949,E,4,05,1.6,9.474,M,38.490,M,1.5,0012*41
$GPGGA,023516.60,3439.65536133,N,13744.68863363,E,4,05,1.6,9.480,M,38.490,M,1.6,0012*48
$GPGGA,023516.65,3439.65535899,N,13744.68863218,E,4,05,1.6,9.477,M,38.490,M,1.6,0012*42
$GPGGA,023516.70,3439.65535885,N,13744.68863627,E,4,05,1.6,9.481,M,38.490,M,1.7,0012*4B
$GPGGA,023516.75,3439.65536018,N,13744.68863659,E,4,05,1.6,9.479,M,38.490,M,1.8,0012*40
$GPGGA,023516.80,3439.65537963,N,13744.68863941,E,4,05,1.6,9.560,M,38.490,M,0.8,0012*40
$GPGGA,023516.85,3439.65538695,N,13744.68864792,E,4,05,1.6,9.541,M,38.490,M,0.9,0012*49
$GPGGA,023516.90,3439.65538808,N,13744.68864778,E,4,05,1.6,9.536,M,38.490,M,0.9,0012*43
$GPGGA,023516.95,3439.65538673,N,13744.68864720,E,4,05,1.6,9.533,M,38.490,M,0.9,0012*4C
$GPGGA,023517.00,3439.65538628,N,13744.68864993,E,4,05,1.6,9.541,M,38.490,M,1.0,0012*44
$GPGGA,023517.05,3439.65538677,N,13744.68865019,E,4,05,1.6,9.534,M,38.490,M,1.0,0012*43
$GPGGA,023517.10,3439.65538509,N,13744.68864893,E,4,05,1.6,9.529,M,38.490,M,1.1,0012*4B
$GPGGA,023517.15,3439.65538417,N,13744.68864813,E,4,05,1.6,9.536,M,38.490,M,1.1,0012*46
$GPGGA,023517.20,3439.65538609,N,13744.68864857,E,4,05,1.6,9.539,M,38.490,M,1.2,0012*41
$GPGGA,023517.25,3439.65538565,N,13744.68864610,E,4,05,1.6,9.534,M,38.490,M,1.3,0012*4C
$GPGGA,023517.30,3439.65538478,N,13744.68864716,E,4,05,1.6,9.525,M,38.490,M,1.3,0012*42
$GPGGA,023517.35,3439.65538600,N,13744.68864764,E,4,05,1.6,9.525,M,38.490,M,1.4,0012*48
$GPGGA,023517.40,3439.65538541,N,13744.68864743,E,4,05,1.6,9.534,M,38.490,M,1.4,0012*49
$GPGGA,023517.45,3439.65538554,N,13744.68864678,E,4,05,1.6,9.527,M,38.490,M,1.5,0012*42
$GPGGA,023517.50,3439.65538609,N,13744.68864543,E,4,05,1.6,9.524,M,38.490,M,1.5,0012*45
$GPGGA,023517.55,3439.65538695,N,13744.68864635,E,4,05,1.6,9.524,M,38.490,M,1.5,0012*47
$GPGGA,023517.60,3439.65538579,N,13744.68864694,E,4,05,1.6,9.530,M,38.490,M,1.6,0012*4D
$GPGGA,023517.65,3439.65538507,N,13744.68864602,E,4,05,1.6,9.526,M,38.490,M,1.6,0012*49
$GPGGA,023517.70,3439.65538647,N,13744.68864581,E,4,05,1.6,9.521,M,38.490,M,1.7,0012*44
$GPGGA,023517.75,3439.65538654,N,13744.68864684,E,4,05,1.6,9.522,M,38.490,M,1.8,0012*49
$GPGGA,023517.80,3439.65538650,N,13744.68864626,E,4,05,1.6,9.525,M,38.490,M,1.8,0012*48
$GPGGA,023517.85,3439.65538542,N,13744.68864543,E,4,05,1.6,9.528,M,38.490,M,1.9,0012*41
$GPGGA,023517.90,3439.65538529,N,13744.68864587,E,4,05,1.6,9.525,M,38.490,M,1.9,0012*4D
$GPGGA,023517.95,3439.65538353,N,13744.68864930,E,4,05,1.6,9.527,M,38.490,M,2.0,0012*4B
$GPGGA,023518.00,3439.65538666,N,13744.68864942,E,4,05,1.6,9.517,M,38.490,M,2.0,0012*4D
$GPGGA,023518.05,3439.65539126,N,13744.68864490,E,4,04,2.9,9.525,M,38.490,M,1.0,0012*47
$GPGGA,023518.10,3439.65538954,N,13744.68864812,E,4,04,2.9,9.520,M,38.490,M,1.1,0012*4D
$GPGGA,023518.15,3439.65538949,N,13744.68865137,E,4,04,2.9,9.534,M,38.490,M,1.1,0012*4E
$GPGGA,023518.20,3439.65539135,N,13744.68865568,E,4,04,2.9,9.531,M,38.490,M,1.2,0012*42
$GPGGA,023518.25,3439.65539402,N,13744.68865949,E,4,04,2.9,9.529,M,38.490,M,1.3,0012*41
$GPGGA,023518.30,3439.65539374,N,13744.68866031,E,4,04,2.9,9.534,M,38.490,M,1.3,0012*4A
$GPGGA,023518.35,3439.65539502,N,13744.68865958,E,4,04,2.9,9.526,M,38.490,M,1.4,0012*49
$GPGGA,023518.40,3439.65539306,N,13744.68865754,E,4,04,2.9,9.530,M,38.490,M,1.4,0012*4C
$GPGGA,023518.45,3439.65539005,N,13744.68865761,E,4,04,2.9,9.530,M,38.490,M,1.5,0012*4E
$GPGGA,023518.50,3439.65538617,N,13744.68865684,E,4,04,2.9,9.524,M,38.490,M,1.5,0012*41
$GPGGA,023518.55,3439.65538269,N,13744.68865572,E,4,04,2.9,9.524,M,38.490,M,1.5,0012*43
$GPGGA,023518.60,3439.65537909,N,13744.68865358,E,4,04,2.9,9.524,M,38.490,M,1.6,0012*4A
$GPGGA,023518.65,3439.65537919,N,13744.68865538,E,4,04,2.9,9.524,M,38.490,M,1.6,0012*4E
$GPGGA,023518.70,3439.65538384,N,13744.68865748,E,4,04,2.9,9.529,M,38.490,M,1.7,0012*42
$GPGGA,023518.75,3439.65538797,N,13744.68865687,E,4,04,2.9,9.522,M,38.490,M,1.8,0012*47
$GPGGA,023518.80,3439.65538730,N,13744.68865655,E,4,04,2.9,9.519,M,38.490,M,1.8,0012*47
$GPGGA,023518.85,3439.65538348,N,13744.68865917,E,4,04,2.9,9.532,M,38.490,M,1.9,0012*48
$GPGGA,023518.90,3439.65538479,N,13744.68866085,E,4,04,2.9,9.527,M,38.490,M,1.9,0012*4C
$GPGGA,023518.95,3439.65538927,N,13744.68866448,E,4,04,2.9,9.516,M,38.490,M,2.0,0012*42
$GPGGA,023519.00,3439.65539201,N,13744.68866910,E,4,04,2.9,9.523,M,38.490,M,2.0,0012*47
$GPGGA,023519.05,3439.65538883,N,13744.68867013,E,4,04,2.9,9.533,M,38.490,M,2.0,0012*49
$GPGGA,023519.10,3439.65538792,N,13744.68866870,E,4,04,2.9,9.525,M,38.490,M,2.1,0012*48
$GPGGA,023519.15,3439.65538456,N,13744.68866811,E,4,04,2.9,9.530,M,38.490,M,2.2,0012*46
$GPGGA,023519.20,3439.65538308,N,13744.68866912,E,4,04,2.9,9.526,M,38.490,M,2.2,0012*49
$GPGGA,023519.25,3439.65538590,N,13744.68866372,E,4,04,2.9,9.520,M,38.490,M,2.3,0012*40
$GPGGA,023519.30,3439.65538765,N,13744.68866422,E,4,04,2.9,9.520,M,38.490,M,2.3,0012*4E
$GPGGA,023519.35,3439.65538944,N,13744.68866305,E,4,04,2.9,9.517,M,38.490,M,2.3,0012*40
$GPGGA,023519.40,3439.65538930,N,13744.68866399,E,4,04,2.9,9.518,M,38.490,M,2.4,0012*4C
$GPGGA,023519.45,3439.65539187,N,13744.68866825,E,4,04,2.9,9.521,M,38.490,M,2.5,0012*4B
$GPGGA,023519.50,3439.65539303,N,13744.68866957,E,4,04,2.9,9.528,M,38.490,M,2.5,0012*4C
$GPGGA,023519.55,3439.65539332,N,13744.68867207,E,4,04,2.9,9.530,M,38.490,M,2.5,0012*4D
$GPGGA,023519.60,3439.65539677,N,13744.68867948,E,4,04,2.9,9.534,M,38.490,M,2.6,0012*48
$GPGGA,023519.65,3439.65540308,N,13744.68868321,E,4,04,2.9,9.534,M,38.490,M,2.7,0012*45
$GPGGA,023519.70,3439.65540661,N,13744.68868778,E,4,04,2.9,9.533,M,38.490,M,2.7,0012*44
$GPGGA,023519.75,3439.65541005,N,13744.68868939,E,4,04,2.9,9.539,M,38.490,M,2.8,0012*4A
$GPGGA,023519.80,3439.65541038,N,13744.68869218,E,4,04,2.9,9.541,M,38.490,M,2.8,0012*48
$GPGGA,023519.85,3439.65541407,N,13744.68869590,E,4,04,2.9,9.537,M,38.490,M,2.8,0012*43
$GPGGA,023519.90,3439.65541318,N,13744.68869920,E,4,04,2.9,9.535,M,38.490,M,2.9,0012*4A
$GPGGA,023519.95,3439.65540099,N,13744.68870194,E,4,04,2.9,9.499,M,38.490,M,2.0,0012*45
$GPGGA,023520.00,3439.65540598,N,13744.68870734,E,4,04,2.9,9.504,M,38.490,M,2.0,0012*4E
$GPGGA,023520.05,3439.65540628,N,13744.68870873,E,4,04,2.9,9.506,M,38.490,M,2.0,0012*4D
$GPGGA,023520.10,3439.65540236,N,13744.68871103,E,4,04,2.9,9.510,M,38.490,M,2.1,0012*4B
$GPGGA,023520.15,3439.65540180,N,13744.68871072,E,4,04,2.9,9.501,M,38.490,M,2.2,0012*44
$GPGGA,023520.20,3439.65540067,N,13744.68870952,E,4,04,2.9,9.506,M,38.490,M,2.2,0012*47
$GPGGA,023520.25,3439.65539796,N,13744.68870742,E,4,04,2.9,9.505,M,38.490,M,2.3,0012*48
$GPGGA,023520.30,3439.65539721,N,13744.68870608,E,4,04,2.9,9.505,M,38.490,M,2.3,0012*4F
$GPGGA,023520.35,3439.65539518,N,13744.68870504,E,4,04,2.9,9.503,M,38.490,M,1.4,0012*4F
$GPGGA,023520.40,3439.65540071,N,13744.68870989,E,4,04,2.9,9.515,M,38.490,M,1.4,0012*47
$GPGGA,023520.45,3439.65539836,N,13744.68870974,E,4,04,2.9,9.499,M,38.490,M,1.5,0012*41
$GPGGA,023520.50,3439.65540024,N,13744.68871328,E,4,04,2.9,9.497,M,38.490,M,1.5,0012*4C
$GPGGA,023520.55,3439.65540282,N,13744.68871368,E,4,04,2.9,9.499,M,38.490,M,1.5,0012*4D
$GPGGA,023520.60,3439.65540613,N,13744.68871374,E,4,04,2.9,9.505,M,38.490,M,1.6,0012*4D
$GPGGA,023520.65,3439.65540681,N,13744.68871232,E,4,04,2.9,9.503,M,38.490,M,1.6,0012*46
$GPGGA,023520.70,3439.65540779,N,13744.68870574,E,4,04,2.9,9.495,M,38.490,M,1.7,0012*4F
$GPGGA,023520.75,3439.65540388,N,13744.68870355,E,4,04,2.9,9.496,M,38.490,M,1.8,0012*49
$GPGGA,023520.80,3439.65539942,N,13744.68870091,E,4,04,2.9,9.494,M,38.490,M,1.8,0012*48
$GPGGA,023520.85,3439.65538380,N,13744.68869737,E,4,04,2.9,9.489,M,38.490,M,0.9,0012*47
$GPGGA,023520.90,3439.65537314,N,13744.68869592,E,4,04,2.9,9.483,M,38.490,M,0.9,0012*46
$GPGGA,023520.95,3439.65536092,N,13744.68869491,E,4,04,2.9,9.489,M,38.490,M,0.9,0012*47
$GPGGA,023521.00,3439.65534756,N,13744.68869388,E,4,04,2.9,9.484,M,38.490,M,1.0,0012*4D
$GPGGA,023521.05,3439.65534495,N,13744.68869420,E,4,04,2.9,9.494,M,38.490,M,1.0,0012*40
$GPGGA,023521.10,3439.65534858,N,13744.68869524,E,4,04,2.9,9.498,M,38.490,M,1.1,0012*41
$GPGGA,023521.15,3439.65534715,N,13744.68869858,E,4,04,2.9,9.478,M,38.490,M,1.1,0012*4A
$GPGGA,023521.20,3439.65535019,N,13744.68870276,E,4,04,2.9,9.484,M,38.490,M,1.2,0012*48
$GPGGA,023521.25,3439.65535049,N,13744.68870755,E,4,04,2.9,9.500,M,38.490,M,1.3,0012*40
$GPGGA,023521.30,3439.65534938,N,13744.68869891,E,4,04,2.9,9.493,M,38.490,M,1.3,0012*4E
$GPGGA,023521.35,3439.65535276,N,13744.68869133,E,4,04,2.9,9.494,M,38.490,M,1.4,0012*4A
$GPGGA,023521.40,3439.65535506,N,13744.68868953,E,4,04,2.9,9.497,M,38.490,M,1.4,0012*44
$GPGGA,023521.45,3439.65535870,N,13744.68868853,E,4,04,2.9,9.492,M,38.490,M,1.5,0012*48
$GPGGA,023521.50,3439.65536122,N,13744.68868241,E,4,04,2.9,9.481,M,38.490,M,1.5,0012*4A
$GPGGA,023521.55,3439.65536343,N,13744.68867885,E,4,04,2.9,9.477,M,38.490,M,1.5,0012*4E
$GPGGA,023521.60,3439.65536570,N,13744.68867521,E,4,04,2.9,9.487,M,38.490,M,1.6,0012*41
$GPGGA,023521.65,3439.65536880,N,13744.68867413,E,4,04,2.9,9.486,M,38.490,M,1.6,0012*47
$GPGGA,023521.70,3439.65536736,N,13744.68867290,E,4,04,2.9,9.481,M,38.490,M,1.7,0012*4A
$GPGGA,023521.75,3439.65537069,N,13744.68867009,E,4,04,2.9,9.488,M,38.490,M,1.8,0012*47
$GPGGA,023521.80,3439.65535643,N,13744.68866023,E,4,04,2.9,9.449,M,38.490,M,1.8,0012*45
$GPGGA,023521.85,3439.65536030,N,13744.68866204,E,4,04,2.9,9.462,M,38.490,M,1.9,0012*4E
$GPGGA,023521.90,3439.65536730,N,13744.68867003,E,4,04,2.9,9.477,M,38.490,M,1.9,0012*4D
$GPGGA,023521.95,3439.65536212,N,13744.68866948,E,4,04,2.9,9.470,M,38.490,M,0.9,0012*4C
$GPGGA,023522.00,3439.65536001,N,13744.68866847,E,4,04,2.9,9.457,M,38.490,M,1.0,0012*40
$GPGGA,023522.05,3439.65535672,N,13744.68867067,E,4,04,2.9,9.459,M,38.490,M,1.0,0012*41
$GPGGA,023522.10,3439.65535246,N,13744.68867469,E,4,04,2.9,9.499,M,38.490,M,1.1,0012*41
$GPGGA,023522.15,3439.65535048,N,13744.68867617,E,4,04,2.9,9.516,M,38.490,M,1.1,0012*45
$GPGGA,023522.20,3439.65535474,N,13744.68867527,E,4,04,2.9,9.463,M,38.490,M,1.2,0012*48
$GPGGA,023522.25,3439.65534347,N,13744.68867068,E,4,04,2.9,9.474,M,38.490,M,1.3,0012*42
$GPGGA,023522.30,3439.65535029,N,13744.68867431,E,4,04,2.9,9.466,M,38.490,M,1.3,0012*47
$GPGGA,023522.35,3439.65535003,N,13744.68867638,E,4,04,2.9,9.467,M,38.490,M,1.4,0012*47
$GPGGA,023522.40,3439.65534039,N,13744.68867594,E,4,04,2.9,9.475,M,38.490,M,1.4,0012*4B
$GPGGA,023522.45,3439.65534540,N,13744.68867696,E,4,04,2.9,9.468,M,38.490,M,1.5,0012*49
$GPGGA,023522.50,3439.65533721,N,13744.68868096,E,4,04,2.9,9.498,M,38.490,M,1.5,0012*49
$GPGGA,023522.55,3439.65534064,N,13744.68868039,E,4,04,2.9,9.469,M,38.490,M,1.5,0012*46
$GPGGA,023522.60,3439.65533844,N,13744.68868449,E,4,04,2.9,9.485,M,38.490,M,1.6,0012*4F
$GPGGA,023522.65,3439.65534205,N,13744.68868674,E,4,04,2.9,9.471,M,38.490,M,1.6,0012*45
$GPGGA,023522.70,3439.65534280,N,13744.68868833,E,4,04,2.9,9.466,M,38.490,M,1.7,0012*46
$GPGGA,023522.75,3439.65534482,N,13744.68868953,E,4,04,2.9,9.468,M,38.490,M,1.8,0012*41
$GPGGA,023522.80,3439.65535028,N,13744.68868900,E,4,04,2.9,9.463,M,38.490,M,1.8,0012*43
$GPGGA,023522.85,3439.65535482,N,13744.68868497,E,4,04,2.9,9.454,M,38.490,M,1.9,0012*44
$GPGGA,023522.90,3439.65534527,N,13744.68869234,E,4,04,2.9,9.502,M,38.490,M,1.9,0012*43
$GPGGA,023522.95,3439.65535006,N,13744.68869979,E,4,04,2.9,9.512,M,38.490,M,0.9,0012*43
$GPGGA,023523.00,3439.65535109,N,13744.68869642,E,4,04,2.9,9.500,M,38.490,M,1.0,0012*4C
$GPGGA,023523.05,3439.65534918,N,13744.68869980,E,4,04,2.9,9.518,M,38.490,M,1.0,0012*48
$GPGGA,023523.10,3439.65534829,N,13744.68870281,E,4,04,2.9,9.523,M,38.490,M,1.1,0012*44
$GPGGA,023523.15,3439.65534190,N,13744.68870707,E,4,04,2.9,9.520,M,38.490,M,1.1,0012*42
$GPGGA,023523.20,3439.65534393,N,13744.68871069,E,4,04,2.9,9.507,M,38.490,M,1.2,0012*4D
$GPGGA,023523.25,3439.65534157,N,13744.68871267,E,4,04,2.9,9.510,M,38.490,M,1.3,0012*49
$GPGGA,023523.30,3439.65534256,N,13744.68872025,E,4,04,2.9,9.490,M,38.490,M,1.3,0012*41
$GPGGA,023523.35,3439.65533765,N,13744.68872870,E,4,04,2.9,9.475,M,38.490,M,1.4,0012*42
$GPGGA,023523.40,3439.65533285,N,13744.68873257,E,4,04,2.9,9.493,M,38.490,M,1.4,0012*4D
$GPGGA,023523.45,3439.65532900,N,13744.68873693,E,4,04,2.9,9.527,M,38.490,M,1.5,0012*4C
$GPGGA,023523.50,3439.65532788,N,13744.68873664,E,4,04,2.9,9.554,M,38.490,M,1.5,0012*4A
$GPGGA,023523.55,3439.65532880,N,13744.68873348,E,4,04,2.9,9.575,M,38.490,M,1.5,0012*40
$GPGGA,023523.60,3439.65532921,N,13744.68872378,E,4,04,2.9,9.426,M,38.490,M,0.6,0012*4B
$GPGGA,023523.65,3439.65534455,N,13744.68872235,E,4,04,2.9,9.407,M,38.490,M,0.6,0012*4D
$GPGGA,023523.70,3439.65535845,N,13744.68872144,E,4,04,2.9,9.410,M,38.490,M,0.7,0012*47
$GPGGA,023523.75,3439.65537838,N,13744.68872557,E,4,04,2.9,9.441,M,38.490,M,0.8,0012*47
$GPGGA,023523.80,3439.65535129,N,13744.68872308,E,4,04,2.9,9.482,M,38.490,M,0.8,0012*45
$GPGGA,023523.85,3439.65536107,N,13744.68862085,E,4,04,2.9,9.262,M,38.490,M,0.9,0012*41
$GPGGA,023523.90,3439.65535934,N,13744.68863290,E,4,04,2.9,9.295,M,38.490,M,0.9,0012*41
$GPGGA,023523.95,3439.65535645,N,13744.68870603,E,4,04,2.9,9.463,M,38.490,M,0.9,0012*4E
$GPGGA,023524.00,3439.65535961,N,13744.68870114,E,4,04,2.9,9.463,M,38.490,M,1.0,0012*45
$GPGGA,023524.05,3439.65536307,N,13744.68869735,E,4,04,2.9,9.472,M,38.490,M,1.0,0012*44
$GPGGA,023524.10,3439.65536744,N,13744.68868995,E,4,04,2.9,9.470,M,38.490,M,1.1,0012*45
$GPGGA,023524.15,3439.65537478,N,13744.68865557,E,4,04,2.9,9.412,M,38.490,M,1.1,0012*46
$GPGGA,023524.20,3439.65537993,N,13744.68863352,E,4,04,2.9,9.377,M,38.490,M,1.2,0012*4A
$GPGGA,023524.25,3439.65538338,N,13744.68867801,E,4,04,2.9,9.493,M,38.490,M,1.3,0012*4E
$GPGGA,023524.30,3439.65539412,N,13744.68867374,E,4,04,2.9,9.499,M,38.490,M,1.3,0012*47
$GPGGA,023524.35,3439.65540487,N,13744.68866955,E,4,04,2.9,9.516,M,38.490,M,1.4,0012*49
$GPGGA,023524.40,3439.65541358,N,13744.68866907,E,4,04,2.9,9.528,M,38.490,M,1.4,0012*45
$GPGGA,023524.45,3439.65542511,N,13744.68866517,E,4,04,2.9,9.534,M,38.490,M,1.5,0012*49
$GPGGA,023524.50,3439.65543562,N,13744.68865448,E,4,04,2.9,9.516,M,38.490,M,1.5,0012*40
$GPGGA,023524.55,3439.65545530,N,13744.68865206,E,4,04,2.9,9.516,M,38.490,M,1.5,0012*48
$GPGGA,023524.60,3439.65545452,N,13744.68864045,E,4,04,2.9,9.487,M,38.490,M,1.6,0012*45
$GPGGA,023524.65,3439.65546575,N,13744.68863912,E,4,04,2.9,9.495,M,38.490,M,1.6,0012*48
$GPGGA,023524.70,3439.65546991,N,13744.68863471,E,4,04,2.9,9.492,M,38.490,M,1.7,0012*44
$GPGGA,023524.75,3439.65546587,N,13744.68863492,E,4,04,2.9,9.492,M,38.490,M,1.8,0012*48
$GPGGA,023524.80,3439.65550444,N,13744.68863603,E,4,04,2.9,9.578,M,38.490,M,0.8,0012*45
$GPGGA,023524.85,3439.65553420,N,13744.68864729,E,4,04,2.9,9.607,M,38.490,M,0.9,0012*45
$GPGGA,023524.90,3439.65554301,N,13744.68864797,E,4,04,2.9,9.614,M,38.490,M,0.9,0012*45
$GPGGA,023524.95,3439.65553497,N,13744.68863273,E,4,04,2.9,9.573,M,38.490,M,0.9,0012*45
$GPGGA,023525.00,3439.65553890,N,13744.68863350,E,4,04,2.9,9.573,M,38.490,M,1.0,0012*4B
$GPGGA,023525.05,3439.65554753,N,13744.68863699,E,4,04,2.9,9.588,M,38.490,M,1.0,0012*4D
$GPGGA,023525.10,3439.65556040,N,13744.68863882,E,4,04,2.9,9.599,M,38.490,M,1.1,0012*4B
$GPGGA,023525.15,3439.65556799,N,13744.68863875,E,4,04,2.9,9.600,M,38.490,M,1.1,0012*46
$GPGGA,023525.20,3439.65557598,N,13744.68863881,E,4,04,2.9,9.598,M,38.490,M,1.2,0012*48
$GPGGA,023525.25,3439.65557676,N,13744.68863862,E,4,04,2.9,9.594,M,38.490,M,1.3,0012*4E
$GPGGA,023525.30,3439.65558540,N,13744.68864312,E,4,04,2.9,9.613,M,38.490,M,1.3,0012*44
$GPGGA,023525.35,3439.65559175,N,13744.68864348,E,4,04,2.9,9.619,M,38.490,M,1.4,0012*40
$GPGGA,023525.40,3439.65560747,N,13744.68864505,E,4,04,2.9,9.652,M,38.490,M,1.4,0012*4F
$GPGGA,023525.45,3439.65560636,N,13744.68863986,E,4,04,2.9,9.625,M,38.490,M,1.5,0012*4C
$GPGGA,023525.50,3439.65561910,N,13744.68865199,E,4,04,2.9,9.639,M,38.490,M,1.5,0012*4F
$GPGGA,023525.55,3439.65562328,N,13744.68865671,E,4,04,2.9,9.634,M,38.490,M,1.5,0012*44
$GPGGA,023525.60,3439.65562620,N,13744.68865898,E,4,04,2.9,9.628,M,38.490,M,1.6,0012*48
$GPGGA,023525.65,3439.65563277,N,13744.68866350,E,4,04,2.9,9.611,M,38.490,M,1.6,0012*4C
$GPGGA,023525.70,3439.65564418,N,13744.68866681,E,4,04,2.9,9.592,M,38.490,M,1.7,0012*40
$GPGGA,023525.75,3439.65565121,N,13744.68866799,E,4,04,2.9,9.582,M,38.490,M,1.8,0012*4D
$GPGGA,023525.80,3439.65565918,N,13744.68866583,E,4,04,2.9,9.572,M,38.490,M,1.8,0012*43
$GPGGA,023525.85,3439.65568101,N,13744.68867135,E,4,04,2.9,9.590,M,38.490,M,0.9,0012*4F
$GPGGA,023525.90,3439.65568556,N,13744.68867196,E,4,04,2.9,9.587,M,38.490,M,0.9,0012*42
$GPGGA,023525.95,3439.65569610,N,13744.68867346,E,4,04,2.9,9.585,M,38.490,M,0.9,0012*4A
$GPGGA,023526.00,3439.65570196,N,13744.68867568,E,4,04,2.9,9.580,M,38.490,M,1.0,0012*43
$GPGGA,023526.05,3439.65570784,N,13744.68868063,E,4,04,2.9,9.592,M,38.490,M,1.0,0012*41
$GPGGA,023526.10,3439.65571353,N,13744.68868862,E,4,04,2.9,9.613,M,38.490,M,1.1,0012*48
$GPGGA,023526.15,3439.65571280,N,13744.68868740,E,4,04,2.9,9.603,M,38.490,M,1.1,0012*4C
$GPGGA,023526.20,3439.65571472,N,13744.68868698,E,4,04,2.9,9.589,M,38.490,M,1.2,0012*47
$GPGGA,023526.25,3439.65571910,N,13744.68868849,E,4,04,2.9,9.582,M,38.490,M,1.3,0012*43
$GPGGA,023526.30,3439.65572517,N,13744.68868914,E,4,04,2.9,9.583,M,38.490,M,1.3,0012*47
$GPGGA,023526.35,3439.65573046,N,13744.68869203,E,4,04,2.9,9.591,M,38.490,M,1.4,0012*4A
$GPGGA,023526.40,3439.65573776,N,13744.68869704,E,4,04,2.9,9.601,M,38.490,M,1.4,0012*44
$GPGGA,023526.45,3439.65573596,N,13744.68869830,E,4,04,2.9,9.585,M,38.490,M,1.5,0012*4B
$GPGGA,023526.50,3439.65573704,N,13744.68869709,E,4,04,2.9,9.556,M,38.490,M,1.5,0012*4D
$GPGGA,023526.55,3439.65573536,N,13744.68870053,E,4,04,2.9,9.559,M,38.490,M,1.5,0012*44
$GPGGA,023526.60,3439.65573946,N,13744.68870761,E,4,04,2.9,9.576,M,38.490,M,1.6,0012*41
$GPGGA,023526.65,3439.65573961,N,13744.68871081,E,4,04,2.9,9.579,M,38.490,M,1.6,0012*46
$GPGGA,023526.70,3439.65573615,N,13744.68871423,E,4,04,2.9,9.579,M,38.490,M,1.7,0012*43
$GPGGA,023526.75,3439.65573957,N,13744.68871779,E,4,04,2.9,9.592,M,38.490,M,1.8,0012*49
$GPGGA,023526.80,3439.65574179,N,13744.68871750,E,4,04,2.9,9.598,M,38.490,M,1.8,0012*41
$GPGGA,023526.85,3439.65574122,N,13744.68871587,E,4,04,2.9,9.587,M,38.490,M,1.9,0012*4D
$GPGGA,023526.90,3439.65573850,N,13744.68871744,E,4,04,2.9,9.577,M,38.490,M,1.9,0012*40
$GPGGA,023526.95,3439.65574005,N,13744.68872408,E,4,04,2.9,9.587,M,38.490,M,2.0,0012*47
$GPGGA,023527.00,3439.65574031,N,13744.68873023,E,4,04,2.9,9.604,M,38.490,M,2.0,0012*49
$GPGGA,023527.05,3439.65573756,N,13744.68872975,E,4,04,2.9,9.587,M,38.490,M,2.0,0012*4E
$GPGGA,023527.10,3439.65574013,N,13744.68873061,E,4,04,2.9,9.574,M,38.490,M,2.1,0012*4B
$GPGGA,023527.15,3439.65573850,N,13744.68873203,E,4,04,2.9,9.583,M,38.490,M,2.2,0012*4B
$GPGGA,023527.20,3439.65573514,N,13744.68873240,E,4,04,2.9,9.579,M,38.490,M,2.2,0012*42
$GPGGA,023527.25,3439.65573587,N,13744.68873093,E,4,04,2.9,9.569,M,38.490,M,2.3,0012*41
$GPGGA,023527.30,3439.65573556,N,13744.68872743,E,4,04,2.9,9.563,M,38.490,M,2.3,0012*48
$GPGGA,023527.35,3439.65573848,N,13744.68873083,E,4,04,2.9,9.576,M,38.490,M,2.3,0012*41
$GPGGA,023527.40,3439.65574256,N,13744.68873414,E,4,04,2.9,9.583,M,38.490,M,2.4,0012*46
$GPGGA,023527.45,3439.65573792,N,13744.68873575,E,4,04,2.9,9.585,M,38.490,M,2.5,0012*48
$GPGGA,023527.50,3439.65573377,N,13744.68873305,E,4,04,2.9,9.561,M,38.490,M,2.5,0012*48
$GPGGA,023527.55,3439.65573715,N,13744.68873289,E,4,04,2.9,9.567,M,38.490,M,2.5,0012*4E
$GPGGA,023527.60,3439.65574011,N,13744.68873433,E,4,04,2.9,9.582,M,38.490,M,2.6,0012*43
$GPGGA,023527.65,3439.65573250,N,13744.68872924,E,4,04,2.9,9.561,M,38.490,M,2.7,0012*40
$GPGGA,023527.70,3439.65573458,N,13744.68872942,E,4,04,2.9,9.555,M,38.490,M,2.7,0012*4D
$GPGGA,023527.75,3439.65573616,N,13744.68873182,E,4,04,2.9,9.566,M,38.490,M,2.8,0012*4A
$GPGGA,023527.80,3439.65573732,N,13744.68873551,E,4,04,2.9,9.588,M,38.490,M,2.8,0012*4D
$GPGGA,023527.85,3439.65573553,N,13744.68873292,E,4,04,2.9,9.571,M,38.490,M,2.8,0012*43
$GPGGA,023527.90,3439.65573457,N,13744.68873137,E,4,04,2.9,9.596,M,38.490,M,1.9,0012*45
$GPGGA,023527.95,3439.65573606,N,13744.68873098,E,4,04,2.9,9.595,M,38.490,M,2.0,0012*4B
$GPGGA,023528.00,3439.65573803,N,13744.68872860,E,4,04,2.9,9.580,M,38.490,M,2.0,0012*49
$GPGGA,023528.05,3439.65574226,N,13744.68872956,E,4,04,2.9,9.585,M,38.490,M,2.0,0012*47
$GPGGA,023528.10,3439.65574337,N,13744.68873240,E,4,04,2.9,9.602,M,38.490,M,2.1,0012*42
$GPGGA,023528.15,3439.65573792,N,13744.68873049,E,4,04,2.9,9.600,M,38.490,M,2.2,0012*41
$GPGGA,023528.20,3439.65573506,N,13744.68872769,E,4,04,2.9,9.592,M,38.490,M,2.2,0012*44
$GPGGA,023528.25,3439.65573926,N,13744.68873006,E,4,04,2.9,9.601,M,38.490,M,2.3,0012*48
$GPGGA,023528.30,3439.65574615,N,13744.68873269,E,4,04,2.9,9.604,M,38.490,M,2.3,0012*4A
$GPGGA,023528.35,3439.65574495,N,13744.68872898,E,4,04,2.9,9.594,M,38.490,M,2.3,0012*4A
$GPGGA,023528.40,3439.65572939,N,13744.68872398,E,4,04,2.9,9.558,M,38.490,M,1.4,0012*4A
$GPGGA,023528.45,3439.65573191,N,13744.68872532,E,4,04,2.9,9.562,M,38.490,M,1.5,0012*4A
$GPGGA,023528.50,3439.65573421,N,13744.68872653,E,4,04,2.9,9.562,M,38.490,M,1.5,0012*44
$GPGGA,023528.55,3439.65573605,N,13744.68872502,E,4,04,2.9,9.556,M,38.490,M,1.5,0012*45
$GPGGA,023528.60,3439.65573486,N,13744.68872389,E,4,04,2.9,9.560,M,38.490,M,1.6,0012*49
$GPGGA,023528.65,3439.65573030,N,13744.68872243,E,4,04,2.9,9.560,M,38.490,M,1.6,0012*42
$GPGGA,023528.70,3439.65573528,N,13744.68872545,E,4,04,2.9,9.572,M,38.490,M,1.7,0012*49
$GPGGA,023528.75,3439.65573865,N,13744.68872673,E,4,04,2.9,9.596,M,38.490,M,1.8,0012*4B
$GPGGA,023528.80,3439.65571302,N,13744.68871700,E,4,04,2.9,9.516,M,38.490,M,1.8,0012*47
$GPGGA,023528.85,3439.65571359,N,13744.68872238,E,4,04,2.9,9.539,M,38.490,M,1.9,0012*4D
$GPGGA,023528.90,3439.65571992,N,13744.68872425,E,4,04,2.9,9.552,M,38.490,M,1.9,0012*43
$GPGGA,023528.95,3439.65572051,N,13744.68872339,E,4,04,2.9,9.559,M,38.490,M,2.0,0012*48
$GPGGA,023529.00,3439.65571382,N,13744.68872087,E,4,04,2.9,9.547,M,38.490,M,2.0,0012*42
$GPGGA,023529.05,3439.65570888,N,13744.68872314,E,4,04,2.9,9.541,M,38.490,M,2.0,0012*48
$GPGGA,023529.10,3439.65570840,N,13744.68872563,E,4,04,2.9,9.552,M,38.490,M,2.1,0012*4D
$GPGGA,023529.15,3439.65570802,N,13744.68872245,E,4,04,2.9,9.542,M,38.490,M,2.2,0012*4F
$GPGGA,023529.20,3439.65570489,N,13744.68872268,E,4,04,2.9,9.534,M,38.490,M,2.2,0012*48
$GPGGA,023529.25,3439.65570061,N,13744.68872383,E,4,04,2.9,9.529,M,38.490,M,2.3,0012*46
$GPGGA,023529.30,3439.65570215,N,13744.68872781,E,4,04,2.9,9.556,M,38.490,M,2.3,0012*4D
$GPGGA,023529.35,3439.65569967,N,13744.68873255,E,4,04,2.9,9.567,M,38.490,M,2.3,0012*41
$GPGGA,023529.40,3439.65569718,N,13744.68873510,E,4,04,2.9,9.561,M,38.490,M,2.4,0012*42
$GPGGA,023529.45,3439.65569305,N,13744.68873597,E,4,04,2.9,9.566,M,38.490,M,2.5,0012*46
$GPGGA,023529.50,3439.65569273,N,13744.68873531,E,4,04,2.9,9.569,M,38.490,M,2.5,0012*41
$GPGGA,023529.55,3439.65569392,N,13744.68873441,E,4,04,2.9,9.578,M,38.490,M,1.5,0012*4F
$GPGGA,023529.60,3439.65569561,N,13744.68873295,E,4,04,2.9,9.575,M,38.490,M,1.6,0012*42
$GPGGA,023529.65,3439.65569382,N,13744.68873420,E,4,04,2.9,9.575,M,38.490,M,1.6,0012*44
$GPGGA,023529.70,3439.65568982,N,13744.68873691,E,4,04,2.9,9.579,M,38.490,M,1.7,0012*4E
$GPGGA,023529.75,3439.65568878,N,13744.68873704,E,4,04,2.9,9.589,M,38.490,M,1.8,0012*42
$GPGGA,023529.80,3439.65569082,N,13744.68873727,E,4,04,2.9,9.587,M,38.490,M,1.8,0012*4B
$GPGGA,023529.85,3439.65568733,N,13744.68873439,E,4,04,2.9,9.572,M,38.490,M,1.9,0012*45
$GPGGA,023529.90,3439.65568421,N,13744.68873284,E,4,04,2.9,9.566,M,38.490,M,1.9,0012*44
$GPGGA,023529.95,3439.65567973,N,13744.68872982,E,4,04,2.9,9.565,M,38.490,M,0.9,0012*4A
$GPGGA,023530.00,3439.65568090,N,13744.68873035,E,4,04,2.9,9.573,M,38.490,M,1.0,0012*4E
$GPGGA,023530.05,3439.65568354,N,13744.68873030,E,4,04,2.9,9.582,M,38.490,M,1.0,0012*4B
$GPGGA,023530.10,3439.65568374,N,13744.68872617,E,4,04,2.9,9.583,M,38.490,M,1.1,0012*4F
$GPGGA,023530.15,3439.65568378,N,13744.68872428,E,4,04,2.9,9.587,M,38.490,M,1.1,0012*4C
$GPGGA,023530.20,3439.65568220,N,13744.68871980,E,4,04,2.9,9.584,M,38.490,M,1.2,0012*4A
$GPGGA,023530.25,3439.65568127,N,13744.68871922,E,4,04,2.9,9.590,M,38.490,M,1.3,0012*47
$GPGGA,023530.30,3439.65567509,N,13744.68871420,E,4,04,2.9,9.564,M,38.490,M,1.3,0012*40
$GPGGA,023530.35,3439.65567393,N,13744.68871355,E,4,04,2.9,9.566,M,38.490,M,1.4,0012*40
$GPGGA,023530.40,3439.65567300,N,13744.68871143,E,4,04,2.9,9.566,M,38.490,M,1.4,0012*4D
$GPGGA,023530.45,3439.65567568,N,13744.68871025,E,4,04,2.9,9.581,M,38.490,M,1.5,0012*49
$GPGGA,023530.50,3439.65567728,N,13744.68870965,E,4,04,2.9,9.589,M,38.490,M,1.5,0012*4F
$GPGGA,023530.55,3439.65567956,N,13744.68870899,E,4,04,2.9,9.592,M,38.490,M,1.5,0012*45
$GPGGA,023530.60,3439.65567615,N,13744.68870879,E,4,04,2.9,9.585,M,38.490,M,1.6,0012*40
$GPGGA,023530.65,3439.65567643,N,13744.68870781,E,4,04,2.9,9.569,M,38.490,M,1.6,0012*4C
$GPGGA,023530.70,3439.65567870,N,13744.68871230,E,4,04,2.9,9.586,M,38.490,M,1.7,0012*48
$GPGGA,023530.75,3439.65568233,N,13744.68871334,E,4,04,2.9,9.598,M,38.490,M,1.8,0012*4A
$GPGGA,023530.80,3439.65568236,N,13744.68870982,E,4,04,2.9,9.595,M,38.490,M,1.8,0012*4E
$GPGGA,023530.85,3439.65567921,N,13744.68870898,E,4,04,2.9,9.590,M,38.490,M,1.9,0012*47
$GPGGA,023530.90,3439.65568182,N,13744.68871014,E,4,04,2.9,9.589,M,38.490,M,1.9,0012*48
$GPGGA,023530.95,3439.65568329,N,13744.68871102,E,4,04,2.9,9.620,M,38.490,M,0.9,0012*49
$GPGGA,023531.00,3439.65568327,N,13744.68871088,E,4,04,2.9,9.621,M,38.490,M,1.0,0012*40
$GPGGA,023531.05,3439.65568698,N,13744.68871213,E,4,04,2.9,9.626,M,38.490,M,1.0,0012*43
$GPGGA,023531.10,3439.65568882,N,13744.68871555,E,4,04,2.9,9.636,M,38.490,M,1.1,0012*47
$GPGGA,023531.15,3439.65568874,N,13744.68871569,E,4,04,2.9,9.635,M,38.490,M,1.1,0012*47
$GPGGA,023531.20,3439.65568652,N,13744.68871523,E,4,04,2.9,9.635,M,38.490,M,1.2,0012*46
$GPGGA,023531.25,3439.65568876,N,13744.68871590,E,4,04,2.9,9.645,M,38.490,M,1.3,0012*45
$GPGGA,023531.30,3439.65568886,N,13744.68871586,E,4,04,2.9,9.654,M,38.490,M,1.3,0012*49
$GPGGA,023531.35,3439.65569104,N,13744.68872054,E,4,04,2.9,9.673,M,38.490,M,1.4,0012*45
$GPGGA,023531.40,3439.65568882,N,13744.68872492,E,4,04,2.9,9.690,M,38.490,M,1.4,0012*42
$GPGGA,023531.45,3439.65568833,N,13744.68872629,E,4,04,2.9,9.701,M,38.490,M,1.5,0012*47
$GPGGA,023531.50,3439.65569180,N,13744.68873056,E,4,04,2.9,9.722,M,38.490,M,1.5,0012*4D
$GPGGA,023531.55,3439.65568739,N,13744.68873521,E,4,04,2.9,9.736,M,38.490,M,1.5,0012*4D
$GPGGA,023531.60,3439.65568421,N,13744.68873823,E,4,04,2.9,9.749,M,38.490,M,1.6,0012*45
$GPGGA,023531.65,3439.65567804,N,13744.68874191,E,4,04,2.9,9.761,M,38.490,M,1.6,0012*49
$GPGGA,023531.70,3439.65567897,N,13744.68874696,E,4,04,2.9,9.791,M,38.490,M,1.7,0012*49
$GPGGA,023531.75,3439.65568021,N,13744.68875129,E,4,04,2.9,9.816,M,38.490,M,1.8,0012*4B
$GPGGA,023531.80,3439.65568021,N,13744.68875558,E,4,04,2.9,9.831,M,38.490,M,1.8,0012*46
$GPGGA,023531.85,3439.65567796,N,13744.68875960,E,4,04,2.9,9.837,M,38.490,M,1.9,0012*47
$GPGGA,023531.90,3439.65568861,N,13744.68876855,E,4,04,2.9,9.857,M,38.490,M,1.9,0012*49
$GPGGA,023531.95,3439.65570289,N,13744.68877797,E,4,04,2.9,9.908,M,38.490,M,2.0,0012*48
$GPGGA,023532.00,3439.65570634,N,13744.68878118,E,4,04,2.9,9.943,M,38.490,M,1.0,0012*47
$GPGGA,023532.05,3439.65570055,N,13744.68877960,E,4,04,2.9,9.939,M,38.490,M,1.0,0012*46
$GPGGA,023532.10,3439.65570189,N,13744.68878204,E,4,04,2.9,9.954,M,38.490,M,1.1,0012*4E
$GPGGA,023532.15,3439.65570639,N,13744.68878086,E,4,04,2.9,9.962,M,38.490,M,1.1,0012*4A
$GPGGA,023532.20,3439.65570976,N,13744.68877478,E,4,04,2.9,9.955,M,38.490,M,1.2,0012*45
$GPGGA,023532.25,3439.65572772,N,13744.68877707,E,4,04,2.9,9.981,M,38.490,M,1.3,0012*4B
$GPGGA,023532.30,3439.65574442,N,13744.68878012,E,4,04,2.9,10.015,M,38.490,M,1.3,0012*79
$GPGGA,023532.35,3439.65575001,N,13744.68877626,E,4,04,2.9,10.029,M,38.490,M,1.4,0012*78
$GPGGA,023532.40,3439.65576192,N,13744.68877150,E,4,04,2.9,10.032,M,38.490,M,1.4,0012*7E
$GPGGA,023532.45,3439.65578668,N,13744.68877185,E,4,04,2.9,10.064,M,38.490,M,1.5,0012*7D
$GPGGA,023532.50,3439.65581663,N,13744.68877912,E,4,04,2.9,10.118,M,38.490,M,1.5,0012*78
$GPGGA,023532.55,3439.65581758,N,13744.68877549,E,4,04,2.9,10.113,M,38.490,M,1.5,0012*7D
$GPGGA,023532.60,3439.65581565,N,13744.68877430,E,4,04,2.9,10.090,M,38.490,M,1.6,0012*71
$GPGGA,023532.65,3439.65581923,N,13744.68878020,E,4,04,2.9,10.103,M,38.490,M,1.6,0012*7B
$GPGGA,023532.70,3439.65582412,N,13744.68878401,E,4,04,2.9,10.124,M,38.490,M,1.7,0012*70
$GPGGA,023532.75,3439.65582546,N,13744.68878577,E,4,04,2.9,10.151,M,38.490,M,1.8,0012*78
$GPGGA,023532.80,3439.65582857,N,13744.68878809,E,4,04,2.9,10.179,M,38.490,M,1.8,0012*71
$GPGGA,023532.85,3439.65582630,N,13744.68878926,E,4,04,2.9,10.199,M,38.490,M,1.9,0012*78
$GPGGA,023532.90,3439.65582087,N,13744.68878712,E,4,04,2.9,10.213,M,38.490,M,1.9,0012*7E
$GPGGA,023532.95,3439.65579615,N,13744.68877855,E,4,04,2.9,10.150,M,38.490,M,0.9,0012*74
$GPGGA,023533.00,3439.65579027,N,13744.68877764,E,4,04,2.9,10.164,M,38.490,M,1.0,0012*7C
$GPGGA,023533.05,3439.65578350,N,13744.68877623,E,4,04,2.9,10.183,M,38.490,M,1.0,0012*70
$GPGGA,023533.10,3439.65577819,N,13744.68877466,E,4,04,2.9,10.183,M,38.490,M,1.1,0012*7F
$GPGGA,023533.15,3439.65577848,N,13744.68877645,E,4,04,2.9,10.202,M,38.490,M,1.1,0012*77
$GPGGA,023533.20,3439.65576788,N,13744.68877609,E,4,04,2.9,10.203,M,38.490,M,1.2,0012*79
$GPGGA,023533.25,3439.65577174,N,13744.68878472,E,4,04,2.9,10.209,M,38.490,M,1.3,0012*72
$GPGGA,023533.30,3439.65577289,N,13744.68879174,E,4,04,2.9,10.216,M,38.490,M,1.3,0012*7B
$GPGGA,023533.35,3439.65577803,N,13744.68879852,E,4,04,2.9,10.222,M,38.490,M,1.4,0012*7B
$GPGGA,023533.40,3439.65579613,N,13744.68881049,E,4,04,2.9,10.239,M,38.490,M,1.4,0012*77
$GPGGA,023533.45,3439.65578217,N,13744.68880898,E,4,04,2.9,10.241,M,38.490,M,1.5,0012*78
$GPGGA,023533.50,3439.65580252,N,13744.68881968,E,4,04,2.9,10.268,M,38.490,M,1.5,0012*7E
$GPGGA,023533.55,3439.65580620,N,13744.68882005,E,4,04,2.9,10.282,M,38.490,M,1.5,0012*7F
$GPGGA,023533.60,3439.65580342,N,13744.68881598,E,4,04,2.9,10.282,M,38.490,M,1.6,0012*79
$GPGGA,023533.65,3439.65580671,N,13744.68881714,E,4,04,2.9,10.283,M,38.490,M,1.6,0012*7E
$GPGGA,023533.70,3439.65581133,N,13744.68881705,E,4,04,2.9,10.289,M,38.490,M,1.7,0012*71
$GPGGA,023533.75,3439.65581444,N,13744.68881591,E,4,04,2.9,10.296,M,38.490,M,1.8,0012*7F
$GPGGA,023533.80,3439.65579827,N,13744.68880501,E,4,04,2.9,10.286,M,38.490,M,1.8,0012*72
$GPGGA,023533.85,3439.65580235,N,13744.68880520,E,4,04,2.9,10.292,M,38.490,M,1.9,0012*7F
$GPGGA,023533.90,3439.65582896,N,13744.68881393,E,4,04,2.9,10.320,M,38.490,M,1.9,0012*7D
$GPGGA,023533.95,3439.65582080,N,13744.68880757,E,4,04,2.9,10.294,M,38.490,M,2.0,0012*7E
$GPGGA,023534.00,3439.65582358,N,13744.68880669,E,4,04,2.9,10.284,M,38.490,M,2.0,0012*7E
$GPGGA,023534.05,3439.65582696,N,13744.68880378,E,4,04,2.9,10.290,M,38.490,M,2.0,0012*7C
$GPGGA,023534.10,3439.65582854,N,13744.68880334,E,4,04,2.9,10.294,M,38.490,M,2.1,0012*75
$GPGGA,023534.15,3439.65582835,N,13744.68880337,E,4,04,2.9,10.298,M,38.490,M,2.2,0012*7B
$GPGGA,023534.20,3439.65582312,N,13744.68880418,E,4,04,2.9,10.304,M,38.490,M,2.2,0012*7D
$GPGGA,023534.25,3439.65581847,N,13744.68881118,E,4,04,2.9,10.302,M,38.490,M,2.3,0012*73
$GPGGA,023534.30,3439.65581678,N,13744.68881905,E,4,04,2.9,10.302,M,38.490,M,2.3,0012*71
$GPGGA,023534.35,3439.65581529,N,13744.68882430,E,4,04,2.9,10.283,M,38.490,M,2.3,0012*73
$GPGGA,023534.40,3439.65580972,N,13744.68882465,E,4,04,2.9,10.291,M,38.490,M,2.4,0012*76
$GPGGA,023534.45,3439.65580623,N,13744.68882185,E,4,04,2.9,10.276,M,38.490,M,2.5,0012*7B
$GPGGA,023534.50,3439.65579967,N,13744.68881961,E,4,04,2.9,10.285,M,38.490,M,2.5,0012*7B
$GPGGA,023534.55,3439.65579204,N,13744.68881744,E,4,04,2.9,10.266,M,38.490,M,2.5,0012*74
$GPGGA,023534.60,3439.65578251,N,13744.68881438,E,4,04,2.9,10.263,M,38.490,M,2.6,0012*7D
$GPGGA,023534.65,3439.65577392,N,13744.68881499,E,4,04,2.9,10.256,M,38.490,M,2.7,0012*75
$GPGGA,023534.70,3439.65576613,N,13744.68881209,E,4,04,2.9,10.255,M,38.490,M,2.7,0012*70
$GPGGA,023534.75,3439.65577451,N,13744.68881523,E,4,04,2.9,10.292,M,38.490,M,1.8,0012*78
$GPGGA,023534.80,3439.65577490,N,13744.68881654,E,4,04,2.9,10.291,M,38.490,M,1.8,0012*7F
$GPGGA,023534.85,3439.65577813,N,13744.68881982,E,4,04,2.9,10.289,M,38.490,M,1.9,0012*71
$GPGGA,023534.90,3439.65577802,N,13744.68881727,E,4,04,2.9,10.298,M,38.490,M,1.9,0012*74
$GPGGA,023534.95,3439.65578052,N,13744.68881341,E,4,04,2.9,10.297,M,38.490,M,2.0,0012*72
$GPGGA,023535.00,3439.65578363,N,13744.68881045,E,4,04,2.9,10.301,M,38.490,M,2.0,0012*77
$GPGGA,023535.05,3439.65578287,N,13744.68880719,E,4,04,2.9,10.298,M,38.490,M,2.0,0012*77
$GPGGA,023535.10,3439.65578389,N,13744.68880159,E,4,04,2.9,10.291,M,38.490,M,2.1,0012*76
$GPGGA,023535.15,3439.65579047,N,13744.68879612,E,4,04,2.9,10.281,M,38.490,M,2.2,0012*7F
$GPGGA,023535.20,3439.65579883,N,13744.68879351,E,4,04,2.9,10.291,M,38.490,M,2.2,0012*7A
$GPGGA,023535.25,3439.65580762,N,13744.68878926,E,4,04,2.9,10.290,M,38.490,M,2.3,0012*72
$GPGGA,023535.30,3439.65581630,N,13744.68878218,E,4,04,2.9,10.297,M,38.490,M,2.3,0012*70
$GPGGA,023535.35,3439.65582448,N,13744.68877530,E,4,04,2.9,10.304,M,38.490,M,2.3,0012*72
$GPGGA,023535.40,3439.65583172,N,13744.68877304,E,4,04,2.9,10.312,M,38.490,M,2.4,0012*7C
$GPGGA,023535.45,3439.65583944,N,13744.68877579,E,4,04,2.9,10.309,M,38.490,M,2.5,0012*73
$GPGGA,023535.50,3439.65584529,N,13744.68877742,E,4,04,2.9,10.321,M,38.490,M,2.5,0012*77
$GPGGA,023535.55,3439.65584713,N,13744.68878060,E,4,04,2.9,10.323,M,38.490,M,2.5,0012*73
$GPGGA,023535.60,3439.65585221,N,13744.68877704,E,4,04,2.9,10.330,M,38.490,M,2.6,0012*7B
$GPGGA,023535.65,3439.65585874,N,13744.68877600,E,4,04,2.9,10.337,M,38.490,M,1.6,0012*75
$GPGGA,023535.70,3439.65586051,N,13744.68877083,E,4,04,2.9,10.333,M,38.490,M,1.7,0012*75
$GPGGA,023535.75,3439.65586020,N,13744.68876760,E,4,04,2.9,10.333,M,38.490,M,1.8,0012*72
$GPGGA,023535.80,3439.65586009,N,13744.68876892,E,4,04,2.9,10.323,M,38.490,M,1.8,0012*70
$GPGGA,023535.85,3439.65586266,N,13744.68876575,E,4,04,2.9,10.324,M,38.490,M,1.9,0012*7C
$GPGGA,023535.90,3439.65586937,N,13744.68876231,E,4,04,2.9,10.324,M,38.490,M,0.9,0012*71
$GPGGA,023535.95,3439.65586972,N,13744.68875610,E,4,04,2.9,10.325,M,38.490,M,0.9,0012*70
$GPGGA,023536.00,3439.65586824,N,13744.68875403,E,4,04,2.9,10.349,M,38.490,M,1.0,0012*7F
$GPGGA,023536.05,3439.65586777,N,13744.68874688,E,4,04,2.9,10.345,M,38.490,M,1.0,0012*7F
$GPGGA,023536.10,3439.65586669,N,13744.68873944,E,4,04,2.9,10.349,M,38.490,M,1.1,0012*70
$GPGGA,023536.15,3439.65586462,N,13744.68873027,E,4,04,2.9,10.361,M,38.490,M,1.1,0012*7A
$GPGGA,023536.20,3439.65586050,N,13744.68872134,E,4,04,2.9,10.365,M,38.490,M,1.2,0012*7C
$GPGGA,023536.25,3439.65585401,N,13744.68871031,E,4,04,2.9,10.373,M,38.490,M,1.3,0012*7B
$GPGGA,023536.30,3439.65584803,N,13744.68869999,E,4,04,2.9,10.378,M,38.490,M,1.3,0012*79
$GPGGA,023536.35,3439.65584292,N,13744.68869345,E,4,04,2.9,10.372,M,38.490,M,1.4,0012*78
$GPGGA,023536.40,3439.65583782,N,13744.68868579,E,4,04,2.9,10.366,M,38.490,M,1.4,0012*74
$GPGGA,023536.45,3439.65583118,N,13744.68867707,E,4,04,2.9,10.360,M,38.490,M,1.5,0012*77
$GPGGA,023536.50,3439.65582440,N,13744.68866787,E,4,04,2.9,10.353,M,38.490,M,1.5,0012*73
$GPGGA,023536.55,3439.65581439,N,13744.68865487,E,4,04,2.9,10.352,M,38.490,M,1.5,0012*7A
$GPGGA,023536.60,3439.65581502,N,13744.68864592,E,4,04,2.9,10.361,M,38.490,M,1.6,0012*72
$GPGGA,023536.65,3439.65580515,N,13744.68862869,E,4,04,2.9,10.359,M,38.490,M,1.6,0012*74
$GPGGA,023536.70,3439.65580123,N,13744.68860677,E,4,04,2.9,10.356,M,38.490,M,1.7,0012*7C
$GPGGA,023536.75,3439.65580264,N,13744.68858789,E,4,04,2.9,10.358,M,38.490,M,1.8,0012*73
$GPGGA,023536.80,3439.65580665,N,13744.68857788,E,4,04,2.9,10.354,M,38.490,M,1.8,0012*7E
$GPGGA,023536.85,3439.65580851,N,13744.68856742,E,4,04,2.9,10.377,M,38.490,M,1.9,0012*75
$GPGGA,023536.90,3439.65580615,N,13744.68856027,E,4,04,2.9,10.369,M,38.490,M,0.9,0012*75
$GPGGA,023536.95,3439.65581425,N,13744.68855159,E,4,04,2.9,10.343,M,38.490,M,0.9,0012*73
$GPGGA,023537.00,3439.65581261,N,13744.68854625,E,4,04,2.9,10.370,M,38.490,M,1.0,0012*7D
$GPGGA,023537.05,3439.65581621,N,13744.68853736,E,4,04,2.9,10.362,M,38.490,M,1.0,0012*7F
$GPGGA,023537.10,3439.65581874,N,13744.68853008,E,4,04,2.9,10.355,M,38.490,M,1.1,0012*7A
$GPGGA,023537.15,3439.65582084,N,13744.68852229,E,4,04,2.9,10.366,M,38.490,M,1.1,0012*7B
$GPGGA,023537.20,3439.65582415,N,13744.68851638,E,4,04,2.9,10.362,M,38.490,M,1.2,0012*71
$GPGGA,023537.25,3439.65582877,N,13744.68851424,E,4,04,2.9,10.363,M,38.490,M,1.3,0012*73
$GPGGA,023537.30,3439.65583363,N,13744.68850890,E,4,04,2.9,10.366,M,38.490,M,1.3,0012*7F
$GPGGA,023537.35,3439.65584706,N,13744.68850667,E,4,04,2.9,10.382,M,38.490,M,1.4,0012*71
$GPGGA,023537.40,3439.65585184,N,13744.68850362,E,4,04,2.9,10.386,M,38.490,M,1.4,0012*7A
$GPGGA,023537.45,3439.65585010,N,13744.68850125,E,4,04,2.9,10.384,M,38.490,M,1.5,0012*71
$GPGGA,023537.50,3439.65585990,N,13744.68850260,E,4,04,2.9,10.381,M,38.490,M,1.5,0012*73
$GPGGA,023537.55,3439.65587064,N,13744.68850496,E,4,04,2.9,10.381,M,38.490,M,1.5,0012*79
$GPGGA,023537.60,3439.65588328,N,13744.68850906,E,4,04,2.9,10.381,M,38.490,M,1.6,0012*7C
$GPGGA,023537.65,3439.65588742,N,13744.68851047,E,4,04,2.9,10.397,M,38.490,M,1.6,0012*7B
$GPGGA,023537.70,3439.65591544,N,13744.68851815,E,4,04,2.9,10.404,M,38.490,M,1.7,0012*70
$GPGGA,023537.75,3439.65591767,N,13744.68850928,E,4,04,2.9,10.379,M,38.490,M,1.8,0012*7A
$GPGGA,023537.80,3439.65593512,N,13744.68850378,E,4,04,2.9,10.371,M,38.490,M,1.8,0012*75
$GPGGA,023537.85,3439.65594929,N,13744.68849834,E,4,04,2.9,10.376,M,38.490,M,1.9,0012*7E
$GPGGA,023537.90,3439.65596082,N,13744.68849440,E,4,04,2.9,10.375,M,38.490,M,1.9,0012*7C
$GPGGA,023537.95,3439.65597319,N,13744.68849423,E,4,04,2.9,10.383,M,38.490,M,2.0,0012*7F
$GPGGA,023538.00,3439.65598293,N,13744.68850164,E,4,04,2.9,10.385,M,38.490,M,2.0,0012*78
$GPGGA,023538.05,3439.65599319,N,13744.68850743,E,4,04,2.9,10.378,M,38.490,M,2.0,0012*7E
$GPGGA,023538.10,3439.65599217,N,13744.68851992,E,4,04,2.9,10.368,M,38.490,M,2.1,0012*76
$GPGGA,023538.15,3439.65598812,N,13744.68853643,E,4,04,2.9,10.371,M,38.490,M,2.2,0012*77
$GPGGA,023538.20,3439.65598397,N,13744.68855259,E,4,04,2.9,10.374,M,38.490,M,2.2,0012*7B
$GPGGA,023538.25,3439.65597596,N,13744.68855363,E,4,04,2.9,10.371,M,38.490,M,2.3,0012*7A
$GPGGA,023538.30,3439.65597271,N,13744.68855620,E,4,04,2.9,10.366,M,38.490,M,2.3,0012*74
$GPGGA,023538.35,3439.65596666,N,13744.68855803,E,4,04,2.9,10.357,M,38.490,M,2.3,0012*7F
$GPGGA,023538.40,3439.65595731,N,13744.68856210,E,4,04,2.9,10.362,M,38.490,M,2.4,0012*77
$GPGGA,023538.45,3439.65595341,N,13744.68856651,E,4,04,2.9,10.351,M,38.490,M,2.5,0012*71
$GPGGA,023538.50,3439.65595114,N,13744.68856848,E,4,04,2.9,10.355,M,38.490,M,2.5,0012*75
$GPGGA,023538.55,3439.65594986,N,13744.68857474,E,4,04,2.9,10.356,M,38.490,M,1.5,0012*70
$GPGGA,023538.60,3439.65595205,N,13744.68858516,E,4,04,2.9,10.331,M,38.490,M,1.6,0012*7F
$GPGGA,023538.65,3439.65594482,N,13744.68859376,E,4,04,2.9,10.355,M,38.490,M,1.6,0012*71
$GPGGA,023538.70,3439.65594290,N,13744.68860217,E,4,04,2.9,10.341,M,38.490,M,1.7,0012*78
$GPGGA,023538.75,3439.65594105,N,13744.68860792,E,4,04,2.9,10.341,M,38.490,M,1.8,0012*75
$GPGGA,023538.80,3439.65594157,N,13744.68860934,E,4,04,2.9,10.330,M,38.490,M,1.8,0012*7C
$GPGGA,023538.85,3439.65594116,N,13744.68861185,E,4,04,2.9,10.331,M,38.490,M,1.9,0012*7F
$GPGGA,023538.90,3439.65593883,N,13744.68860953,E,4,04,2.9,10.336,M,38.490,M,1.9,0012*7C
$GPGGA,023538.95,3439.65593507,N,13744.68860913,E,4,04,2.9,10.325,M,38.490,M,2.0,0012*74
$GPGGA,023539.00,3439.65592629,N,13744.68861884,E,4,04,2.9,10.328,M,38.490,M,2.0,0012*74
$GPGGA,023539.05,3439.65592422,N,13744.68862545,E,4,04,2.9,10.346,M,38.490,M,1.0,0012*70
$GPGGA,023539.10,3439.65591506,N,13744.68863364,E,4,04,2.9,10.333,M,38.490,M,1.1,0012*77
$GPGGA,023539.15,3439.65591257,N,13744.68864086,E,4,04,2.9,10.342,M,38.490,M,1.1,0012*7F
$GPGGA,023539.20,3439.65590915,N,13744.68864999,E,4,04,2.9,10.349,M,38.490,M,1.2,0012*7A
$GPGGA,023539.25,3439.65591134,N,13744.68865729,E,4,04,2.9,10.297,M,38.490,M,1.3,0012*72
$GPGGA,023539.30,3439.65590770,N,13744.68866812,E,4,04,2.9,10.281,M,38.490,M,1.3,0012*72
$GPGGA,023539.35,3439.65590462,N,13744.68868061,E,4,04,2.9,10.299,M,38.490,M,1.4,0012*7B
$GPGGA,023539.40,3439.65590091,N,13744.68869487,E,4,04,2.9,10.335,M,38.490,M,1.4,0012*7B
$GPGGA,023539.45,3439.65589954,N,13744.68870252,E,4,04,2.9,10.290,M,38.490,M,1.5,0012*7F
$GPGGA,023539.50,3439.65589926,N,13744.68871313,E,4,04,2.9,10.290,M,38.490,M,1.5,0012*7B
$GPGGA,023539.55,3439.65589855,N,13744.68872481,E,4,04,2.9,10.297,M,38.490,M,1.5,0012*73
$GPGGA,023539.60,3439.65589727,N,13744.68873590,E,4,04,2.9,10.313,M,38.490,M,1.6,0012*71
$GPGGA,023539.65,3439.65589388,N,13744.68874525,E,4,04,2.9,10.351,M,38.490,M,1.6,0012*7A
$GPGGA,023539.70,3439.65589952,N,13744.68875264,E,4,04,2.9,10.301,M,38.490,M,1.7,0012*74
$GPGGA,023539.75,3439.65590292,N,13744.68876188,E,4,04,2.9,10.306,M,38.490,M,1.8,0012*74
$GPGGA,023539.80,3439.65590489,N,13744.68876837,E,4,04,2.9,10.290,M,38.490,M,1.8,0012*71
$GPGGA,023539.85,3439.65590023,N,13744.68877662,E,4,04,2.9,10.366,M,38.490,M,1.9,0012*76
$GPGGA,023539.90,3439.65589624,N,13744.68877820,E,4,04,2.9,10.359,M,38.490,M,1.9,0012*7F
$GPGGA,023539.95,3439.65589271,N,13744.68877702,E,4,04,2.9,10.315,M,38.490,M,2.0,0012*73
$GPGGA,023540.00,3439.65588996,N,13744.68877692,E,4,04,2.9,10.308,M,38.490,M,2.0,0012*76
$GPGGA,023540.05,3439.65588796,N,13744.68877782,E,4,04,2.9,10.309,M,38.490,M,2.0,0012*7C
$GPGGA,023540.10,3439.65587787,N,13744.68877150,E,4,07,1.3,10.292,M,38.490,M,1.1,0012*75
$GPGGA,023540.15,3439.65587412,N,13744.68877084,E,4,07,1.3,10.296,M,38.490,M,1.1,0012*73
$GPGGA,023540.20,3439.65586975,N,13744.68876966,E,4,07,1.3,10.305,M,38.490,M,1.2,0012*74
$GPGGA,023540.25,3439.65586660,N,13744.68876765,E,4,07,1.3,10.305,M,38.490,M,1.3,0012*76
$GPGGA,023540.30,3439.65586429,N,13744.68876544,E,4,07,1.3,10.303,M,38.490,M,1.3,0012*7A
$GPGGA,023540.35,3439.65586216,N,13744.68876134,E,4,07,1.3,10.303,M,38.490,M,1.4,0012*71
$GPGGA,023540.40,3439.65586028,N,13744.68875525,E,4,07,1.3,10.292,M,38.490,M,1.4,0012*72
$GPGGA,023540.45,3439.65585670,N,13744.68874951,E,4,07,1.3,10.288,M,38.490,M,1.5,0012*7B
$GPGGA,023540.50,3439.65585259,N,13744.68874412,E,4,07,1.3,10.291,M,38.490,M,1.5,0012*72
$GPGGA,023540.55,3439.65584799,N,13744.68874194,E,4,07,1.3,10.288,M,38.490,M,1.5,0012*7C
$GPGGA,023540.60,3439.65584385,N,13744.68874161,E,4,07,1.3,10.291,M,38.490,M,1.6,0012*72
$GPGGA,023540.65,3439.65584303,N,13744.68874114,E,4,07,1.3,10.287,M,38.490,M,1.6,0012*7C
$GPGGA,023540.70,3439.65584013,N,13744.68874750,E,4,07,1.3,10.334,M,38.490,M,0.7,0012*75
$GPGGA,023540.75,3439.65583869,N,13744.68874950,E,4,07,1.3,10.331,M,38.490,M,0.8,0012*76
$GPGGA,023540.80,3439.65583653,N,13744.68874995,E,4,07,1.3,10.337,M,38.490,M,0.8,0012*74
$GPGGA,023540.85,3439.65583543,N,13744.68874882,E,4,07,1.3,10.338,M,38.490,M,0.9,0012*7A
$GPGGA,023540.90,3439.65583314,N,13744.68874776,E,4,07,1.3,10.339,M,38.490,M,0.9,0012*7F
$GPGGA,023540.95,3439.65582941,N,13744.68874533,E,4,07,1.3,10.339,M,38.490,M,0.9,0012*72
$GPGGA,023541.00,3439.65582759,N,13744.68874472,E,4,07,1.3,10.337,M,38.490,M,1.0,0012*7A
$GPGGA,023541.05,3439.65582542,N,13744.68874404,E,4,07,1.3,10.326,M,38.490,M,1.0,0012*76
$GPGGA,023541.10,3439.65582171,N,13744.68874201,E,4,07,1.3,10.332,M,38.490,M,1.1,0012*71
$GPGGA,023541.15,3439.65582161,N,13744.68873906,E,4,07,1.3,10.331,M,38.490,M,1.1,0012*7D
$GPGGA,023541.20,3439.65582141,N,13744.68873839,E,4,07,1.3,10.339,M,38.490,M,1.2,0012*7F
$GPGGA,023541.25,3439.65581860,N,13744.68873807,E,4,07,1.3,10.345,M,38.490,M,1.3,0012*74
$GPGGA,023541.30,3439.65581764,N,13744.68873513,E,4,07,1.3,10.342,M,38.490,M,1.3,0012*74
$GPGGA,023541.35,3439.65581768,N,13744.68873404,E,4,07,1.3,10.345,M,38.490,M,1.4,0012*7A
$GPGGA,023541.40,3439.65581724,N,13744.68873027,E,4,07,1.3,10.336,M,38.490,M,1.4,0012*71
$GPGGA,023541.45,3439.65581604,N,13744.68872875,E,4,07,1.3,10.340,M,38.490,M,1.5,0012*79
$GPGGA,023541.50,3439.65581533,N,13744.68872991,E,4,07,1.3,10.344,M,38.490,M,1.5,0012*75
$GPGGA,023541.55,3439.65581385,N,13744.68873179,E,4,07,1.3,10.335,M,38.490,M,1.5,0012*72
$GPGGA,023541.60,3439.65581315,N,13744.68873531,E,4,07,1.3,10.342,M,38.490,M,0.6,0012*77
$GPGGA,023541.65,3439.65581145,N,13744.68873715,E,4,07,1.3,10.348,M,38.490,M,0.6,0012*7B
$GPGGA,023541.70,3439.65581093,N,13744.68873877,E,4,07,1.3,10.350,M,38.490,M,0.7,0012*76
$GPGGA,023541.75,3439.65581168,N,13744.68874089,E,4,07,1.3,10.344,M,38.490,M,0.8,0012*72
$GPGGA,023541.80,3439.65581209,N,13744.68874036,E,4,07,1.3,10.341,M,38.490,M,0.8,0012*7D
$GPGGA,023541.85,3439.65581111,N,13744.68873721,E,4,07,1.3,10.347,M,38.490,M,0.9,0012*73
$GPGGA,023541.90,3439.65580946,N,13744.68873536,E,4,07,1.3,10.354,M,38.490,M,0.9,0012*7A
$GPGGA,023541.95,3439.65580960,N,13744.68873210,E,4,07,1.3,10.345,M,38.490,M,0.9,0012*78
$GPGGA,023542.00,3439.65580778,N,13744.68873177,E,4,07,1.3,10.342,M,38.490,M,1.0,0012*7D
$GPGGA,023542.05,3439.65580746,N,13744.68872994,E,4,07,1.3,10.346,M,38.490,M,1.0,0012*75
$GPGGA,023542.10,3439.65580424,N,13744.68872849,E,4,07,1.3,10.350,M,38.490,M,1.1,0012*71
$GPGGA,023542.15,3439.65580193,N,13744.68872623,E,4,07,1.3,10.352,M,38.490,M,1.1,0012*7D
$GPGGA,023542.20,3439.65580309,N,13744.68872598,E,4,07,1.3,10.354,M,38.490,M,1.2,0012*7C
$GPGGA,023542.25,3439.65580580,N,13744.68872431,E,4,07,1.3,10.350,M,38.490,M,1.3,0012*79
$GPGGA,023542.30,3439.65580465,N,13744.68872458,E,4,07,1.3,10.348,M,38.490,M,1.3,0012*71
