$GPGGA,012227.35,3439.59836115,N,13744.64472427,E,4,08,1.0,11.534,M,38.490,M,2.3,0012*74
$GPGGA,012227.40,3439.59835860,N,13744.64472331,E,4,08,1.0,11.539,M,38.490,M,2.4,0012*74
$GPGGA,012227.45,3439.59835849,N,13744.64472419,E,4,08,1.0,11.539,M,38.490,M,2.5,0012*76
$GPGGA,012227.50,3439.59836009,N,13744.64472579,E,4,08,1.0,11.535,M,38.490,M,2.5,0012*76
$GPGGA,012227.55,3439.59836137,N,13744.64472558,E,4,08,1.0,11.534,M,38.490,M,2.5,0012*7D
$GPGGA,012227.60,3439.59835970,N,13744.64472591,E,4,08,1.0,11.537,M,38.490,M,2.6,0012*76
$GPGGA,012227.65,3439.59836003,N,13744.64472548,E,4,08,1.0,11.532,M,38.490,M,2.7,0012*7D
$GPGGA,012227.70,3439.59835914,N,13744.64472388,E,4,08,1.0,11.531,M,38.490,M,2.7,0012*7C
$GPGGA,012227.75,3439.59836276,N,13744.64472442,E,4,08,1.0,11.545,M,38.490,M,1.8,0012*7B
$GPGGA,012227.80,3439.59836112,N,13744.64472651,E,4,08,1.0,11.554,M,38.490,M,1.8,0012*70
$GPGGA,012227.85,3439.59836143,N,13744.64472782,E,4,08,1.0,11.548,M,38.490,M,1.9,0012*72
$GPGGA,012227.90,3439.59836161,N,13744.64472576,E,4,08,1.0,11.550,M,38.490,M,1.9,0012*76
$GPGGA,012227.95,3439.59836308,N,13744.64472497,E,4,08,1.0,11.540,M,38.490,M,2.0,0012*7B
$GPGGA,012228.00,3439.59836403,N,13744.64472547,E,4,08,1.0,11.544,M,38.490,M,2.0,0012*7C
$GPGGA,012228.05,3439.59836322,N,13744.64472537,E,4,08,1.0,11.549,M,38.490,M,2.0,0012*77
$GPGGA,012228.10,3439.59836268,N,13744.64472690,E,4,08,1.0,11.546,M,38.490,M,2.1,0012*7C
$GPGGA,012228.15,3439.59836281,N,13744.64472600,E,4,08,1.0,11.543,M,38.490,M,2.2,0012*71
$GPGGA,012228.20,3439.59836327,N,13744.64472479,E,4,08,1.0,11.547,M,38.490,M,2.2,0012*72
$GPGGA,012228.25,3439.59836208,N,13744.64472515,E,4,08,1.0,11.547,M,38.490,M,1.3,0012*72
$GPGGA,012228.30,3439.59836359,N,13744.64472446,E,4,08,1.0,11.540,M,38.490,M,1.3,0012*73
$GPGGA,012228.35,3439.59836330,N,13744.64472532,E,4,08,1.0,11.533,M,38.490,M,1.4,0012*78
$GPGGA,012228.40,3439.59836466,N,13744.64472549,E,4,08,1.0,11.536,M,38.490,M,1.4,0012*77
$GPGGA,012228.45,3439.59836581,N,13744.64472550,E,4,08,1.0,11.539,M,38.490,M,1.5,0012*7C
$GPGGA,012228.50,3439.59836772,N,13744.64472433,E,4,08,1.0,11.534,M,38.490,M,1.5,0012*7F
$GPGGA,012228.55,3439.59836736,N,13744.64472222,E,4,08,1.0,11.536,M,38.490,M,1.5,0012*7E
$GPGGA,012228.60,3439.59836766,N,13744.64471971,E,4,08,1.0,11.539,M,38.490,M,1.6,0012*7F
$GPGGA,012228.65,3439.59836686,N,13744.64471817,E,4,08,1.0,11.531,M,38.490,M,1.6,0012*7C
$GPGGA,012228.70,3439.59836814,N,13744.64471726,E,4,08,1.0,11.532,M,38.490,M,1.7,0012*72
$GPGGA,012228.75,3439.59836819,N,13744.64471734,E,4,08,1.0,11.534,M,38.490,M,0.8,0012*71
$GPGGA,012228.80,3439.59837062,N,13744.64471524,E,4,08,1.0,11.539,M,38.490,M,0.8,0012*70
$GPGGA,012228.85,3439.59837076,N,13744.64471494,E,4,08,1.0,11.540,M,38.490,M,0.9,0012*75
$GPGGA,012228.90,3439.59837397,N,13744.64471420,E,4,08,1.0,11.537,M,38.490,M,0.9,0012*72
$GPGGA,012228.95,3439.59837575,N,13744.64471250,E,4,08,1.0,11.539,M,38.490,M,0.9,0012*72
$GPGGA,012229.00,3439.59837947,N,13744.64471274,E,4,08,1.0,11.531,M,38.490,M,1.0,0012*74
$GPGGA,012229.05,3439.59838423,N,13744.64471198,E,4,08,1.0,11.532,M,38.490,M,1.0,0012*73
$GPGGA,012229.10,3439.59839056,N,13744.64470756,E,4,08,1.0,11.536,M,38.490,M,1.1,0012*70
$GPGGA,012229.15,3439.59839307,N,13744.64470153,E,4,08,1.0,11.535,M,38.490,M,1.1,0012*72
$GPGGA,012229.20,3439.59839653,N,13744.64469605,E,4,08,1.0,11.523,M,38.490,M,1.2,0012*78
$GPGGA,012229.25,3439.59840177,N,13744.64468806,E,4,08,1.0,11.522,M,38.490,M,1.3,0012*7E
$GPGGA,012229.30,3439.59840439,N,13744.64467762,E,4,08,1.0,11.526,M,38.490,M,1.3,0012*73
$GPGGA,012229.35,3439.59840700,N,13744.64466754,E,4,08,1.0,11.525,M,38.490,M,1.4,0012*7F
$GPGGA,012229.40,3439.59840987,N,13744.64465690,E,4,08,1.0,11.526,M,38.490,M,1.4,0012*75
$GPGGA,012229.45,3439.59841026,N,13744.64464331,E,4,08,1.0,11.522,M,38.490,M,1.5,0012*79
$GPGGA,012229.50,3439.59841099,N,13744.64463003,E,4,08,1.0,11.517,M,38.490,M,1.5,0012*7A
$GPGGA,012229.55,3439.59841375,N,13744.64461513,E,4,08,1.0,11.510,M,38.490,M,1.5,0012*7F
$GPGGA,012229.60,3439.59841543,N,13744.64459711,E,4,08,1.0,11.506,M,38.490,M,1.6,0012*75
$GPGGA,012229.65,3439.59841827,N,13744.64458077,E,4,08,1.0,11.495,M,38.490,M,1.6,0012*72
$GPGGA,012229.70,3439.59841727,N,13744.64456907,E,4,08,1.0,11.486,M,38.490,M,1.7,0012*7A
$GPGGA,012229.75,3439.59842277,N,13744.64455012,E,4,08,1.0,11.497,M,38.490,M,1.8,0012*7D
$GPGGA,012229.80,3439.59842849,N,13744.64453752,E,4,08,1.0,11.512,M,38.490,M,1.8,0012*79
$GPGGA,012229.85,3439.59842785,N,13744.64452456,E,4,08,1.0,11.506,M,38.490,M,1.9,0012*71
$GPGGA,012229.90,3439.59843052,N,13744.64451170,E,4,08,1.0,11.508,M,38.490,M,1.9,0012*75
$GPGGA,012229.95,3439.59842995,N,13744.64449776,E,4,08,1.0,11.509,M,38.490,M,2.0,0012*71
$GPGGA,012230.00,3439.59843119,N,13744.64448764,E,4,08,1.0,11.512,M,38.490,M,2.0,0012*70
$GPGGA,012230.05,3439.59843647,N,13744.64447693,E,4,08,1.0,11.513,M,38.490,M,2.0,0012*7E
$GPGGA,012230.10,3439.59844260,N,13744.64446397,E,4,08,1.0,11.513,M,38.490,M,2.1,0012*7D
$GPGGA,012230.15,3439.59844449,N,13744.64445147,E,4,08,1.0,11.499,M,38.490,M,2.2,0012*79
$GPGGA,012230.20,3439.59845392,N,13744.64443799,E,4,08,1.0,11.510,M,38.490,M,1.2,0012*7F
$GPGGA,012230.25,3439.59846263,N,13744.64442532,E,4,08,1.0,11.504,M,38.490,M,1.3,0012*70
$GPGGA,012230.30,3439.59846688,N,13744.64441017,E,4,08,1.0,11.509,M,38.490,M,1.3,0012*79
$GPGGA,012230.35,3439.59847355,N,13744.64439687,E,4,08,1.0,11.515,M,38.490,M,1.4,0012*72
$GPGGA,012230.40,3439.59848589,N,13744.64438218,E,4,08,1.0,11.504,M,38.490,M,1.4,0012*7B
$GPGGA,012230.45,3439.59849435,N,13744.64436655,E,4,08,1.0,11.488,M,38.490,M,1.5,0012*7E
$GPGGA,012230.50,3439.59850231,N,13744.64435310,E,4,08,1.0,11.476,M,38.490,M,1.5,0012*76
$GPGGA,012230.55,3439.59851189,N,13744.64434064,E,4,08,1.0,11.480,M,38.490,M,1.5,0012*7A
$GPGGA,012230.60,3439.59851699,N,13744.64432702,E,4,08,1.0,11.483,M,38.490,M,1.6,0012*7B
$GPGGA,012230.65,3439.59852365,N,13744.64431307,E,4,08,1.0,11.492,M,38.490,M,1.6,0012*79
$GPGGA,012230.70,3439.59853120,N,13744.64429903,E,4,08,1.0,11.482,M,38.490,M,1.7,0012*78
$GPGGA,012230.75,3439.59854692,N,13744.64428759,E,4,08,1.0,11.482,M,38.490,M,1.8,0012*7B
$GPGGA,012230.80,3439.59856149,N,13744.64427271,E,4,08,1.0,11.475,M,38.490,M,1.8,0012*7A
$GPGGA,012230.85,3439.59856608,N,13744.64425767,E,4,08,1.0,11.471,M,38.490,M,1.9,0012*78
$GPGGA,012230.90,3439.59856924,N,13744.64424288,E,4,08,1.0,11.479,M,38.490,M,1.9,0012*70
$GPGGA,012230.95,3439.59857996,N,13744.64422555,E,4,08,1.0,11.484,M,38.490,M,2.0,0012*74
$GPGGA,012231.00,3439.59859186,N,13744.64420861,E,4,08,1.0,11.470,M,38.490,M,2.0,0012*7D
$GPGGA,012231.05,3439.59860329,N,13744.64419117,E,4,07,1.1,11.464,M,38.490,M,2.0,0012*7C
$GPGGA,012231.10,3439.59861041,N,13744.64417277,E,4,07,1.1,11.454,M,38.490,M,2.1,0012*7D
$GPGGA,012231.15,3439.59860990,N,13744.64415383,E,4,07,1.1,11.453,M,38.490,M,2.2,0012*70
$GPGGA,012231.20,3439.59861565,N,13744.64413478,E,4,07,1.1,11.442,M,38.490,M,2.2,0012*74
$GPGGA,012231.25,3439.59863025,N,13744.64411413,E,4,07,1.1,11.427,M,38.490,M,2.3,0012*7F
$GPGGA,012231.30,3439.59864024,N,13744.64409119,E,4,07,1.1,11.430,M,38.490,M,2.3,0012*7D
$GPGGA,012231.35,3439.59864211,N,13744.64407456,E,4,07,1.1,11.433,M,38.490,M,2.3,0012*7F
$GPGGA,012231.40,3439.59866053,N,13744.64405627,E,4,07,1.1,11.438,M,38.490,M,2.4,0012*71
$GPGGA,012231.45,3439.59866742,N,13744.64404124,E,4,07,1.1,11.446,M,38.490,M,2.5,0012*7E
$GPGGA,012231.50,3439.59867248,N,13744.64402373,E,4,07,1.1,11.444,M,38.490,M,2.5,0012*70
$GPGGA,012231.55,3439.59867876,N,13744.64400750,E,4,07,1.1,11.446,M,38.490,M,2.5,0012*77
$GPGGA,012231.60,3439.59868970,N,13744.64399280,E,4,07,1.1,11.441,M,38.490,M,2.6,0012*72
$GPGGA,012231.65,3439.59870014,N,13744.64397598,E,4,07,1.1,11.443,M,38.490,M,2.7,0012*76
$GPGGA,012231.70,3439.59871106,N,13744.64395674,E,4,07,1.1,11.441,M,38.490,M,2.7,0012*70
$GPGGA,012231.75,3439.59872459,N,13744.64394004,E,4,07,1.1,11.437,M,38.490,M,2.8,0012*77
$GPGGA,012231.80,3439.59873835,N,13744.64392658,E,4,07,1.1,11.424,M,38.490,M,2.8,0012*71
$GPGGA,012231.85,3439.59875526,N,13744.64391111,E,4,07,1.1,11.413,M,38.490,M,2.8,0012*70
$GPGGA,012231.90,3439.59876992,N,13744.64389422,E,4,07,1.1,11.401,M,38.490,M,2.9,0012*7A
$GPGGA,012231.95,3439.59878024,N,13744.64387800,E,4,07,1.1,11.402,M,38.490,M,3.0,0012*7C
$GPGGA,012232.00,3439.59879383,N,13744.64386153,E,4,07,1.1,11.410,M,38.490,M,3.0,0012*71
$GPGGA,012232.05,3439.59880515,N,13744.64384389,E,4,07,1.1,11.430,M,38.490,M,3.0,0012*7E
$GPGGA,012232.10,3439.59881890,N,13744.64382533,E,4,07,1.1,11.435,M,38.490,M,2.1,0012*7F
$GPGGA,012232.15,3439.59883423,N,13744.64380782,E,4,07,1.1,11.425,M,38.490,M,2.2,0012*74
$GPGGA,012232.20,3439.59884732,N,13744.64379261,E,4,07,1.1,11.410,M,38.490,M,2.2,0012*7E
$GPGGA,012232.25,3439.59885667,N,13744.64377639,E,4,07,1.1,11.406,M,38.490,M,2.3,0012*7A
$GPGGA,012232.30,3439.59886454,N,13744.64376224,E,4,07,1.1,11.406,M,38.490,M,2.3,0012*76
$GPGGA,012232.35,3439.59887325,N,13744.64374783,E,4,07,1.1,11.416,M,38.490,M,2.3,0012*78
$GPGGA,012232.40,3439.59888204,N,13744.64373307,E,4,07,1.1,11.403,M,38.490,M,2.4,0012*7B
$GPGGA,012232.45,3439.59889235,N,13744.64371855,E,4,07,1.1,11.400,M,38.490,M,2.5,0012*71
$GPGGA,012232.50,3439.59890228,N,13744.64370019,E,4,07,1.1,11.395,M,38.490,M,2.5,0012*7B
$GPGGA,012232.55,3439.59890889,N,13744.64368206,E,4,07,1.1,11.384,M,38.490,M,2.5,0012*7A
$GPGGA,012232.60,3439.59891612,N,13744.64366256,E,4,07,1.1,11.379,M,38.490,M,1.6,0012*78
$GPGGA,012232.65,3439.59892339,N,13744.64364160,E,4,07,1.1,11.373,M,38.490,M,1.6,0012*7C
$GPGGA,012232.70,3439.59892750,N,13744.64362240,E,4,07,1.1,11.366,M,38.490,M,1.7,0012*71
$GPGGA,012232.75,3439.59893330,N,13744.64360107,E,4,07,1.1,11.363,M,38.490,M,1.8,0012*7F
$GPGGA,012232.80,3439.59894354,N,13744.64358380,E,4,07,1.1,11.362,M,38.490,M,1.8,0012*77
$GPGGA,012232.85,3439.59895019,N,13744.64356470,E,4,07,1.1,11.363,M,38.490,M,1.9,0012*7F
$GPGGA,012232.90,3439.59896073,N,13744.64354655,E,4,07,1.1,11.369,M,38.490,M,1.9,0012*79
$GPGGA,012232.95,3439.59896757,N,13744.64353249,E,4,07,1.1,11.367,M,38.490,M,2.0,0012*77
$GPGGA,012233.00,3439.59897209,N,13744.64351707,E,4,07,1.1,11.365,M,38.490,M,2.0,0012*7A
$GPGGA,012233.05,3439.59898139,N,13744.64350052,E,4,07,1.1,11.370,M,38.490,M,2.0,0012*72
$GPGGA,012233.10,3439.59898891,N,13744.64348559,E,4,07,1.1,11.367,M,38.490,M,2.1,0012*7D
$GPGGA,012233.15,3439.59899948,N,13744.64347095,E,4,07,1.1,11.365,M,38.490,M,2.2,0012*77
$GPGGA,012233.20,3439.59901072,N,13744.64345198,E,4,07,1.1,11.370,M,38.490,M,2.2,0012*7B
$GPGGA,012233.25,3439.59902184,N,13744.64343248,E,4,07,1.1,11.367,M,38.490,M,2.3,0012*7A
$GPGGA,012233.30,3439.59903354,N,13744.64341549,E,4,07,1.1,11.360,M,38.490,M,2.3,0012*73
$GPGGA,012233.35,3439.59904629,N,13744.64339905,E,4,07,1.1,11.351,M,38.490,M,2.3,0012*77
$GPGGA,012233.40,3439.59906058,N,13744.64338112,E,4,07,1.1,11.337,M,38.490,M,2.4,0012*7F
$GPGGA,012233.45,3439.59906461,N,13744.64336140,E,4,07,1.1,11.344,M,38.490,M,1.5,0012*7B
$GPGGA,012233.50,3439.59907785,N,13744.64334654,E,4,07,1.1,11.344,M,38.490,M,1.5,0012*77
$GPGGA,012233.55,3439.59909094,N,13744.64332766,E,4,07,1.1,11.347,M,38.490,M,1.5,0012*7E
$GPGGA,012233.60,3439.59910306,N,13744.64330863,E,4,07,1.1,11.346,M,38.490,M,1.6,0012*72
$GPGGA,012233.65,3439.59911130,N,13744.64329121,E,4,07,1.1,11.339,M,38.490,M,1.6,0012*7E
$GPGGA,012233.70,3439.59911499,N,13744.64327382,E,4,07,1.1,11.347,M,38.490,M,1.7,0012*71
$GPGGA,012233.75,3439.59912541,N,13744.64325950,E,4,07,1.1,11.339,M,38.490,M,1.8,0012*72
$GPGGA,012233.80,3439.59913126,N,13744.64324318,E,4,07,1.1,11.341,M,38.490,M,1.8,0012*74
$GPGGA,012233.85,3439.59913889,N,13744.64322979,E,4,07,1.1,11.334,M,38.490,M,0.9,0012*74
$GPGGA,012233.90,3439.59914670,N,13744.64321393,E,4,07,1.1,11.332,M,38.490,M,0.9,0012*74
$GPGGA,012233.95,3439.59915529,N,13744.64319430,E,4,07,1.1,11.324,M,38.490,M,0.9,0012*7D
$GPGGA,012234.00,3439.59916049,N,13744.64317426,E,4,07,1.1,11.310,M,38.490,M,1.0,0012*70
$GPGGA,012234.05,3439.59916504,N,13744.64315349,E,4,07,1.1,11.302,M,38.490,M,1.0,0012*76
$GPGGA,012234.10,3439.59916841,N,13744.64313442,E,4,07,1.1,11.298,M,38.490,M,1.1,0012*77
$GPGGA,012234.15,3439.59917168,N,13744.64311285,E,4,07,1.1,11.288,M,38.490,M,1.1,0012*7F
$GPGGA,012234.20,3439.59917377,N,13744.64309142,E,4,07,1.1,11.279,M,38.490,M,1.2,0012*79
$GPGGA,012234.25,3439.59917697,N,13744.64307174,E,4,07,1.1,11.276,M,38.490,M,1.3,0012*72
$GPGGA,012234.30,3439.59918325,N,13744.64304987,E,4,07,1.1,11.277,M,38.490,M,1.3,0012*73
$GPGGA,012234.35,3439.59918993,N,13744.64302731,E,4,07,1.1,11.274,M,38.490,M,1.4,0012*70
$GPGGA,012234.40,3439.59919401,N,13744.64300813,E,4,07,1.1,11.269,M,38.490,M,1.4,0012*74
$GPGGA,012234.45,3439.59919504,N,13744.64298881,E,4,07,1.1,11.272,M,38.490,M,1.5,0012*75
$GPGGA,012234.50,3439.59919534,N,13744.64296876,E,4,07,1.1,11.284,M,38.490,M,1.5,0012*7D
$GPGGA,012234.55,3439.59919472,N,13744.64294989,E,4,07,1.1,11.283,M,38.490,M,1.5,0012*7F
$GPGGA,012234.60,3439.59919714,N,13744.64293004,E,4,07,1.1,11.275,M,38.490,M,1.6,0012*7B
$GPGGA,012234.65,3439.59920091,N,13744.64290851,E,4,07,1.1,11.274,M,38.490,M,1.6,0012*74
$GPGGA,012234.70,3439.59920422,N,13744.64288577,E,4,07,1.1,11.267,M,38.490,M,1.7,0012*7F
$GPGGA,012234.75,3439.59920651,N,13744.64286204,E,4,07,1.1,11.257,M,38.490,M,1.8,0012*7D
$GPGGA,012234.80,3439.59921130,N,13744.64283744,E,4,07,1.1,11.252,M,38.490,M,1.8,0012*77
$GPGGA,012234.85,3439.59921852,N,13744.64281484,E,4,07,1.1,11.237,M,38.490,M,1.9,0012*70
$GPGGA,012234.90,3439.59922609,N,13744.64279225,E,4,07,1.1,11.225,M,38.490,M,1.9,0012*7E
$GPGGA,012234.95,3439.59923135,N,13744.64277040,E,4,07,1.1,11.220,M,38.490,M,2.0,0012*72
$GPGGA,012235.00,3439.59923633,N,13744.64274883,E,4,07,1.1,11.223,M,38.490,M,2.0,0012*79
$GPGGA,012235.05,3439.59923885,N,13744.64272855,E,4,07,1.1,11.228,M,38.490,M,2.0,0012*79
$GPGGA,012235.10,3439.59923692,N,13744.64270912,E,4,07,1.1,11.232,M,38.490,M,2.1,0012*7F
$GPGGA,012235.15,3439.59923437,N,13744.64269087,E,4,07,1.1,11.230,M,38.490,M,2.2,0012*7B
$GPGGA,012235.20,3439.59923366,N,13744.64267203,E,4,07,1.1,11.230,M,38.490,M,2.2,0012*7E
$GPGGA,012235.25,3439.59923337,N,13744.64265421,E,4,07,1.1,11.225,M,38.490,M,2.3,0012*7E
$GPGGA,012235.30,3439.59923073,N,13744.64263403,E,4,07,1.1,11.230,M,38.490,M,2.3,0012*7B
$GPGGA,012235.35,3439.59922622,N,13744.64261712,E,4,07,1.1,11.228,M,38.490,M,2.3,0012*75
$GPGGA,012235.40,3439.59922231,N,13744.64259659,E,4,07,1.1,11.218,M,38.490,M,2.4,0012*70
$GPGGA,012235.45,3439.59922067,N,13744.64257718,E,4,07,1.1,11.210,M,38.490,M,2.5,0012*77
$GPGGA,012235.50,3439.59921612,N,13744.64255497,E,4,07,1.1,11.204,M,38.490,M,2.5,0012*77
$GPGGA,012235.55,3439.59921097,N,13744.64253743,E,4,07,1.1,11.203,M,38.490,M,2.5,0012*72
$GPGGA,012235.60,3439.59919973,N,13744.64251743,E,4,07,1.1,11.197,M,38.490,M,2.6,0012*73
$GPGGA,012235.65,3439.59919268,N,13744.64250090,E,4,07,1.1,11.184,M,38.490,M,2.7,0012*7C
$GPGGA,012235.70,3439.59918471,N,13744.64248146,E,4,07,1.1,11.195,M,38.490,M,2.7,0012*74
$GPGGA,012235.75,3439.59917738,N,13744.64245913,E,4,07,1.1,11.211,M,38.490,M,2.8,0012*75
$GPGGA,012235.80,3439.59917591,N,13744.64244279,E,4,07,1.1,11.202,M,38.490,M,2.8,0012*7A
$GPGGA,012235.85,3439.59917307,N,13744.64242360,E,4,07,1.1,11.194,M,38.490,M,2.8,0012*75
$GPGGA,012235.90,3439.59917018,N,13744.64240522,E,4,07,1.1,11.202,M,38.490,M,2.9,0012*73
$GPGGA,012235.95,3439.59916806,N,13744.64238799,E,4,07,1.1,11.206,M,38.490,M,3.0,0012*71
$GPGGA,012236.00,3439.59916610,N,13744.64237314,E,4,07,1.1,11.205,M,38.489,M,3.0,0012*72
$GPGGA,012236.05,3439.59916452,N,13744.64235513,E,4,07,1.1,11.201,M,38.489,M,3.0,0012*74
$GPGGA,012236.10,3439.59916449,N,13744.64233764,E,4,07,1.1,11.196,M,38.489,M,3.1,0012*72
$GPGGA,012236.15,3439.59916448,N,13744.64231791,E,4,07,1.1,11.186,M,38.489,M,3.2,0012*7C
$GPGGA,012236.20,3439.59916192,N,13744.64229817,E,4,07,1.1,11.185,M,38.489,M,3.2,0012*73
$GPGGA,012236.25,3439.59915882,N,13744.64227824,E,4,07,1.1,11.177,M,38.489,M,3.3,0012*7F
$GPGGA,012236.30,3439.59916100,N,13744.64225924,E,4,07,1.1,11.168,M,38.489,M,3.3,0012*76
$GPGGA,012236.35,3439.59916326,N,13744.64224015,E,4,07,1.1,11.170,M,38.489,M,2.3,0012*77
$GPGGA,012236.40,3439.59916381,N,13744.64221864,E,4,07,1.1,11.169,M,38.489,M,2.4,0012*7C
$GPGGA,012236.45,3439.59916296,N,13744.64220073,E,4,07,1.1,11.169,M,38.489,M,2.5,0012*70
$GPGGA,012236.50,3439.59916011,N,13744.64218474,E,4,07,1.1,11.171,M,38.489,M,2.5,0012*78
$GPGGA,012236.55,3439.59915782,N,13744.64216763,E,4,07,1.1,11.183,M,38.489,M,2.5,0012*75
$GPGGA,012236.60,3439.59915932,N,13744.64215243,E,4,07,1.1,11.188,M,38.489,M,2.6,0012*7A
$GPGGA,012236.65,3439.59915266,N,13744.64213608,E,4,07,1.1,11.187,M,38.489,M,2.7,0012*76
$GPGGA,012236.70,3439.59914811,N,13744.64212224,E,4,07,1.1,11.173,M,38.489,M,2.7,0012*79
$GPGGA,012236.75,3439.59914255,N,13744.64211098,E,4,07,1.1,11.179,M,38.489,M,1.8,0012*76
$GPGGA,012236.80,3439.59913717,N,13744.64209699,E,4,07,1.1,11.178,M,38.489,M,1.8,0012*77
$GPGGA,012236.85,3439.59913615,N,13744.64208162,E,4,07,1.1,11.176,M,38.489,M,1.9,0012*7C
$GPGGA,012236.90,3439.59913087,N,13744.64206489,E,4,07,1.1,11.176,M,38.489,M,1.9,0012*7B
$GPGGA,012236.95,3439.59912335,N,13744.64205041,E,4,07,1.1,11.168,M,38.489,M,2.0,0012*73
$GPGGA,012237.00,3439.59911449,N,13744.64203325,E,4,07,1.1,11.160,M,38.489,M,2.0,0012*7E
$GPGGA,012237.05,3439.59910657,N,13744.64201970,E,4,07,1.1,11.146,M,38.489,M,2.0,0012*7B
$GPGGA,012237.10,3439.59909896,N,13744.64200485,E,4,07,1.1,11.142,M,38.489,M,2.1,0012*77
$GPGGA,012237.15,3439.59909021,N,13744.64199266,E,4,07,1.1,11.141,M,38.489,M,1.1,0012*7E
$GPGGA,012237.20,3439.59907867,N,13744.64198034,E,4,07,1.1,11.126,M,38.489,M,1.2,0012*7A
$GPGGA,012237.25,3439.59907059,N,13744.64196269,E,4,07,1.1,11.136,M,38.489,M,1.3,0012*7E
$GPGGA,012237.30,3439.59906526,N,13744.64195028,E,4,07,1.1,11.154,M,38.489,M,1.3,0012*76
$GPGGA,012237.35,3439.59905721,N,13744.64193247,E,4,07,1.1,11.147,M,38.489,M,1.4,0012*7D
$GPGGA,012237.40,3439.59904820,N,13744.64191514,E,4,07,1.1,11.139,M,38.489,M,1.4,0012*7A
$GPGGA,012237.45,3439.59904043,N,13744.64189708,E,4,07,1.1,11.140,M,38.489,M,1.5,0012*7B
$GPGGA,012237.50,3439.59903362,N,13744.64187958,E,4,07,1.1,11.155,M,38.489,M,1.5,0012*79
$GPGGA,012237.55,3439.59903153,N,13744.64186232,E,4,07,1.1,11.148,M,38.489,M,1.5,0012*76
$GPGGA,012237.60,3439.59902720,N,13744.64184373,E,4,07,1.1,11.142,M,38.489,M,1.6,0012*7C
$GPGGA,012237.65,3439.59902356,N,13744.64182335,E,4,07,1.1,11.132,M,38.489,M,1.6,0012*7F
$GPGGA,012237.70,3439.59901851,N,13744.64180180,E,4,07,1.1,11.130,M,38.489,M,1.7,0012*79
$GPGGA,012237.75,3439.59901456,N,13744.64177804,E,4,07,1.1,11.129,M,38.489,M,1.8,0012*7D
$GPGGA,012237.80,3439.59901318,N,13744.64175391,E,4,07,1.1,11.121,M,38.489,M,1.8,0012*77
$GPGGA,012237.85,3439.59901393,N,13744.64173374,E,4,07,1.1,11.108,M,38.489,M,1.9,0012*76
$GPGGA,012237.90,3439.59900865,N,13744.64171548,E,4,07,1.1,11.083,M,38.489,M,1.9,0012*78
$GPGGA,012237.95,3439.59901689,N,13744.64169097,E,4,07,1.1,11.086,M,38.489,M,2.0,0012*71
$GPGGA,012238.00,3439.59900623,N,13744.64167136,E,4,07,1.1,11.086,M,38.489,M,2.0,0012*77
$GPGGA,012238.05,3439.59900481,N,13744.64164716,E,4,07,1.1,11.086,M,38.489,M,2.0,0012*7F
$GPGGA,012238.10,3439.59900102,N,13744.64162708,E,4,07,1.1,11.088,M,38.489,M,2.1,0012*73
$GPGGA,012238.15,3439.59899641,N,13744.64161182,E,4,07,1.1,11.081,M,38.489,M,2.2,0012*7A
$GPGGA,012238.20,3439.59899183,N,13744.64159348,E,4,07,1.1,11.093,M,38.489,M,2.2,0012*79
$GPGGA,012238.25,3439.59898868,N,13744.64157612,E,4,07,1.1,11.081,M,38.489,M,2.3,0012*77
$GPGGA,012238.30,3439.59897990,N,13744.64155734,E,4,07,1.1,11.085,M,38.489,M,2.3,0012*79
$GPGGA,012238.35,3439.59897572,N,13744.64154289,E,4,07,1.1,11.077,M,38.489,M,2.3,0012*73
$GPGGA,012238.40,3439.59896972,N,13744.64152598,E,4,07,1.1,11.078,M,38.489,M,2.4,0012*75
$GPGGA,012238.45,3439.59897165,N,13744.64151090,E,4,07,1.1,11.067,M,38.489,M,2.5,0012*7E
$GPGGA,012238.50,3439.59896179,N,13744.64149106,E,4,07,1.1,11.070,M,38.489,M,2.5,0012*77
$GPGGA,012238.55,3439.59895458,N,13744.64147450,E,4,07,1.1,11.055,M,38.489,M,2.5,0012*78
$GPGGA,012238.60,3439.59894728,N,13744.64145866,E,4,07,1.1,11.051,M,38.489,M,2.6,0012*77
$GPGGA,012238.65,3439.59894411,N,13744.64144138,E,4,07,1.1,11.061,M,38.489,M,2.7,0012*7A
$GPGGA,012238.70,3439.59893198,N,13744.64143035,E,4,07,1.1,11.037,M,38.489,M,2.7,0012*75
$GPGGA,012238.75,3439.59892437,N,13744.64141273,E,4,07,1.1,11.046,M,38.489,M,2.8,0012*7A
$GPGGA,012238.80,3439.59891932,N,13744.64139470,E,4,07,1.1,11.057,M,38.489,M,2.8,0012*71
$GPGGA,012238.85,3439.59891278,N,13744.64138234,E,4,07,1.1,11.052,M,38.489,M,2.8,0012*73
$GPGGA,012238.90,3439.59890023,N,13744.64136490,E,4,07,1.1,11.054,M,38.489,M,2.9,0012*7B
$GPGGA,012238.95,3439.59889623,N,13744.64135029,E,4,07,1.1,11.054,M,38.489,M,3.0,0012*7D
$GPGGA,012239.00,3439.59889004,N,13744.64133340,E,4,07,1.1,11.069,M,38.489,M,3.0,0012*77
$GPGGA,012239.05,3439.59888402,N,13744.64132009,E,4,07,1.1,11.066,M,38.489,M,3.0,0012*71
$GPGGA,012239.10,3439.59887963,N,13744.64130642,E,4,07,1.1,11.064,M,38.489,M,3.1,0012*78
$GPGGA,012239.15,3439.59887628,N,13744.64129309,E,4,07,1.1,11.061,M,38.489,M,3.2,0012*79
$GPGGA,012239.20,3439.59887463,N,13744.64127598,E,4,07,1.1,11.070,M,38.489,M,3.2,0012*72
$GPGGA,012239.25,3439.59887192,N,13744.64126001,E,4,07,1.1,11.067,M,38.489,M,2.3,0012*7E
$GPGGA,012239.30,3439.59887065,N,13744.64124311,E,4,07,1.1,11.056,M,38.489,M,2.3,0012*71
$GPGGA,012239.35,3439.59887006,N,13744.64122834,E,4,07,1.1,11.035,M,38.489,M,2.3,0012*7E
$GPGGA,012239.40,3439.59887072,N,13744.64121205,E,4,07,1.1,11.027,M,38.489,M,2.4,0012*70
$GPGGA,012239.45,3439.59887354,N,13744.64119366,E,4,07,1.1,11.028,M,38.489,M,2.5,0012*73
$GPGGA,012239.50,3439.59887688,N,13744.64117272,E,4,07,1.1,11.043,M,38.489,M,2.5,0012*74
$GPGGA,012239.55,3439.59887829,N,13744.64115423,E,4,07,1.1,11.041,M,38.489,M,2.5,0012*76
$GPGGA,012239.60,3439.59887169,N,13744.64114148,E,4,07,1.1,11.028,M,38.489,M,1.6,0012*7B
$GPGGA,012239.65,3439.59887556,N,13744.64111748,E,4,07,1.1,11.056,M,38.489,M,1.6,0012*7C
$GPGGA,012239.70,3439.59887912,N,13744.64110001,E,4,07,1.1,11.033,M,38.489,M,1.7,0012*7D
$GPGGA,012239.75,3439.59886869,N,13744.64108659,E,4,07,1.1,11.031,M,38.489,M,1.8,0012*7B
$GPGGA,012239.80,3439.59886922,N,13744.64106722,E,4,07,1.1,11.043,M,38.489,M,1.8,0012*79
$GPGGA,012239.85,3439.59886414,N,13744.64105503,E,4,07,1.1,11.051,M,38.489,M,1.9,0012*74
$GPGGA,012239.90,3439.59886698,N,13744.64104007,E,4,07,1.1,11.062,M,38.489,M,1.9,0012*76
$GPGGA,012239.95,3439.59887269,N,13744.64103169,E,4,07,1.1,11.037,M,38.489,M,2.0,0012*7C
$GPGGA,012240.00,3439.59886839,N,13744.64101776,E,4,07,1.1,11.034,M,38.489,M,2.0,0012*79
$GPGGA,012240.05,3439.59886372,N,13744.64100345,E,4,07,1.1,11.038,M,38.489,M,2.0,0012*71
$GPGGA,012240.10,3439.59885621,N,13744.64098706,E,4,07,1.1,11.039,M,38.489,M,2.1,0012*76
$GPGGA,012240.15,3439.59885427,N,13744.64097358,E,4,07,1.1,11.034,M,38.489,M,1.1,0012*79
$GPGGA,012240.20,3439.59884840,N,13744.64095820,E,4,07,1.1,11.033,M,38.489,M,1.2,0012*71
$GPGGA,012240.25,3439.59884372,N,13744.64093952,E,4,07,1.1,11.036,M,38.489,M,1.3,0012*78
$GPGGA,012240.30,3439.59883530,N,13744.64092342,E,4,07,1.1,11.029,M,38.489,M,1.3,0012*7F
$GPGGA,012240.35,3439.59882802,N,13744.64090706,E,4,07,1.1,11.027,M,38.489,M,1.4,0012*78
$GPGGA,012240.40,3439.59882149,N,13744.64088927,E,4,07,1.1,11.029,M,38.489,M,1.4,0012*76
$GPGGA,012240.45,3439.59881770,N,13744.64087113,E,4,07,1.1,11.034,M,38.489,M,1.5,0012*71
$GPGGA,012240.50,3439.59880890,N,13744.64085984,E,4,07,1.1,11.039,M,38.489,M,1.5,0012*7C
$GPGGA,012240.55,3439.59880389,N,13744.64084711,E,4,07,1.1,11.041,M,38.489,M,1.5,0012*76
$GPGGA,012240.60,3439.59879613,N,13744.64083339,E,4,07,1.1,11.032,M,38.489,M,1.6,0012*7E
$GPGGA,012240.65,3439.59878912,N,13744.64081885,E,4,07,1.1,11.029,M,38.489,M,1.6,0012*70
$GPGGA,012240.70,3439.59878553,N,13744.64080597,E,4,07,1.1,11.026,M,38.489,M,1.7,0012*7C
$GPGGA,012240.75,3439.59878035,N,13744.64079483,E,4,07,1.1,11.037,M,38.489,M,1.8,0012*71
$GPGGA,012240.80,3439.59877469,N,13744.64078007,E,4,07,1.1,11.044,M,38.489,M,1.8,0012*74
$GPGGA,012240.85,3439.59877086,N,13744.64076637,E,4,07,1.1,11.035,M,38.489,M,1.9,0012*78
$GPGGA,012240.90,3439.59876910,N,13744.64074912,E,4,07,1.1,11.041,M,38.489,M,1.9,0012*72
$GPGGA,012240.95,3439.59876921,N,13744.64073297,E,4,07,1.1,11.037,M,38.489,M,2.0,0012*7F
$GPGGA,012241.00,3439.59877037,N,13744.64071612,E,4,07,1.1,11.030,M,38.489,M,2.0,0012*71
$GPGGA,012241.05,3439.59876149,N,13744.64069841,E,4,07,1.1,11.036,M,38.489,M,1.0,0012*79
$GPGGA,012241.10,3439.59875976,N,13744.64068043,E,4,07,1.1,11.027,M,38.489,M,1.1,0012*70
$GPGGA,012241.15,3439.59875996,N,13744.64065973,E,4,07,1.1,11.025,M,38.489,M,1.1,0012*7E
$GPGGA,012241.20,3439.59876070,N,13744.64063972,E,4,07,1.1,11.015,M,38.489,M,1.2,0012*7D
$GPGGA,012241.25,3439.59876319,N,13744.64061831,E,4,07,1.1,11.006,M,38.489,M,1.3,0012*73
$GPGGA,012241.30,3439.59876306,N,13744.64059978,E,4,07,1.1,11.018,M,38.489,M,1.3,0012*71
$GPGGA,012241.35,3439.59876617,N,13744.64057949,E,4,07,1.1,11.006,M,38.489,M,1.4,0012*75
$GPGGA,012241.40,3439.59876376,N,13744.64056086,E,4,07,1.1,11.022,M,38.489,M,1.4,0012*78
$GPGGA,012241.45,3439.59876821,N,13744.64054169,E,4,07,1.1,11.014,M,38.489,M,1.5,0012*72
$GPGGA,012241.50,3439.59876426,N,13744.64052224,E,4,07,1.1,11.007,M,38.489,M,1.5,0012*73
$GPGGA,012241.55,3439.59875764,N,13744.64050177,E,4,07,1.1,11.021,M,38.489,M,1.5,0012*73
$GPGGA,012241.60,3439.59875393,N,13744.64048564,E,4,07,1.1,11.013,M,38.489,M,1.6,0012*74
$GPGGA,012241.65,3439.59874655,N,13744.64047233,E,4,07,1.1,11.012,M,38.489,M,1.6,0012*74
$GPGGA,012241.70,3439.59874267,N,13744.64045636,E,4,07,1.1,11.011,M,38.489,M,1.7,0012*74
$GPGGA,012241.75,3439.59873846,N,13744.64044083,E,4,07,1.1,11.006,M,38.489,M,1.8,0012*7F
$GPGGA,012241.80,3439.59873646,N,13744.64042080,E,4,07,1.1,11.012,M,38.489,M,1.8,0012*7B
$GPGGA,012241.85,3439.59873238,N,13744.64040250,E,4,07,1.1,11.008,M,38.489,M,1.9,0012*74
$GPGGA,012241.90,3439.59872843,N,13744.64038399,E,4,07,1.1,10.999,M,38.489,M,1.9,0012*7C
$GPGGA,012241.95,3439.59872101,N,13744.64036591,E,4,07,1.1,10.993,M,38.489,M,2.0,0012*76
$GPGGA,012242.00,3439.59871430,N,13744.64034814,E,4,07,1.1,10.989,M,38.489,M,2.0,0012*74
$GPGGA,012242.05,3439.59870848,N,13744.64033004,E,4,07,1.1,10.988,M,38.489,M,2.0,0012*7C
$GPGGA,012242.10,3439.59870316,N,13744.64030830,E,4,08,1.0,10.985,M,38.489,M,1.1,0012*75
$GPGGA,012242.15,3439.59869911,N,13744.64028977,E,4,08,1.0,10.979,M,38.489,M,1.1,0012*7D
$GPGGA,012242.20,3439.59869487,N,13744.64027201,E,4,08,1.0,10.987,M,38.489,M,1.2,0012*7E
$GPGGA,012242.25,3439.59868711,N,13744.64025011,E,4,08,1.0,11.003,M,38.489,M,1.3,0012*72
$GPGGA,012242.30,3439.59868417,N,13744.64023389,E,4,08,1.0,10.995,M,38.489,M,1.3,0012*70
$GPGGA,012242.35,3439.59868506,N,13744.64022052,E,4,08,1.0,10.980,M,38.489,M,1.4,0012*73
$GPGGA,012242.40,3439.59868052,N,13744.64020286,E,4,08,1.0,10.986,M,38.489,M,1.4,0012*7A
$GPGGA,012242.45,3439.59867551,N,13744.64018457,E,4,08,1.0,10.992,M,38.489,M,1.5,0012*73
$GPGGA,012242.50,3439.59867289,N,13744.64016615,E,4,08,1.0,10.992,M,38.489,M,1.5,0012*7F
$GPGGA,012242.55,3439.59867127,N,13744.64014640,E,4,08,1.0,10.986,M,38.489,M,1.5,0012*7A
$GPGGA,012242.60,3439.59866492,N,13744.64012814,E,4,08,1.0,10.990,M,38.489,M,1.6,0012*7B
$GPGGA,012242.65,3439.59866437,N,13744.64011170,E,4,08,1.0,10.977,M,38.489,M,1.6,0012*70
$GPGGA,012242.70,3439.59866175,N,13744.64008971,E,4,08,1.0,10.971,M,38.489,M,1.7,0012*71
$GPGGA,012242.75,3439.59865734,N,13744.64006728,E,4,08,1.0,10.973,M,38.489,M,1.8,0012*75
$GPGGA,012242.80,3439.59865385,N,13744.64004528,E,4,08,1.0,10.967,M,38.489,M,1.8,0012*74
$GPGGA,012242.85,3439.59865495,N,13744.64002151,E,4,08,1.0,10.963,M,38.489,M,1.9,0012*7E
$GPGGA,012242.90,3439.59865623,N,13744.63999799,E,4,08,1.0,10.957,M,38.489,M,1.9,0012*7C
$GPGGA,012242.95,3439.59866061,N,13744.63997490,E,4,08,1.0,10.942,M,38.489,M,2.0,0012*70
$GPGGA,012243.00,3439.59865605,N,13744.63995319,E,4,08,1.0,10.960,M,38.489,M,2.0,0012*7E
$GPGGA,012243.05,3439.59865627,N,13744.63993706,E,4,08,1.0,10.952,M,38.489,M,1.0,0012*75
$GPGGA,012243.10,3439.59865429,N,13744.63991878,E,4,08,1.0,10.944,M,38.489,M,1.1,0012*7F
$GPGGA,012243.15,3439.59865143,N,13744.63989774,E,4,08,1.0,10.941,M,38.489,M,1.1,0012*7C
$GPGGA,012243.20,3439.59864382,N,13744.63987942,E,4,08,1.0,10.948,M,38.489,M,1.2,0012*7B
$GPGGA,012243.25,3439.59863754,N,13744.63986374,E,4,08,1.0,10.954,M,38.489,M,1.3,0012*74
$GPGGA,012243.30,3439.59863584,N,13744.63985126,E,4,08,1.0,10.953,M,38.489,M,1.3,0012*7E
$GPGGA,012243.35,3439.59863122,N,13744.63983650,E,4,08,1.0,10.951,M,38.489,M,1.4,0012*76
$GPGGA,012243.40,3439.59862931,N,13744.63982422,E,4,08,1.0,10.944,M,38.489,M,1.4,0012*7D
$GPGGA,012243.45,3439.59862649,N,13744.63980981,E,4,08,1.0,10.942,M,38.489,M,1.5,0012*79
$GPGGA,012243.50,3439.59861943,N,13744.63979508,E,4,08,1.0,10.943,M,38.489,M,1.5,0012*71
$GPGGA,012243.55,3439.59861587,N,13744.63978118,E,4,08,1.0,10.934,M,38.489,M,1.5,0012*74
$GPGGA,012243.60,3439.59861063,N,13744.63976445,E,4,08,1.0,10.939,M,38.489,M,1.6,0012*70
$GPGGA,012243.65,3439.59860417,N,13744.63975033,E,4,08,1.0,10.941,M,38.489,M,1.6,0012*7A
$GPGGA,012243.70,3439.59859853,N,13744.63973544,E,4,08,1.0,10.946,M,38.489,M,1.7,0012*7D
$GPGGA,012243.75,3439.59859317,N,13744.63972341,E,4,08,1.0,10.958,M,38.489,M,1.8,0012*71
$GPGGA,012243.80,3439.59858974,N,13744.63971575,E,4,08,1.0,10.954,M,38.489,M,0.8,0012*7A
$GPGGA,012243.85,3439.59858479,N,13744.63970607,E,4,08,1.0,10.953,M,38.489,M,0.9,0012*7E
$GPGGA,012243.90,3439.59857892,N,13744.63969180,E,4,08,1.0,10.958,M,38.489,M,0.9,0012*77
$GPGGA,012243.95,3439.59857828,N,13744.63967794,E,4,08,1.0,10.955,M,38.489,M,0.9,0012*73
$GPGGA,012244.00,3439.59857348,N,13744.63966624,E,4,08,1.0,10.957,M,38.489,M,1.0,0012*74
$GPGGA,012244.05,3439.59856742,N,13744.63965186,E,4,08,1.0,10.964,M,38.489,M,1.0,0012*72
$GPGGA,012244.10,3439.59856238,N,13744.63964048,E,4,08,1.0,10.962,M,38.489,M,1.1,0012*7B
$GPGGA,012244.15,3439.59855978,N,13744.63962774,E,4,08,1.0,10.957,M,38.489,M,1.1,0012*7A
$GPGGA,012244.20,3439.59855997,N,13744.63960659,E,4,08,1.0,10.959,M,38.489,M,1.2,0012*7C
$GPGGA,012244.25,3439.59856212,N,13744.63959010,E,4,08,1.0,10.945,M,38.489,M,1.3,0012*71
$GPGGA,012244.30,3439.59856080,N,13744.63957762,E,4,08,1.0,10.930,M,38.489,M,1.3,0012*72
$GPGGA,012244.35,3439.59855808,N,13744.63956262,E,4,08,1.0,10.929,M,38.489,M,1.4,0012*77
$GPGGA,012244.40,3439.59855814,N,13744.63954258,E,4,08,1.0,10.929,M,38.489,M,1.4,0012*73
$GPGGA,012244.45,3439.59855872,N,13744.63952295,E,4,08,1.0,10.940,M,38.489,M,1.5,0012*7F
$GPGGA,012244.50,3439.59856012,N,13744.63950189,E,4,08,1.0,10.938,M,38.489,M,1.5,0012*75
$GPGGA,012244.55,3439.59855807,N,13744.63948312,E,4,08,1.0,10.952,M,38.489,M,1.5,0012*7A
$GPGGA,012244.60,3439.59855410,N,13744.63947201,E,4,08,1.0,10.954,M,38.489,M,1.6,0012*7F
$GPGGA,012244.65,3439.59855502,N,13744.63945596,E,4,08,1.0,10.953,M,38.489,M,1.6,0012*74
$GPGGA,012244.70,3439.59855671,N,13744.63944200,E,4,08,1.0,10.950,M,38.489,M,1.7,0012*7C
$GPGGA,012244.75,3439.59855753,N,13744.63943064,E,4,08,1.0,10.953,M,38.489,M,1.8,0012*73
$GPGGA,012244.80,3439.59855653,N,13744.63942078,E,4,08,1.0,10.952,M,38.489,M,1.8,0012*75
$GPGGA,012244.85,3439.59855311,N,13744.63940886,E,4,08,1.0,10.950,M,38.489,M,1.9,0012*7B
$GPGGA,012244.90,3439.59854996,N,13744.63939503,E,4,08,1.0,10.956,M,38.489,M,1.9,0012*73
$GPGGA,012244.95,3439.59855153,N,13744.63938386,E,4,08,1.0,10.955,M,38.489,M,2.0,0012*75
$GPGGA,012245.00,3439.59855114,N,13744.63937164,E,4,08,1.0,10.951,M,38.489,M,2.0,0012*7E
$GPGGA,012245.05,3439.59854974,N,13744.63935988,E,4,08,1.0,10.948,M,38.489,M,2.0,0012*74
$GPGGA,012245.10,3439.59854593,N,13744.63934709,E,4,08,1.0,10.955,M,38.489,M,2.1,0012*7E
$GPGGA,012245.15,3439.59854337,N,13744.63933220,E,4,08,1.0,10.953,M,38.489,M,2.2,0012*7F
$GPGGA,012245.20,3439.59854153,N,13744.63931821,E,4,08,1.0,10.943,M,38.489,M,2.2,0012*71
$GPGGA,012245.25,3439.59853907,N,13744.63930094,E,4,08,1.0,10.941,M,38.489,M,2.3,0012*7E
$GPGGA,012245.30,3439.59853608,N,13744.63928308,E,4,08,1.0,10.936,M,38.489,M,2.3,0012*75
$GPGGA,012245.35,3439.59853040,N,13744.63926800,E,4,08,1.0,10.929,M,38.489,M,2.3,0012*79
$GPGGA,012245.40,3439.59852017,N,13744.63925202,E,4,08,1.0,10.912,M,38.489,M,2.4,0012*7C
$GPGGA,012245.45,3439.59851306,N,13744.63923470,E,4,08,1.0,10.909,M,38.489,M,1.5,0012*74
$GPGGA,012245.50,3439.59851407,N,13744.63921433,E,4,08,1.0,10.910,M,38.489,M,1.5,0012*7B
$GPGGA,012245.55,3439.59850419,N,13744.63920377,E,4,08,1.0,10.896,M,38.489,M,1.5,0012*79
$GPGGA,012245.60,3439.59850148,N,13744.63918489,E,4,08,1.0,10.901,M,38.489,M,1.6,0012*7F
$GPGGA,012245.65,3439.59849544,N,13744.63916911,E,4,08,1.0,10.912,M,38.489,M,1.6,0012*7A
$GPGGA,012245.70,3439.59849318,N,13744.63915319,E,4,08,1.0,10.915,M,38.489,M,1.7,0012*76
$GPGGA,012245.75,3439.59849129,N,13744.63913734,E,4,08,1.0,10.915,M,38.489,M,1.8,0012*71
$GPGGA,012245.80,3439.59848466,N,13744.63911917,E,4,08,1.0,10.906,M,38.489,M,1.8,0012*7B
$GPGGA,012245.85,3439.59848384,N,13744.63910507,E,4,08,1.0,10.910,M,38.489,M,1.9,0012*7F
$GPGGA,012245.90,3439.59847990,N,13744.63908585,E,4,08,1.0,10.909,M,38.489,M,1.9,0012*70
$GPGGA,012245.95,3439.59847926,N,13744.63906846,E,4,08,1.0,10.913,M,38.489,M,2.0,0012*75
$GPGGA,012246.00,3439.59847691,N,13744.63904850,E,4,08,1.0,10.908,M,38.489,M,1.0,0012*75
$GPGGA,012246.05,3439.59847381,N,13744.63902899,E,4,08,1.0,10.904,M,38.489,M,1.0,0012*7B
$GPGGA,012246.10,3439.59847113,N,13744.63901058,E,4,08,1.0,10.899,M,38.489,M,1.1,0012*74
$GPGGA,012246.15,3439.59847019,N,13744.63899329,E,4,08,1.0,10.889,M,38.489,M,1.1,0012*7E
$GPGGA,012246.20,3439.59847286,N,13744.63897223,E,4,08,1.0,10.881,M,38.489,M,1.2,0012*72
$GPGGA,012246.25,3439.59847551,N,13744.63894945,E,4,08,1.0,10.878,M,38.489,M,1.3,0012*75
$GPGGA,012246.30,3439.59847823,N,13744.63893264,E,4,08,1.0,10.892,M,38.489,M,1.3,0012*72
$GPGGA,012246.35,3439.59848217,N,13744.63891315,E,4,08,1.0,10.879,M,38.489,M,1.4,0012*72
$GPGGA,012246.40,3439.59848276,N,13744.63889015,E,4,08,1.0,10.893,M,38.489,M,1.4,0012*79
$GPGGA,012246.45,3439.59847704,N,13744.63886663,E,4,08,1.0,10.898,M,38.489,M,1.5,0012*71
$GPGGA,012246.50,3439.59848056,N,13744.63884929,E,4,08,1.0,10.881,M,38.489,M,1.5,0012*71
$GPGGA,012246.55,3439.59847584,N,13744.63883138,E,4,08,1.0,10.875,M,38.489,M,1.5,0012*75
$GPGGA,012246.60,3439.59847083,N,13744.63881607,E,4,08,1.0,10.870,M,38.489,M,1.6,0012*7E
$GPGGA,012246.65,3439.59847398,N,13744.63879519,E,4,08,1.0,10.877,M,38.489,M,1.6,0012*7E
$GPGGA,012246.70,3439.59847165,N,13744.63877548,E,4,08,1.0,10.867,M,38.489,M,0.7,0012*71
$GPGGA,012246.75,3439.59847026,N,13744.63875734,E,4,08,1.0,10.862,M,38.489,M,0.8,0012*73
$GPGGA,012246.80,3439.59847152,N,13744.63873594,E,4,08,1.0,10.852,M,38.489,M,0.8,0012*76
$GPGGA,012246.85,3439.59846810,N,13744.63871536,E,4,08,1.0,10.851,M,38.489,M,0.9,0012*75
$GPGGA,012246.90,3439.59846723,N,13744.63869352,E,4,08,1.0,10.832,M,38.489,M,0.9,0012*76
$GPGGA,012246.95,3439.59846656,N,13744.63867239,E,4,08,1.0,10.817,M,38.489,M,0.9,0012*75
$GPGGA,012247.00,3439.59846177,N,13744.63865528,E,4,08,1.0,10.817,M,38.489,M,1.0,0012*71
$GPGGA,012247.05,3439.59845498,N,13744.63863764,E,4,08,1.0,10.838,M,38.489,M,1.0,0012*72
$GPGGA,012247.10,3439.59845647,N,13744.63861674,E,4,08,1.0,10.830,M,38.489,M,1.1,0012*7D
$GPGGA,012247.15,3439.59845298,N,13744.63859677,E,4,08,1.0,10.833,M,38.489,M,1.1,0012*75
$GPGGA,012247.20,3439.59845162,N,13744.63857813,E,4,08,1.0,10.838,M,38.489,M,1.2,0012*7F
$GPGGA,012247.25,3439.59845201,N,13744.63855557,E,4,08,1.0,10.831,M,38.489,M,1.3,0012*7B
$GPGGA,012247.30,3439.59845143,N,13744.63853430,E,4,08,1.0,10.843,M,38.489,M,1.3,0012*79
$GPGGA,012247.35,3439.59845280,N,13744.63851664,E,4,08,1.0,10.841,M,38.489,M,1.4,0012*74
$GPGGA,012247.40,3439.59845050,N,13744.63850187,E,4,08,1.0,10.840,M,38.489,M,1.4,0012*73
$GPGGA,012247.45,3439.59845246,N,13744.63848368,E,4,08,1.0,10.835,M,38.489,M,1.5,0012*7A
$GPGGA,012247.50,3439.59845649,N,13744.63846521,E,4,08,1.0,10.833,M,38.489,M,1.5,0012*76
$GPGGA,012247.55,3439.59845536,N,13744.63844911,E,4,08,1.0,10.829,M,38.489,M,1.5,0012*7E
$GPGGA,012247.60,3439.59845721,N,13744.63842969,E,4,08,1.0,10.825,M,38.489,M,1.6,0012*7A
$GPGGA,012247.65,3439.59846171,N,13744.63840965,E,4,08,1.0,10.816,M,38.489,M,1.6,0012*71
$GPGGA,012247.70,3439.59846499,N,13744.63839005,E,4,08,1.0,10.819,M,38.489,M,1.7,0012*79
$GPGGA,012247.75,3439.59846946,N,13744.63837023,E,4,08,1.0,10.823,M,38.489,M,1.8,0012*7F
$GPGGA,012247.80,3439.59846998,N,13744.63835028,E,4,08,1.0,10.820,M,38.489,M,0.8,0012*7D
$GPGGA,012247.85,3439.59847686,N,13744.63833083,E,4,08,1.0,10.811,M,38.489,M,0.9,0012*7D
$GPGGA,012247.90,3439.59847894,N,13744.63831022,E,4,08,1.0,10.820,M,38.489,M,0.9,0012*7F
$GPGGA,012247.95,3439.59848330,N,13744.63828831,E,4,08,1.0,10.830,M,38.489,M,0.9,0012*73
$GPGGA,012248.00,3439.59848723,N,13744.63826842,E,4,08,1.0,10.835,M,38.489,M,1.0,0012*71
$GPGGA,012248.05,3439.59848805,N,13744.63825234,E,4,08,1.0,10.835,M,38.489,M,1.0,0012*77
$GPGGA,012248.10,3439.59848681,N,13744.63823575,E,4,08,1.0,10.838,M,38.489,M,1.1,0012*79
$GPGGA,012248.15,3439.59848803,N,13744.63821563,E,4,08,1.0,10.841,M,38.489,M,1.1,0012*73
$GPGGA,012248.20,3439.59848879,N,13744.63819725,E,4,08,1.0,10.841,M,38.489,M,1.2,0012*70
$GPGGA,012248.25,3439.59848921,N,13744.63817973,E,4,08,1.0,10.838,M,38.489,M,1.3,0012*75
$GPGGA,012248.30,3439.59848608,N,13744.63816332,E,4,08,1.0,10.824,M,38.489,M,1.3,0012*76
$GPGGA,012248.35,3439.59848674,N,13744.63814485,E,4,08,1.0,10.820,M,38.489,M,1.4,0012*72
$GPGGA,012248.40,3439.59848861,N,13744.63811999,E,4,08,1.0,10.821,M,38.489,M,1.4,0012*7E
$GPGGA,012248.45,3439.59848652,N,13744.63810016,E,4,08,1.0,10.823,M,38.489,M,1.5,0012*79
$GPGGA,012248.50,3439.59848320,N,13744.63808026,E,4,08,1.0,10.819,M,38.489,M,1.5,0012*7E
$GPGGA,012248.55,3439.59848169,N,13744.63805635,E,4,08,1.0,10.817,M,38.489,M,1.5,0012*73
$GPGGA,012248.60,3439.59848132,N,13744.63802929,E,4,08,1.0,10.820,M,38.489,M,1.6,0012*79
$GPGGA,012248.65,3439.59848117,N,13744.63801165,E,4,08,1.0,10.831,M,38.489,M,1.6,0012*78
$GPGGA,012248.70,3439.59847874,N,13744.63799301,E,4,08,1.0,10.820,M,38.489,M,1.7,0012*70
$GPGGA,012248.75,3439.59847520,N,13744.63797564,E,4,08,1.0,10.812,M,38.489,M,0.8,0012*7D
$GPGGA,012248.80,3439.59847346,N,13744.63796015,E,4,08,1.0,10.815,M,38.489,M,0.8,0012*74
$GPGGA,012248.85,3439.59847311,N,13744.63794209,E,4,08,1.0,10.827,M,38.489,M,0.9,0012*7E
$GPGGA,012248.90,3439.59846966,N,13744.63792531,E,4,08,1.0,10.827,M,38.489,M,0.9,0012*7B
$GPGGA,012248.95,3439.59846955,N,13744.63790874,E,4,08,1.0,10.835,M,38.489,M,0.9,0012*73
$GPGGA,012249.00,3439.59847354,N,13744.63788250,E,4,08,1.0,10.819,M,38.489,M,1.0,0012*77
$GPGGA,012249.05,3439.59847315,N,13744.63786424,E,4,08,1.0,10.810,M,38.489,M,1.0,0012*75
$GPGGA,012249.10,3439.59847553,N,13744.63784431,E,4,08,1.0,10.809,M,38.489,M,1.1,0012*7A
$GPGGA,012249.15,3439.59847506,N,13744.63782389,E,4,08,1.0,10.809,M,38.489,M,1.1,0012*7D
$GPGGA,012249.20,3439.59847938,N,13744.63779818,E,4,08,1.0,10.794,M,38.489,M,1.2,0012*75
$GPGGA,012249.25,3439.59848209,N,13744.63777535,E,4,08,1.0,10.783,M,38.489,M,1.3,0012*7D
$GPGGA,012249.30,3439.59848184,N,13744.63775427,E,4,08,1.0,10.781,M,38.489,M,1.3,0012*7D
$GPGGA,012249.35,3439.59848250,N,13744.63773264,E,4,08,1.0,10.771,M,38.489,M,1.4,0012*7D
$GPGGA,012249.40,3439.59849457,N,13744.63770828,E,4,08,1.0,10.800,M,38.489,M,1.4,0012*77
$GPGGA,012249.45,3439.59849732,N,13744.63768695,E,4,08,1.0,10.795,M,38.489,M,1.5,0012*71
$GPGGA,012249.50,3439.59849670,N,13744.63765724,E,4,08,1.0,10.818,M,38.489,M,1.5,0012*7E
$GPGGA,012249.55,3439.59849554,N,13744.63763724,E,4,08,1.0,10.802,M,38.489,M,1.5,0012*73
$GPGGA,012249.60,3439.59850066,N,13744.63761512,E,4,08,1.0,10.812,M,38.489,M,1.6,0012*7E
$GPGGA,012249.65,3439.59849849,N,13744.63759644,E,4,08,1.0,10.808,M,38.489,M,1.6,0012*76
$GPGGA,012249.70,3439.59849830,N,13744.63757475,E,4,08,1.0,10.796,M,38.489,M,1.7,0012*7B
$GPGGA,012249.75,3439.59850153,N,13744.63755543,E,4,08,1.0,10.808,M,38.489,M,1.8,0012*7B
$GPGGA,012249.80,3439.59849921,N,13744.63753887,E,4,08,1.0,10.811,M,38.489,M,1.8,0012*7F
$GPGGA,012249.85,3439.59849923,N,13744.63752772,E,4,08,1.0,10.796,M,38.489,M,1.9,0012*7D
$GPGGA,012249.90,3439.59849961,N,13744.63751022,E,4,08,1.0,10.805,M,38.489,M,1.9,0012*7B
$GPGGA,012249.95,3439.59849653,N,13744.63749332,E,4,08,1.0,10.808,M,38.489,M,2.0,0012*7C
$GPGGA,012250.00,3439.59849966,N,13744.63747670,E,4,08,1.0,10.807,M,38.489,M,2.0,0012*73
$GPGGA,012250.05,3439.59850052,N,13744.63745817,E,4,08,1.0,10.800,M,38.489,M,2.0,0012*7A
$GPGGA,012250.10,3439.59850157,N,13744.63744096,E,4,08,1.0,10.791,M,38.489,M,2.1,0012*7C
$GPGGA,012250.15,3439.59849852,N,13744.63742461,E,4,08,1.0,10.790,M,38.489,M,2.2,0012*75
$GPGGA,012250.20,3439.59849874,N,13744.63740859,E,4,08,1.0,10.772,M,38.489,M,2.2,0012*7E
$GPGGA,012250.25,3439.59849504,N,13744.63739361,E,4,08,1.0,10.763,M,38.489,M,1.3,0012*7D
$GPGGA,012250.30,3439.59849725,N,13744.63737589,E,4,08,1.0,10.775,M,38.489,M,1.3,0012*71
$GPGGA,012250.35,3439.59849187,N,13744.63736075,E,4,08,1.0,10.780,M,38.489,M,1.4,0012*70
$GPGGA,012250.40,3439.59848967,N,13744.63734374,E,4,08,1.0,10.785,M,38.489,M,1.4,0012*70
$GPGGA,012250.45,3439.59849108,N,13744.63732621,E,4,08,1.0,10.787,M,38.489,M,1.5,0012*75
$GPGGA,012250.50,3439.59849227,N,13744.63730918,E,4,08,1.0,10.779,M,38.489,M,1.5,0012*79
$GPGGA,012250.55,3439.59849688,N,13744.63729198,E,4,08,1.0,10.768,M,38.489,M,1.5,0012*75
$GPGGA,012250.60,3439.59849855,N,13744.63727703,E,4,08,1.0,10.776,M,38.489,M,1.6,0012*7B
$GPGGA,012250.65,3439.59849762,N,13744.63726139,E,4,08,1.0,10.782,M,38.489,M,1.6,0012*70
$GPGGA,012250.70,3439.59849826,N,13744.63724493,E,4,08,1.0,10.776,M,38.489,M,1.7,0012*76
$GPGGA,012250.75,3439.59850022,N,13744.63722906,E,4,08,1.0,10.770,M,38.489,M,1.8,0012*79
$GPGGA,012250.80,3439.59850270,N,13744.63721173,E,4,08,1.0,10.760,M,38.489,M,1.8,0012*7E
$GPGGA,012250.85,3439.59850244,N,13744.63719111,E,4,08,1.0,10.762,M,38.489,M,1.9,0012*70
$GPGGA,012250.90,3439.59850391,N,13744.63716982,E,4,08,1.0,10.758,M,38.489,M,1.9,0012*79
$GPGGA,012250.95,3439.59850532,N,13744.63715185,E,4,08,1.0,10.749,M,38.489,M,2.0,0012*75
$GPGGA,012251.00,3439.59850529,N,13744.63713628,E,4,08,1.0,10.740,M,38.489,M,2.0,0012*7D
$GPGGA,012251.05,3439.59851135,N,13744.63711495,E,4,08,1.0,10.735,M,38.489,M,2.0,0012*74
$GPGGA,012251.10,3439.59851131,N,13744.63709307,E,4,08,1.0,10.732,M,38.489,M,1.1,0012*74
$GPGGA,012251.15,3439.59851307,N,13744.63707101,E,4,08,1.0,10.752,M,38.489,M,1.1,0012*7A
$GPGGA,012251.20,3439.59851525,N,13744.63705312,E,4,08,1.0,10.752,M,38.489,M,1.2,0012*7B
$GPGGA,012251.25,3439.59851892,N,13744.63703442,E,4,08,1.0,10.743,M,38.489,M,1.3,0012*7A
$GPGGA,012251.30,3439.59851902,N,13744.63701916,E,4,08,1.0,10.748,M,38.489,M,1.3,0012*73
$GPGGA,012251.35,3439.59851700,N,13744.63700504,E,4,08,1.0,10.745,M,38.489,M,1.4,0012*7E
$GPGGA,012251.40,3439.59851848,N,13744.63698789,E,4,08,1.0,10.748,M,38.489,M,1.4,0012*75
$GPGGA,012251.45,3439.59852303,N,13744.63697033,E,4,08,1.0,10.746,M,38.489,M,1.5,0012*71
$GPGGA,012251.50,3439.59852541,N,13744.63695410,E,4,08,1.0,10.748,M,38.489,M,1.5,0012*7C
$GPGGA,012251.55,3439.59852476,N,13744.63693886,E,4,08,1.0,10.752,M,38.489,M,1.5,0012*72
$GPGGA,012251.60,3439.59852119,N,13744.63692442,E,4,08,1.0,10.752,M,38.489,M,1.6,0012*7E
$GPGGA,012251.65,3439.59852214,N,13744.63690759,E,4,08,1.0,10.744,M,38.489,M,1.6,0012*79
$GPGGA,012251.70,3439.59852457,N,13744.63688801,E,4,08,1.0,10.734,M,38.489,M,1.7,0012*71
$GPGGA,012251.75,3439.59852678,N,13744.63686693,E,4,08,1.0,10.732,M,38.489,M,1.8,0012*79
$GPGGA,012251.80,3439.59852564,N,13744.63684877,E,4,08,1.0,10.723,M,38.489,M,1.8,0012*7B
$GPGGA,012251.85,3439.59852331,N,13744.63682835,E,4,08,1.0,10.722,M,38.489,M,1.9,0012*78
$GPGGA,012251.90,3439.59851951,N,13744.63680784,E,4,08,1.0,10.713,M,38.489,M,1.9,0012*76
$GPGGA,012251.95,3439.59851507,N,13744.63678704,E,4,08,1.0,10.708,M,38.489,M,2.0,0012*73
$GPGGA,012252.00,3439.59851095,N,13744.63676265,E,4,08,1.0,10.746,M,38.489,M,2.0,0012*74
$GPGGA,012252.05,3439.59850939,N,13744.63674136,E,4,08,1.0,10.756,M,38.489,M,2.0,0012*79
$GPGGA,012252.10,3439.59850879,N,13744.63672242,E,4,08,1.0,10.739,M,38.489,M,2.1,0012*76
$GPGGA,012252.15,3439.59850931,N,13744.63670264,E,4,08,1.0,10.729,M,38.489,M,2.2,0012*7A
$GPGGA,012252.20,3439.59850771,N,13744.63667997,E,4,08,1.0,10.735,M,38.489,M,2.2,0012*7A
$GPGGA,012252.25,3439.59850468,N,13744.63666289,E,4,08,1.0,10.731,M,38.489,M,2.3,0012*74
$GPGGA,012252.30,3439.59850465,N,13744.63663818,E,4,08,1.0,10.736,M,38.489,M,2.3,0012*7D
$GPGGA,012252.35,3439.59850386,N,13744.63661879,E,4,08,1.0,10.729,M,38.489,M,2.3,0012*79
$GPGGA,012252.40,3439.59850297,N,13744.63659684,E,4,08,1.0,10.733,M,38.489,M,1.4,0012*72
$GPGGA,012252.45,3439.59850750,N,13744.63657879,E,4,08,1.0,10.716,M,38.489,M,1.5,0012*7D
$GPGGA,012252.50,3439.59850704,N,13744.63655797,E,4,08,1.0,10.721,M,38.489,M,1.5,0012*71
$GPGGA,012252.55,3439.59850798,N,13744.63653356,E,4,08,1.0,10.719,M,38.489,M,1.5,0012*75
$GPGGA,012252.60,3439.59851425,N,13744.63650962,E,4,08,1.0,10.700,M,38.489,M,1.6,0012*72
$GPGGA,012252.65,3439.59852062,N,13744.63648988,E,4,08,1.0,10.676,M,38.489,M,1.6,0012*7E
$GPGGA,012252.70,3439.59853058,N,13744.63646458,E,4,08,1.0,10.653,M,38.489,M,1.7,0012*7A
$GPGGA,012252.75,3439.59852664,N,13744.63644154,E,4,08,1.0,10.699,M,38.489,M,1.8,0012*75
$GPGGA,012252.80,3439.59853231,N,13744.63641112,E,4,08,1.0,10.710,M,38.489,M,1.8,0012*7D
$GPGGA,012252.85,3439.59853224,N,13744.63638747,E,4,08,1.0,10.735,M,38.489,M,1.9,0012*72
$GPGGA,012252.90,3439.59853439,N,13744.63636826,E,4,08,1.0,10.718,M,38.489,M,1.9,0012*75
$GPGGA,012252.95,3439.59853675,N,13744.63635327,E,4,08,1.0,10.696,M,38.489,M,2.0,0012*7E
$GPGGA,012253.00,3439.59854416,N,13744.63633090,E,4,08,1.0,10.696,M,38.489,M,2.0,0012*7A
$GPGGA,012253.05,3439.59854394,N,13744.63631570,E,4,08,1.0,10.693,M,38.489,M,2.0,0012*7E
$GPGGA,012253.10,3439.59854500,N,13744.63629966,E,4,08,1.0,10.689,M,38.489,M,2.1,0012*79
$GPGGA,012253.15,3439.59854631,N,13744.63628352,E,4,08,1.0,10.694,M,38.489,M,2.2,0012*7E
$GPGGA,012253.20,3439.59855190,N,13744.63626920,E,4,08,1.0,10.676,M,38.489,M,1.2,0012*7B
$GPGGA,012253.25,3439.59854954,N,13744.63625168,E,4,08,1.0,10.671,M,38.489,M,1.3,0012*7E
$GPGGA,012253.30,3439.59854764,N,13744.63623525,E,4,08,1.0,10.674,M,38.489,M,1.3,0012*79
$GPGGA,012253.35,3439.59854348,N,13744.63622161,E,4,08,1.0,10.672,M,38.489,M,1.4,0012*72
$GPGGA,012253.40,3439.59853840,N,13744.63620956,E,4,08,1.0,10.667,M,38.489,M,1.4,0012*7E
$GPGGA,012253.45,3439.59853150,N,13744.63619837,E,4,08,1.0,10.659,M,38.489,M,1.5,0012*73
$GPGGA,012253.50,3439.59852711,N,13744.63618585,E,4,08,1.0,10.657,M,38.489,M,1.5,0012*7E
$GPGGA,012253.55,3439.59852235,N,13744.63617466,E,4,08,1.0,10.657,M,38.489,M,1.5,0012*7B
$GPGGA,012253.60,3439.59851646,N,13744.63616292,E,4,08,1.0,10.660,M,38.489,M,1.6,0012*75
$GPGGA,012253.65,3439.59851368,N,13744.63614619,E,4,08,1.0,10.665,M,38.489,M,1.6,0012*79
$GPGGA,012253.70,3439.59850926,N,13744.63613877,E,4,08,1.0,10.663,M,38.489,M,1.7,0012*7A
$GPGGA,012253.75,3439.59850564,N,13744.63612876,E,4,08,1.0,10.668,M,38.489,M,1.8,0012*71
$GPGGA,012253.80,3439.59850963,N,13744.63611771,E,4,08,1.0,10.668,M,38.489,M,1.8,0012*7B
$GPGGA,012253.85,3439.59850891,N,13744.63611034,E,4,08,1.0,10.669,M,38.489,M,1.9,0012*74
$GPGGA,012253.90,3439.59850341,N,13744.63610502,E,4,08,1.0,10.674,M,38.489,M,1.9,0012*7B
$GPGGA,012253.95,3439.59850828,N,13744.63609572,E,4,08,1.0,10.670,M,38.489,M,2.0,0012*7B
$GPGGA,012254.00,3439.59850544,N,13744.63609507,E,4,08,1.0,10.655,M,38.489,M,2.0,0012*72
$GPGGA,012254.05,3439.59850357,N,13744.63608650,E,4,08,1.0,10.665,M,38.489,M,2.0,0012*70
$GPGGA,012254.10,3439.59850394,N,13744.63608115,E,4,08,1.0,10.670,M,38.489,M,2.1,0012*78
$GPGGA,012254.15,3439.59850499,N,13744.63607594,E,4,08,1.0,10.659,M,38.489,M,2.2,0012*7D
$GPGGA,012254.20,3439.59850851,N,13744.63607121,E,4,08,1.0,10.655,M,38.489,M,2.2,0012*75
$GPGGA,012254.25,3439.59850924,N,13744.63606690,E,4,08,1.0,10.662,M,38.489,M,2.3,0012*7A
$GPGGA,012254.30,3439.59851089,N,13744.63606155,E,4,08,1.0,10.666,M,38.489,M,2.3,0012*7B
$GPGGA,012254.35,3439.59851342,N,13744.63606041,E,4,08,1.0,10.662,M,38.489,M,2.3,0012*7A
$GPGGA,012254.40,3439.59851363,N,13744.63605587,E,4,08,1.0,10.664,M,38.489,M,2.4,0012*76
$GPGGA,012254.45,3439.59851631,N,13744.63605260,E,4,08,1.0,10.661,M,38.489,M,2.5,0012*7B
$GPGGA,012254.50,3439.59851762,N,13744.63605072,E,4,08,1.0,10.662,M,38.489,M,2.5,0012*7A
$GPGGA,012254.55,3439.59851966,N,13744.63605039,E,4,08,1.0,10.662,M,38.489,M,2.5,0012*7A
$GPGGA,012254.60,3439.59852154,N,13744.63604888,E,4,08,1.0,10.660,M,38.489,M,2.6,0012*74
$GPGGA,012254.65,3439.59852011,N,13744.63604769,E,4,08,1.0,10.665,M,38.489,M,2.7,0012*75
$GPGGA,012254.70,3439.59852168,N,13744.63604704,E,4,08,1.0,10.659,M,38.489,M,2.7,0012*7A
$GPGGA,012254.75,3439.59852335,N,13744.63604508,E,4,08,1.0,10.653,M,38.489,M,2.8,0012*7E
$GPGGA,012254.80,3439.59852128,N,13744.63604216,E,4,08,1.0,10.662,M,38.489,M,1.8,0012*73
$GPGGA,012254.85,3439.59852269,N,13744.63604057,E,4,08,1.0,10.665,M,38.489,M,1.9,0012*71
$GPGGA,012254.90,3439.59852235,N,13744.63603945,E,4,08,1.0,10.672,M,38.489,M,1.9,0012*77
$GPGGA,012254.95,3439.59852284,N,13744.63603992,E,4,08,1.0,10.671,M,38.489,M,2.0,0012*7B
$GPGGA,012255.00,3439.59852261,N,13744.63603953,E,4,08,1.0,10.671,M,38.489,M,2.0,0012*70
$GPGGA,012255.05,3439.59852398,N,13744.63603719,E,4,08,1.0,10.671,M,38.489,M,2.0,0012*72
$GPGGA,012255.10,3439.59852355,N,13744.63603599,E,4,08,1.0,10.671,M,38.489,M,2.1,0012*7C
$GPGGA,012255.15,3439.59852510,N,13744.63603456,E,4,08,1.0,10.669,M,38.489,M,2.2,0012*76
$GPGGA,012255.20,3439.59852547,N,13744.63603561,E,4,08,1.0,10.670,M,38.489,M,2.2,0012*7F
$GPGGA,012255.25,3439.59852586,N,13744.63603530,E,4,08,1.0,10.668,M,38.489,M,2.3,0012*7B
$GPGGA,012255.30,3439.59852867,N,13744.63603206,E,4,08,1.0,10.670,M,38.489,M,1.3,0012*75
$GPGGA,012255.35,3439.59852950,N,13744.63603200,E,4,08,1.0,10.672,M,38.489,M,1.4,0012*76
$GPGGA,012255.40,3439.59852949,N,13744.63603192,E,4,08,1.0,10.674,M,38.489,M,1.4,0012*72
$GPGGA,012255.45,3439.59852826,N,13744.63603041,E,4,08,1.0,10.674,M,38.489,M,1.5,0012*71
$GPGGA,012255.50,3439.59852599,N,13744.63602883,E,4,08,1.0,10.681,M,38.489,M,1.5,0012*71
$GPGGA,012255.55,3439.59852862,N,13744.63602755,E,4,08,1.0,10.680,M,38.489,M,1.5,0012*78
$GPGGA,012255.60,3439.59852840,N,13744.63602729,E,4,08,1.0,10.682,M,38.489,M,1.6,0012*74
$GPGGA,012255.65,3439.59852899,N,13744.63602896,E,4,08,1.0,10.678,M,38.489,M,1.6,0012*7B
$GPGGA,012255.70,3439.59852781,N,13744.63603154,E,4,08,1.0,10.652,M,38.489,M,0.7,0012*77
$GPGGA,012255.75,3439.59853022,N,13744.63602751,E,4,08,1.0,10.658,M,38.489,M,0.8,0012*7A
$GPGGA,012255.80,3439.59852987,N,13744.63602602,E,4,08,1.0,10.669,M,38.489,M,0.8,0012*72
$GPGGA,012255.85,3439.59852924,N,13744.63602575,E,4,08,1.0,10.669,M,38.489,M,0.9,0012*7C
$GPGGA,012255.90,3439.59852820,N,13744.63602463,E,4,08,1.0,10.660,M,38.489,M,0.9,0012*72
$GPGGA,012255.95,3439.59852353,N,13744.63602704,E,4,08,1.0,10.656,M,38.489,M,0.9,0012*7F
$GPGGA,012256.00,3439.59852752,N,13744.63602277,E,4,08,1.0,10.662,M,38.489,M,1.0,0012*7B
$GPGGA,012256.05,3439.59852950,N,13744.63602243,E,4,08,1.0,10.666,M,38.489,M,1.0,0012*71
$GPGGA,012256.10,3439.59852574,N,13744.63602221,E,4,08,1.0,10.671,M,38.489,M,1.1,0012*7C
$GPGGA,012256.15,3439.59852472,N,13744.63602032,E,4,08,1.0,10.669,M,38.489,M,1.1,0012*77
$GPGGA,012256.20,3439.59852431,N,13744.63602033,E,4,08,1.0,10.662,M,38.489,M,1.2,0012*7F
$GPGGA,012256.25,3439.59852214,N,13744.63601858,E,4,08,1.0,10.668,M,38.489,M,1.3,0012*76
$GPGGA,012256.30,3439.59852294,N,13744.63602009,E,4,08,1.0,10.666,M,38.489,M,1.3,0012*7B
$GPGGA,012256.35,3439.59852270,N,13744.63601934,E,4,08,1.0,10.665,M,38.489,M,1.4,0012*74
$GPGGA,012256.40,3439.59852396,N,13744.63601867,E,4,08,1.0,10.667,M,38.489,M,1.4,0012*7A
$GPGGA,012256.45,3439.59852250,N,13744.63601708,E,4,08,1.0,10.669,M,38.489,M,1.5,0012*7D
$GPGGA,012256.50,3439.59851904,N,13744.63601590,E,4,08,1.0,10.669,M,38.489,M,1.5,0012*73
$GPGGA,012256.55,3439.59851652,N,13744.63601468,E,4,08,1.0,10.669,M,38.489,M,1.5,0012*7C
$GPGGA,012256.60,3439.59851859,N,13744.63601704,E,4,08,1.0,10.669,M,38.489,M,1.6,0012*75
$GPGGA,012256.65,3439.59851520,N,13744.63601267,E,4,08,1.0,10.683,M,38.489,M,1.6,0012*77
$GPGGA,012256.70,3439.59851729,N,13744.63602004,E,4,08,1.0,10.663,M,38.489,M,1.7,0012*73
$GPGGA,012256.75,3439.59852000,N,13744.63601796,E,4,08,1.0,10.667,M,38.489,M,1.8,0012*7D
$GPGGA,012256.80,3439.59851864,N,13744.63601813,E,4,08,1.0,10.665,M,38.489,M,1.8,0012*7E
$GPGGA,012256.85,3439.59851740,N,13744.63601826,E,4,08,1.0,10.673,M,38.489,M,1.9,0012*72
$GPGGA,012256.90,3439.59851685,N,13744.63601929,E,4,08,1.0,10.670,M,38.489,M,1.9,0012*73
$GPGGA,012256.95,3439.59851600,N,13744.63601742,E,4,08,1.0,10.668,M,38.489,M,2.0,0012*7B
$GPGGA,012257.00,3439.59851522,N,13744.63601854,E,4,08,1.0,10.665,M,38.489,M,2.0,0012*70
$GPGGA,012257.05,3439.59851586,N,13744.63601847,E,4,08,1.0,10.672,M,38.489,M,2.0,0012*7F
$GPGGA,012257.10,3439.59851526,N,13744.63601849,E,4,08,1.0,10.668,M,38.489,M,2.1,0012*75
$GPGGA,012257.15,3439.59851387,N,13744.63601917,E,4,08,1.0,10.673,M,38.489,M,2.2,0012*7E
$GPGGA,012257.20,3439.59851268,N,13744.63601708,E,4,08,1.0,10.676,M,38.489,M,2.2,0012*7D
$GPGGA,012257.25,3439.59851264,N,13744.63601670,E,4,08,1.0,10.677,M,38.489,M,2.3,0012*7A
$GPGGA,012257.30,3439.59851330,N,13744.63601877,E,4,08,1.0,10.678,M,38.489,M,2.3,0012*78
$GPGGA,012257.35,3439.59851188,N,13744.63601907,E,4,08,1.0,10.675,M,38.489,M,2.3,0012*77
$GPGGA,012257.40,3439.59851477,N,13744.63601908,E,4,08,1.0,10.676,M,38.489,M,2.4,0012*7B
$GPGGA,012257.45,3439.59851830,N,13744.63601762,E,4,08,1.0,10.670,M,38.489,M,2.5,0012*74
$GPGGA,012257.50,3439.59851710,N,13744.63601798,E,4,08,1.0,10.663,M,38.489,M,1.5,0012*79
$GPGGA,012257.55,3439.59851361,N,13744.63601968,E,4,08,1.0,10.672,M,38.489,M,1.5,0012*7F
$GPGGA,012257.60,3439.59851276,N,13744.63601949,E,4,08,1.0,10.676,M,38.489,M,1.6,0012*7A
$GPGGA,012257.65,3439.59851427,N,13744.63601726,E,4,08,1.0,10.678,M,38.489,M,1.6,0012*74
$GPGGA,012257.70,3439.59851282,N,13744.63601625,E,4,08,1.0,10.681,M,38.489,M,1.7,0012*7C
$GPGGA,012257.75,3439.59851445,N,13744.63601729,E,4,08,1.0,10.676,M,38.489,M,1.8,0012*7E
$GPGGA,012257.80,3439.59851890,N,13744.63601681,E,4,08,1.0,10.668,M,38.489,M,1.8,0012*7C
$GPGGA,012257.85,3439.59851797,N,13744.63601843,E,4,08,1.0,10.671,M,38.489,M,1.9,0012*78
$GPGGA,012257.90,3439.59851958,N,13744.63601956,E,4,08,1.0,10.673,M,38.489,M,1.9,0012*76
$GPGGA,012257.95,3439.59851856,N,13744.63602321,E,4,08,1.0,10.667,M,38.489,M,0.9,0012*71
$GPGGA,012258.00,3439.59851810,N,13744.63602551,E,4,08,1.0,10.658,M,38.489,M,1.0,0012*75
$GPGGA,012258.05,3439.59851956,N,13744.63602782,E,4,08,1.0,10.659,M,38.489,M,1.0,0012*7E
$GPGGA,012258.10,3439.59851878,N,13744.63602987,E,4,08,1.0,10.664,M,38.489,M,1.1,0012*73
$GPGGA,012258.15,3439.59852119,N,13744.63603095,E,4,08,1.0,10.659,M,38.489,M,1.1,0012*7E
$GPGGA,012258.20,3439.59852201,N,13744.63603105,E,4,08,1.0,10.663,M,38.489,M,1.2,0012*70
$GPGGA,012258.25,3439.59852290,N,13744.63603281,E,4,08,1.0,10.666,M,38.489,M,1.3,0012*76
$GPGGA,012258.30,3439.59852428,N,13744.63603434,E,4,08,1.0,10.663,M,38.489,M,1.3,0012*7A
$GPGGA,012258.35,3439.59852289,N,13744.63603589,E,4,08,1.0,10.659,M,38.489,M,1.4,0012*7B
$GPGGA,012258.40,3439.59852236,N,13744.63603799,E,4,08,1.0,10.657,M,38.489,M,1.4,0012*70
$GPGGA,012258.45,3439.59852189,N,13744.63603946,E,4,08,1.0,10.661,M,38.489,M,1.5,0012*7A
$GPGGA,012258.50,3439.59852110,N,13744.63603917,E,4,08,1.0,10.661,M,38.489,M,1.5,0012*7A
$GPGGA,012258.55,3439.59852089,N,13744.63603665,E,4,08,1.0,10.659,M,38.489,M,1.5,0012*7F
$GPGGA,012258.60,3439.59852029,N,13744.63603414,E,4,08,1.0,10.668,M,38.489,M,1.6,0012*76
$GPGGA,012258.65,3439.59852347,N,13744.63603772,E,4,08,1.0,10.667,M,38.489,M,1.6,0012*74
$GPGGA,012258.70,3439.59852232,N,13744.63603910,E,4,08,1.0,10.660,M,38.489,M,1.7,0012*7F
$GPGGA,012258.75,3439.59852361,N,13744.63604062,E,4,08,1.0,10.668,M,38.489,M,1.8,0012*71
$GPGGA,012258.80,3439.59852479,N,13744.63604118,E,4,08,1.0,10.666,M,38.489,M,1.8,0012*77
$GPGGA,012258.85,3439.59852459,N,13744.63604163,E,4,08,1.0,10.666,M,38.489,M,1.9,0012*7D
$GPGGA,012258.90,3439.59852379,N,13744.63604053,E,4,08,1.0,10.673,M,38.489,M,1.9,0012*7A
$GPGGA,012258.95,3439.59852474,N,13744.63603930,E,4,08,1.0,10.673,M,38.489,M,2.0,0012*74
$GPGGA,012259.00,3439.59852592,N,13744.63603761,E,4,08,1.0,10.670,M,38.489,M,2.0,0012*79
$GPGGA,012259.05,3439.59852623,N,13744.63603783,E,4,08,1.0,10.670,M,38.489,M,1.0,0012*7A
$GPGGA,012259.10,3439.59852963,N,13744.63603802,E,4,08,1.0,10.664,M,38.489,M,1.1,0012*77
$GPGGA,012259.15,3439.59853086,N,13744.63603680,E,4,08,1.0,10.664,M,38.489,M,1.1,0012*75
$GPGGA,012259.20,3439.59852932,N,13744.63603409,E,4,08,1.0,10.666,M,38.489,M,1.2,0012*76
$GPGGA,012259.25,3439.59852891,N,13744.63603211,E,4,08,1.0,10.667,M,38.489,M,1.3,0012*74
$GPGGA,012259.30,3439.59852834,N,13744.63603111,E,4,08,1.0,10.666,M,38.489,M,1.3,0012*7D
$GPGGA,012259.35,3439.59852631,N,13744.63602780,E,4,08,1.0,10.673,M,38.489,M,1.4,0012*7F
$GPGGA,012259.40,3439.59852572,N,13744.63602224,E,4,08,1.0,10.670,M,38.489,M,1.4,0012*71
$GPGGA,012259.45,3439.59852526,N,13744.63601743,E,4,08,1.0,10.673,M,38.489,M,1.5,0012*70
$GPGGA,012259.50,3439.59852504,N,13744.63601236,E,4,08,1.0,10.675,M,38.489,M,1.5,0012*75
$GPGGA,012259.55,3439.59852574,N,13744.63600594,E,4,08,1.0,10.671,M,38.489,M,1.5,0012*7D
$GPGGA,012259.60,3439.59852666,N,13744.63600003,E,4,08,1.0,10.677,M,38.489,M,1.6,0012*75
$GPGGA,012259.65,3439.59852988,N,13744.63598903,E,4,08,1.0,10.682,M,38.489,M,1.6,0012*7E
$GPGGA,012259.70,3439.59853348,N,13744.63598258,E,4,08,1.0,10.668,M,38.489,M,1.7,0012*7D
$GPGGA,012259.75,3439.59853273,N,13744.63597026,E,4,08,1.0,10.657,M,38.489,M,0.8,0012*77
$GPGGA,012259.80,3439.59852936,N,13744.63596116,E,4,08,1.0,10.660,M,38.489,M,0.8,0012*71
$GPGGA,012259.85,3439.59852652,N,13744.63595148,E,4,08,1.0,10.667,M,38.489,M,0.9,0012*77
$GPGGA,012259.90,3439.59852344,N,13744.63594109,E,4,08,1.0,10.665,M,38.489,M,0.9,0012*77
$GPGGA,012259.95,3439.59852147,N,13744.63593007,E,4,08,1.0,10.659,M,38.489,M,0.9,0012*74
$GPGGA,012300.00,3439.59851685,N,13744.63591898,E,4,08,1.0,10.657,M,38.489,M,1.0,0012*75
$GPGGA,012300.05,3439.59851227,N,13744.63590625,E,4,08,1.0,10.656,M,38.489,M,1.0,0012*74
$GPGGA,012300.10,3439.59850620,N,13744.63589111,E,4,08,1.0,10.649,M,38.489,M,1.1,0012*75
$GPGGA,012300.15,3439.59849635,N,13744.63587753,E,4,08,1.0,10.641,M,38.489,M,1.1,0012*7A
$GPGGA,012300.20,3439.59848691,N,13744.63586506,E,4,08,1.0,10.640,M,38.489,M,1.2,0012*72
$GPGGA,012300.25,3439.59847793,N,13744.63584929,E,4,08,1.0,10.649,M,38.489,M,1.3,0012*70
$GPGGA,012300.30,3439.59846945,N,13744.63583359,E,4,08,1.0,10.655,M,38.489,M,1.3,0012*77
$GPGGA,012300.35,3439.59845650,N,13744.63581833,E,4,08,1.0,10.662,M,38.489,M,1.4,0012*7C
$GPGGA,012300.40,3439.59844721,N,13744.63580532,E,4,08,1.0,10.667,M,38.489,M,1.4,0012*70
$GPGGA,012300.45,3439.59843741,N,13744.63579455,E,4,08,1.0,10.675,M,38.489,M,1.5,0012*70
$GPGGA,012300.50,3439.59843068,N,13744.63578023,E,4,08,1.0,10.673,M,38.489,M,1.5,0012*7A
$GPGGA,012300.55,3439.59842499,N,13744.63576594,E,4,08,1.0,10.678,M,38.489,M,1.5,0012*78
$GPGGA,012300.60,3439.59841979,N,13744.63575446,E,4,08,1.0,10.678,M,38.489,M,1.6,0012*70
