DESCRIPTION:
Logging traveling 5 m


[2014-10-09 03:13:10]$GPGGA,070421.200,3815.2957,N,14050.6501,E,1,5,2.66,169.9,M,37.1,M,,*5F
[2014-10-09 03:13:11]$GPGGA,070421.400,3815.2957,N,14050.6500,E,1,5,1.73,169.8,M,37.1,M,,*5E
[2014-10-09 03:13:11]$GPGGA,070421.600,3815.2956,N,14050.6499,E,1,5,1.73,169.7,M,37.1,M,,*53
[2014-10-09 03:13:11]$GPGGA,070421.800,3815.2955,N,14050.6499,E,1,5,1.73,169.7,M,37.1,M,,*5E
[2014-10-09 03:13:11]$GPGGA,070422.000,3815.2955,N,14050.6498,E,1,5,2.65,169.6,M,37.1,M,,*51
[2014-10-09 03:13:11]$GPGGA,070422.200,3815.2953,N,14050.6497,E,1,5,2.66,169.6,M,37.1,M,,*59
[2014-10-09 03:13:12]$GPGGA,070422.400,3815.2952,N,14050.6496,E,1,5,2.66,169.7,M,37.1,M,,*5E
[2014-10-09 03:13:12]$GPGGA,070422.600,3815.2951,N,14050.6495,E,1,5,2.66,169.7,M,37.1,M,,*5C
[2014-10-09 03:13:12]$GPGGA,070422.800,3815.2950,N,14050.6494,E,1,5,2.65,169.7,M,37.1,M,,*51
[2014-10-09 03:13:12]$GPGGA,070423.000,3815.2950,N,14050.6493,E,1,5,2.66,169.7,M,37.1,M,,*5C
[2014-10-09 03:13:12]$GPGGA,070423.200,3815.2949,N,14050.6493,E,1,5,2.66,169.7,M,37.1,M,,*56
[2014-10-09 03:13:13]$GPGGA,070423.400,3815.2949,N,14050.6491,E,1,5,2.65,169.7,M,37.1,M,,*51
[2014-10-09 03:13:13]$GPGGA,070423.600,3815.2950,N,14050.6490,E,1,5,2.66,169.6,M,37.1,M,,*58
[2014-10-09 03:13:13]$GPGGA,070423.800,3815.2950,N,14050.6489,E,1,5,2.66,169.6,M,37.1,M,,*5E
[2014-10-09 03:13:13]$GPGGA,070424.000,3815.2950,N,14050.6490,E,1,5,2.66,169.6,M,37.1,M,,*59
[2014-10-09 03:13:13]$GPGGA,070424.200,3815.2950,N,14050.6490,E,1,5,2.66,169.6,M,37.1,M,,*5B
[2014-10-09 03:13:14]$GPGGA,070424.400,3815.2950,N,14050.6490,E,1,5,2.65,169.6,M,37.1,M,,*5E
[2014-10-09 03:13:14]$GPGGA,070424.600,3815.2950,N,14050.6490,E,1,5,2.66,169.6,M,37.1,M,,*5F
[2014-10-09 03:13:14]$GPGGA,070424.800,3815.2949,N,14050.6490,E,1,5,2.65,169.6,M,37.1,M,,*5A
[2014-10-09 03:13:14]$GPGGA,070425.000,3815.2949,N,14050.6491,E,1,5,2.65,169.6,M,37.1,M,,*52
[2014-10-09 03:13:14]$GPGGA,070425.200,3815.2949,N,14050.6491,E,1,4,2.78,169.6,M,37.1,M,,*5D
[2014-10-09 03:13:15]$GPGGA,070425.400,3815.2949,N,14050.6491,E,1,4,2.78,169.6,M,37.1,M,,*5B
[2014-10-09 03:13:15]$GPGGA,070425.600,3815.2949,N,14050.6491,E,1,4,2.78,169.6,M,37.1,M,,*59
[2014-10-09 03:13:15]$GPGGA,070425.800,3815.2949,N,14050.6491,E,1,4,2.78,169.6,M,37.1,M,,*57
[2014-10-09 03:13:15]$GPGGA,070426.000,3815.2949,N,14050.6491,E,1,4,2.78,169.6,M,37.1,M,,*5C
[2014-10-09 03:13:15]$GPGGA,070426.200,3815.2948,N,14050.6491,E,1,4,2.08,169.6,M,37.1,M,,*58
[2014-10-09 03:13:16]$GPGGA,070426.400,3815.2948,N,14050.6491,E,1,4,2.08,169.6,M,37.1,M,,*5E
[2014-10-09 03:13:16]$GPGGA,070426.600,3815.2948,N,14050.6491,E,1,4,2.08,169.6,M,37.1,M,,*5C
[2014-10-09 03:13:16]$GPGGA,070426.800,3815.2948,N,14050.6491,E,1,4,2.78,169.7,M,37.1,M,,*54
[2014-10-09 03:13:16]$GPGGA,070427.000,3815.2948,N,14050.6491,E,1,4,2.78,169.7,M,37.1,M,,*5D
[2014-10-09 03:13:16]$GPGGA,070427.200,3815.2948,N,14050.6491,E,1,4,2.78,169.7,M,37.1,M,,*5F
[2014-10-09 03:13:17]$GPGGA,070427.400,3815.2948,N,14050.6492,E,1,4,2.78,169.7,M,37.1,M,,*5A
[2014-10-09 03:13:17]$GPGGA,070427.600,3815.2947,N,14050.6492,E,1,4,2.78,169.7,M,37.1,M,,*57
[2014-10-09 03:13:17]$GPGGA,070427.800,3815.2947,N,14050.6492,E,1,4,2.78,169.7,M,37.1,M,,*59
[2014-10-09 03:13:17]$GPGGA,070428.000,3815.2947,N,14050.6492,E,1,4,2.08,169.7,M,37.1,M,,*59
[2014-10-09 03:13:18]$GPGGA,070428.200,3815.2947,N,14050.6492,E,1,4,2.07,169.7,M,37.1,M,,*54
[2014-10-09 03:13:18]$GPGGA,070428.400,3815.2947,N,14050.6492,E,1,4,2.08,169.7,M,37.1,M,,*5D
[2014-10-09 03:13:18]$GPGGA,070428.600,3815.2947,N,14050.6492,E,1,4,2.78,169.7,M,37.1,M,,*58
[2014-10-09 03:13:18]$GPGGA,070428.800,3815.2946,N,14050.6492,E,1,4,2.78,169.7,M,37.1,M,,*57
[2014-10-09 03:13:18]$GPGGA,070429.000,3815.2946,N,14050.6491,E,1,4,2.78,169.7,M,37.1,M,,*5D
[2014-10-09 03:13:18]$GPGGA,070429.200,3815.2946,N,14050.6491,E,1,4,2.08,169.7,M,37.1,M,,*58
[2014-10-09 03:13:19]$GPGGA,070429.400,3815.2946,N,14050.6491,E,1,3,71.33,169.8,M,37.1,M,,*6A
[2014-10-09 03:13:19]$GPGGA,070429.600,3815.2946,N,14050.6491,E,1,3,71.49,169.8,M,37.1,M,,*65
[2014-10-09 03:13:19]$GPGGA,070429.800,3815.2946,N,14050.6491,E,1,3,71.64,169.8,M,37.1,M,,*64
[2014-10-09 03:13:19]$GPGGA,070430.000,3815.2945,N,14050.6490,E,1,3,71.81,169.8,M,37.1,M,,*6D
[2014-10-09 03:13:19]$GPGGA,070430.200,3815.2945,N,14050.6490,E,1,3,71.96,169.8,M,37.1,M,,*69
[2014-10-09 03:13:20]$GPGGA,070430.400,3815.2945,N,14050.6490,E,1,4,3.74,169.8,M,37.1,M,,*51
[2014-10-09 03:13:20]$GPGGA,070430.600,3815.2945,N,14050.6490,E,1,4,3.74,169.8,M,37.1,M,,*53
[2014-10-09 03:13:20]$GPGGA,070430.800,3815.2946,N,14050.6488,E,1,4,2.89,169.7,M,37.1,M,,*5B
[2014-10-09 03:13:20]$GPGGA,070431.000,3815.2946,N,14050.6487,E,1,4,2.89,169.5,M,37.1,M,,*5F
[2014-10-09 03:13:20]$GPGGA,070431.200,3815.2946,N,14050.6486,E,1,4,2.89,169.3,M,37.1,M,,*5A
[2014-10-09 03:13:21]$GPGGA,070431.400,3815.2947,N,14050.6485,E,1,4,2.89,169.2,M,37.1,M,,*5F
[2014-10-09 03:13:21]$GPGGA,070431.600,3815.2947,N,14050.6484,E,1,4,2.89,169.0,M,37.1,M,,*5E
[2014-10-09 03:13:21]$GPGGA,070431.800,3815.2948,N,14050.6483,E,1,4,2.89,168.9,M,37.1,M,,*50
[2014-10-09 03:13:21]$GPGGA,070432.000,3815.2948,N,14050.6482,E,1,4,2.89,168.8,M,37.1,M,,*5B
[2014-10-09 03:13:21]$GPGGA,070432.200,3815.2948,N,14050.6481,E,1,4,2.89,168.7,M,37.1,M,,*55
[2014-10-09 03:13:22]$GPGGA,070432.400,3815.2949,N,14050.6481,E,1,4,2.89,168.6,M,37.1,M,,*53
[2014-10-09 03:13:22]$GPGGA,070432.600,3815.2949,N,14050.6480,E,1,4,2.89,168.5,M,37.1,M,,*53
[2014-10-09 03:13:22]$GPGGA,070432.800,3815.2949,N,14050.6480,E,1,4,2.89,168.4,M,37.1,M,,*5C
[2014-10-09 03:13:22]$GPGGA,070433.000,3815.2949,N,14050.6479,E,1,4,2.89,168.3,M,37.1,M,,*54
[2014-10-09 03:13:22]$GPGGA,070433.200,3815.2950,N,14050.6478,E,1,4,3.74,168.2,M,37.1,M,,*5D
[2014-10-09 03:13:23]$GPGGA,070433.400,3815.2951,N,14050.6477,E,1,4,3.74,168.1,M,37.1,M,,*56
[2014-10-09 03:13:23]$GPGGA,070433.600,3815.2951,N,14050.6475,E,1,4,3.74,168.0,M,37.1,M,,*57
[2014-10-09 03:13:23]$GPGGA,070433.800,3815.2951,N,14050.6475,E,1,4,3.74,167.8,M,37.1,M,,*5E
[2014-10-09 03:13:23]$GPGGA,070434.000,3815.2951,N,14050.6474,E,1,4,3.74,167.7,M,37.1,M,,*5F
[2014-10-09 03:13:23]$GPGGA,070434.200,3815.2951,N,14050.6472,E,1,4,3.74,167.5,M,37.1,M,,*59
[2014-10-09 03:13:24]$GPGGA,070434.400,3815.2951,N,14050.6469,E,1,4,3.74,167.4,M,37.1,M,,*54
[2014-10-09 03:13:24]$GPGGA,070434.600,3815.2951,N,14050.6467,E,1,4,3.74,167.3,M,37.1,M,,*5F
[2014-10-09 03:13:24]$GPGGA,070434.800,3815.2953,N,14050.6466,E,1,5,2.65,167.2,M,37.1,M,,*53
[2014-10-09 03:13:24]$GPGGA,070435.000,3815.2954,N,14050.6464,E,1,5,2.65,167.0,M,37.1,M,,*5D
[2014-10-09 03:13:24]$GPGGA,070435.200,3815.2955,N,14050.6462,E,1,5,2.65,166.9,M,37.1,M,,*50
[2014-10-09 03:13:25]$GPGGA,070435.400,3815.2955,N,14050.6459,E,1,5,2.65,166.8,M,37.1,M,,*5F
[2014-10-09 03:13:25]$GPGGA,070435.600,3815.2953,N,14050.6457,E,1,5,1.73,166.8,M,37.1,M,,*51
[2014-10-09 03:13:25]$GPGGA,070435.800,3815.2952,N,14050.6457,E,1,5,1.73,166.8,M,37.1,M,,*5E
[2014-10-09 03:13:25]$GPGGA,070436.000,3815.2951,N,14050.6455,E,1,5,1.73,166.8,M,37.1,M,,*54
[2014-10-09 03:13:25]$GPGGA,070436.200,3815.2951,N,14050.6456,E,1,5,1.73,166.8,M,37.1,M,,*55
[2014-10-09 03:13:26]$GPGGA,070436.400,3815.2951,N,14050.6456,E,1,6,1.34,166.8,M,37.1,M,,*53
[2014-10-09 03:13:26]$GPGGA,070436.600,3815.2952,N,14050.6457,E,1,6,1.34,166.8,M,37.1,M,,*53
[2014-10-09 03:13:26]$GPGGA,070436.800,3815.2953,N,14050.6458,E,1,6,1.34,166.8,M,37.1,M,,*53
[2014-10-09 03:13:26]$GPGGA,070437.000,3815.2954,N,14050.6459,E,1,5,1.73,166.7,M,37.1,M,,*53
[2014-10-09 03:13:26]$GPGGA,070437.200,3815.2954,N,14050.6459,E,1,6,1.42,166.7,M,37.1,M,,*50
[2014-10-09 03:13:27]$GPGGA,070437.400,3815.2955,N,14050.6460,E,1,6,1.42,166.7,M,37.1,M,,*5D
[2014-10-09 03:13:27]$GPGGA,070437.600,3815.2955,N,14050.6460,E,1,6,1.42,166.6,M,37.1,M,,*5E
[2014-10-09 03:13:27]$GPGGA,070437.800,3815.2954,N,14050.6460,E,1,6,1.42,166.6,M,37.1,M,,*51
[2014-10-09 03:13:27]$GPGGA,070438.000,3815.2955,N,14050.6457,E,1,6,1.68,166.5,M,37.1,M,,*58
[2014-10-09 03:13:27]$GPGGA,070438.200,3815.2955,N,14050.6457,E,1,5,1.85,166.5,M,37.1,M,,*5A
[2014-10-09 03:13:28]$GPGGA,070438.400,3815.2955,N,14050.6458,E,1,5,1.84,166.5,M,37.1,M,,*52
[2014-10-09 03:13:28]$GPGGA,070438.600,3815.2954,N,14050.6459,E,1,5,1.84,166.5,M,37.1,M,,*50
[2014-10-09 03:13:28]$GPGGA,070438.800,3815.2955,N,14050.6461,E,1,5,1.85,166.5,M,37.1,M,,*55
[2014-10-09 03:13:28]$GPGGA,070439.000,3815.2955,N,14050.6462,E,1,5,1.84,166.5,M,37.1,M,,*5E
[2014-10-09 03:13:28]$GPGGA,070439.200,3815.2956,N,14050.6463,E,1,5,1.96,166.5,M,37.1,M,,*5D
[2014-10-09 03:13:29]$GPGGA,070439.400,3815.2956,N,14050.6464,E,1,5,1.96,166.5,M,37.1,M,,*5C
[2014-10-09 03:13:29]$GPGGA,070439.600,3815.2956,N,14050.6465,E,1,6,1.77,166.4,M,37.1,M,,*52
[2014-10-09 03:13:29]$GPGGA,070439.800,3815.2956,N,14050.6466,E,1,6,1.77,166.4,M,37.1,M,,*5F
[2014-10-09 03:13:29]$GPGGA,070440.000,3815.2956,N,14050.6466,E,1,6,1.77,166.4,M,37.1,M,,*59
[2014-10-09 03:13:29]$GPGGA,070440.200,3815.2956,N,14050.6466,E,1,6,1.77,166.4,M,37.1,M,,*5B
[2014-10-09 03:13:30]$GPGGA,070440.400,3815.2956,N,14050.6466,E,1,6,1.77,166.4,M,37.1,M,,*5D
[2014-10-09 03:13:30]$GPGGA,070440.600,3815.2956,N,14050.6466,E,1,6,1.76,166.4,M,37.1,M,,*5E
[2014-10-09 03:13:30]$GPGGA,070440.800,3815.2956,N,14050.6466,E,1,6,1.77,166.4,M,37.1,M,,*51
[2014-10-09 03:13:30]$GPGGA,070441.000,3815.2956,N,14050.6466,E,1,6,1.77,166.4,M,37.1,M,,*58
[2014-10-09 03:13:31]$GPGGA,070441.200,3815.2956,N,14050.6466,E,1,6,1.77,166.4,M,37.1,M,,*5A
[2014-10-09 03:13:31]$GPGGA,070441.400,3815.2956,N,14050.6466,E,1,6,1.77,166.4,M,37.1,M,,*5C
[2014-10-09 03:13:31]$GPGGA,070441.600,3815.2956,N,14050.6466,E,1,6,1.77,166.4,M,37.1,M,,*5E
[2014-10-09 03:13:31]$GPGGA,070441.800,3815.2956,N,14050.6466,E,1,6,1.77,166.4,M,37.1,M,,*50
[2014-10-09 03:13:31]$GPGGA,070442.000,3815.2956,N,14050.6466,E,1,6,1.77,166.4,M,37.1,M,,*5B
[2014-10-09 03:13:32]$GPGGA,070442.200,3815.2956,N,14050.6466,E,1,5,1.96,166.4,M,37.1,M,,*55
[2014-10-09 03:13:32]$GPGGA,070442.400,3815.2956,N,14050.6466,E,1,5,1.96,166.4,M,37.1,M,,*53
[2014-10-09 03:13:32]$GPGGA,070442.600,3815.2956,N,14050.6466,E,1,5,1.96,166.4,M,37.1,M,,*51
[2014-10-09 03:13:32]$GPGGA,070442.800,3815.2956,N,14050.6466,E,1,5,1.96,166.4,M,37.1,M,,*5F
[2014-10-09 03:13:32]$GPGGA,070443.000,3815.2956,N,14050.6466,E,1,5,1.96,166.4,M,37.1,M,,*56
[2014-10-09 03:13:32]$GPGGA,070443.200,3815.2956,N,14050.6465,E,1,5,1.96,166.4,M,37.1,M,,*57
[2014-10-09 03:13:33]$GPGGA,070443.400,3815.2956,N,14050.6465,E,1,6,1.77,166.4,M,37.1,M,,*5D
[2014-10-09 03:13:33]$GPGGA,070443.600,3815.2956,N,14050.6465,E,1,6,1.77,166.4,M,37.1,M,,*5F
[2014-10-09 03:13:33]$GPGGA,070443.800,3815.2956,N,14050.6465,E,1,6,1.77,166.4,M,37.1,M,,*51
[2014-10-09 03:13:33]$GPGGA,070444.000,3815.2956,N,14050.6464,E,1,6,1.49,166.4,M,37.1,M,,*52
[2014-10-09 03:13:34]$GPGGA,070444.200,3815.2956,N,14050.6464,E,1,6,1.49,166.4,M,37.1,M,,*50
[2014-10-09 03:13:34]$GPGGA,070444.400,3815.2956,N,14050.6464,E,1,6,1.49,166.4,M,37.1,M,,*56
[2014-10-09 03:13:34]$GPGGA,070444.600,3815.2956,N,14050.6464,E,1,6,1.49,166.4,M,37.1,M,,*54
[2014-10-09 03:13:34]$GPGGA,070444.800,3815.2956,N,14050.6464,E,1,6,1.49,166.4,M,37.1,M,,*5A
[2014-10-09 03:13:34]$GPGGA,070445.000,3815.2956,N,14050.6463,E,1,6,1.49,166.4,M,37.1,M,,*54
[2014-10-09 03:13:34]$GPGGA,070445.200,3815.2956,N,14050.6463,E,1,6,1.49,166.4,M,37.1,M,,*56
[2014-10-09 03:13:35]$GPGGA,070445.400,3815.2956,N,14050.6463,E,1,6,1.49,166.4,M,37.1,M,,*50
[2014-10-09 03:13:35]$GPGGA,070445.600,3815.2957,N,14050.6463,E,1,6,1.49,166.4,M,37.1,M,,*53
[2014-10-09 03:13:35]$GPGGA,070445.800,3815.2957,N,14050.6462,E,1,6,1.49,166.4,M,37.1,M,,*5C
[2014-10-09 03:13:35]$GPGGA,070446.000,3815.2957,N,14050.6462,E,1,5,1.76,166.4,M,37.1,M,,*58
[2014-10-09 03:13:35]$GPGGA,070446.200,3815.2957,N,14050.6462,E,1,5,1.76,166.4,M,37.1,M,,*5A
[2014-10-09 03:13:36]$GPGGA,070446.400,3815.2957,N,14050.6462,E,1,6,1.67,166.4,M,37.1,M,,*5F
[2014-10-09 03:13:36]$GPGGA,070446.600,3815.2958,N,14050.6462,E,1,6,1.67,166.4,M,37.1,M,,*52
[2014-10-09 03:13:36]$GPGGA,070446.800,3815.2958,N,14050.6461,E,1,6,1.67,166.4,M,37.1,M,,*5F
[2014-10-09 03:13:36]$GPGGA,070447.000,3815.2958,N,14050.6461,E,1,6,1.67,166.4,M,37.1,M,,*56
[2014-10-09 03:13:36]$GPGGA,070447.200,3815.2962,N,14050.6461,E,1,6,1.67,166.3,M,37.1,M,,*5A
[2014-10-09 03:13:37]$GPGGA,070447.400,3815.2966,N,14050.6461,E,1,6,1.67,166.3,M,37.1,M,,*58
[2014-10-09 03:13:37]$GPGGA,070447.600,3815.2968,N,14050.6460,E,1,6,1.67,166.2,M,37.1,M,,*54
[2014-10-09 03:13:37]$GPGGA,070447.800,3815.2970,N,14050.6459,E,1,6,1.67,166.1,M,37.1,M,,*5A
[2014-10-09 03:13:37]$GPGGA,070448.000,3815.2973,N,14050.6459,E,1,6,1.67,166.0,M,37.1,M,,*5F
[2014-10-09 03:13:37]$GPGGA,070448.200,3815.2974,N,14050.6458,E,1,6,1.67,166.0,M,37.1,M,,*5B
[2014-10-09 03:13:38]$GPGGA,070448.400,3815.2976,N,14050.6458,E,1,6,1.67,165.9,M,37.1,M,,*55
[2014-10-09 03:13:38]$GPGGA,070448.600,3815.2979,N,14050.6457,E,1,6,1.67,165.9,M,37.1,M,,*57
[2014-10-09 03:13:38]$GPGGA,070448.800,3815.2980,N,14050.6457,E,1,6,1.67,165.8,M,37.1,M,,*5E
[2014-10-09 03:13:38]$GPGGA,070449.000,3815.2982,N,14050.6457,E,1,6,1.67,165.7,M,37.1,M,,*5A
[2014-10-09 03:13:38]$GPGGA,070449.200,3815.2984,N,14050.6456,E,1,6,1.67,165.7,M,37.1,M,,*5F
[2014-10-09 03:13:39]$GPGGA,070449.400,3815.2986,N,14050.6456,E,1,6,1.67,165.6,M,37.1,M,,*5A
[2014-10-09 03:13:39]$GPGGA,070449.600,3815.2987,N,14050.6456,E,1,6,1.67,165.6,M,37.1,M,,*59
[2014-10-09 03:13:39]$GPGGA,070449.800,3815.2987,N,14050.6455,E,1,6,1.67,165.6,M,37.1,M,,*54
[2014-10-09 03:13:39]$GPGGA,070450.000,3815.2988,N,14050.6455,E,1,6,1.67,165.6,M,37.1,M,,*5B
[2014-10-09 03:13:39]$GPGGA,070450.200,3815.2988,N,14050.6455,E,1,6,1.67,165.6,M,37.1,M,,*59
[2014-10-09 03:13:40]$GPGGA,070450.400,3815.2989,N,14050.6454,E,1,6,1.67,165.6,M,37.1,M,,*5F
[2014-10-09 03:13:40]$GPGGA,070450.600,3815.2989,N,14050.6454,E,1,6,1.67,165.6,M,37.1,M,,*5D
[2014-10-09 03:13:40]$GPGGA,070450.800,3815.2990,N,14050.6453,E,1,6,1.67,165.6,M,37.1,M,,*5C
[2014-10-09 03:13:40]$GPGGA,070451.000,3815.2990,N,14050.6453,E,1,6,1.67,165.6,M,37.1,M,,*55
[2014-10-09 03:13:40]$GPGGA,070451.200,3815.2991,N,14050.6453,E,1,6,1.67,165.6,M,37.1,M,,*56
[2014-10-09 03:13:41]$GPGGA,070451.400,3815.2991,N,14050.6452,E,1,6,1.67,165.6,M,37.1,M,,*51
[2014-10-09 03:13:41]$GPGGA,070451.600,3815.2992,N,14050.6452,E,1,6,1.42,165.6,M,37.1,M,,*57
[2014-10-09 03:13:41]$GPGGA,070451.800,3815.2993,N,14050.6451,E,1,6,1.42,165.6,M,37.1,M,,*5B
[2014-10-09 03:13:41]$GPGGA,070452.000,3815.2993,N,14050.6451,E,1,6,1.42,165.6,M,37.1,M,,*50
[2014-10-09 03:13:41]$GPGGA,070452.200,3815.2994,N,14050.6450,E,1,6,1.42,165.7,M,37.1,M,,*55
[2014-10-09 03:13:42]$GPGGA,070452.400,3815.2994,N,14050.6450,E,1,6,1.42,165.7,M,37.1,M,,*53
[2014-10-09 03:13:42]$GPGGA,070452.600,3815.2995,N,14050.6450,E,1,6,1.42,165.7,M,37.1,M,,*50
[2014-10-09 03:13:42]$GPGGA,070452.800,3815.2996,N,14050.6449,E,1,5,1.53,165.7,M,37.1,M,,*56
