$GPGGA,064704.75,3439.59381579,N,13744.62264945,E,4,10,1.0,12.209,M,38.489,M,1.8,0012*71
$GPGGA,064704.80,3439.59381577,N,13744.62265265,E,4,10,1.0,12.209,M,38.489,M,1.8,0012*7D
$GPGGA,064704.85,3439.59381637,N,13744.62265592,E,4,10,1.0,12.209,M,38.489,M,1.9,0012*71
$GPGGA,064704.90,3439.59381669,N,13744.62265924,E,4,10,1.0,12.211,M,38.489,M,1.9,0012*76
$GPGGA,064704.95,3439.59381938,N,13744.62266159,E,4,10,1.0,12.213,M,38.489,M,2.0,0012*71
$GPGGA,064705.00,3439.59381921,N,13744.62266387,E,4,10,1.0,12.214,M,38.489,M,2.0,0012*72
$GPGGA,064705.05,3439.59381817,N,13744.62266432,E,4,10,1.0,12.210,M,38.489,M,2.0,0012*7E
$GPGGA,064705.10,3439.59381810,N,13744.62266532,E,4,10,1.0,12.208,M,38.489,M,1.1,0012*77
$GPGGA,064705.15,3439.59381899,N,13744.62266672,E,4,10,1.0,12.209,M,38.489,M,1.1,0012*75
$GPGGA,064705.20,3439.59381894,N,13744.62266691,E,4,10,1.0,12.208,M,38.489,M,1.2,0012*71
$GPGGA,064705.25,3439.59381810,N,13744.62266810,E,4,10,1.0,12.206,M,38.489,M,1.3,0012*70
$GPGGA,064705.30,3439.59381763,N,13744.62266940,E,4,10,1.0,12.210,M,38.489,M,1.3,0012*7C
$GPGGA,064705.35,3439.59381868,N,13744.62267053,E,4,10,1.0,12.207,M,38.489,M,1.4,0012*76
$GPGGA,064705.40,3439.59382055,N,13744.62267307,E,4,10,1.0,12.206,M,38.489,M,1.4,0012*72
$GPGGA,064705.45,3439.59382108,N,13744.62267510,E,4,10,1.0,12.207,M,38.489,M,1.5,0012*7E
$GPGGA,064705.50,3439.59382126,N,13744.62267630,E,4,10,1.0,12.202,M,38.489,M,1.5,0012*72
$GPGGA,064705.55,3439.59382367,N,13744.62267767,E,4,10,1.0,12.201,M,38.489,M,1.5,0012*70
$GPGGA,064705.60,3439.59382620,N,13744.62267997,E,4,10,1.0,12.201,M,38.489,M,1.6,0012*72
$GPGGA,064705.65,3439.59383040,N,13744.62268473,E,4,10,1.0,12.195,M,38.489,M,1.6,0012*70
$GPGGA,064705.70,3439.59383369,N,13744.62269138,E,4,10,1.0,12.195,M,38.489,M,1.7,0012*76
$GPGGA,064705.75,3439.59383519,N,13744.62269759,E,4,10,1.0,12.190,M,38.489,M,1.8,0012*79
$GPGGA,064705.80,3439.59383999,N,13744.62270376,E,4,10,1.0,12.180,M,38.489,M,1.8,0012*77
$GPGGA,064705.85,3439.59384701,N,13744.62271396,E,4,10,1.0,12.169,M,38.489,M,1.9,0012*73
$GPGGA,064705.90,3439.59385213,N,13744.62272487,E,4,10,1.0,12.160,M,38.489,M,1.9,0012*7D
$GPGGA,064705.95,3439.59386000,N,13744.62273730,E,4,10,1.0,12.151,M,38.489,M,2.0,0012*7D
$GPGGA,064706.00,3439.59387113,N,13744.62275008,E,4,10,1.0,12.143,M,38.489,M,2.0,0012*79
$GPGGA,064706.05,3439.59387830,N,13744.62276714,E,4,10,1.0,12.131,M,38.489,M,1.0,0012*7B
$GPGGA,064706.10,3439.59388709,N,13744.62278223,E,4,10,1.0,12.127,M,38.489,M,1.1,0012*7C
$GPGGA,064706.15,3439.59389748,N,13744.62279496,E,4,10,1.0,12.122,M,38.489,M,1.1,0012*71
$GPGGA,064706.20,3439.59390793,N,13744.62280565,E,4,10,1.0,12.116,M,38.489,M,1.2,0012*76
$GPGGA,064706.25,3439.59391731,N,13744.62281534,E,4,10,1.0,12.106,M,38.489,M,1.3,0012*7F
$GPGGA,064706.30,3439.59392841,N,13744.62282218,E,4,10,1.0,12.099,M,38.489,M,1.3,0012*7D
$GPGGA,064706.35,3439.59393845,N,13744.62282806,E,4,10,1.0,12.096,M,38.489,M,1.4,0012*70
$GPGGA,064706.40,3439.59394939,N,13744.62283187,E,4,10,1.0,12.093,M,38.489,M,1.4,0012*7B
$GPGGA,064706.45,3439.59396374,N,13744.62284066,E,4,10,1.0,12.088,M,38.489,M,1.5,0012*7D
$GPGGA,064706.50,3439.59397448,N,13744.62284754,E,4,10,1.0,12.066,M,38.489,M,1.5,0012*76
$GPGGA,064706.55,3439.59398634,N,13744.62285437,E,4,10,1.0,12.048,M,38.489,M,1.5,0012*7E
$GPGGA,064706.60,3439.59399736,N,13744.62286345,E,4,10,1.0,12.032,M,38.489,M,1.6,0012*75
$GPGGA,064706.65,3439.59400920,N,13744.62286765,E,4,10,1.0,12.027,M,38.489,M,1.6,0012*7C
$GPGGA,064706.70,3439.59402007,N,13744.62287518,E,4,10,1.0,12.024,M,38.489,M,1.7,0012*7D
$GPGGA,064706.75,3439.59402828,N,13744.62288250,E,4,10,1.0,12.021,M,38.489,M,1.8,0012*73
$GPGGA,064706.80,3439.59403426,N,13744.62288943,E,4,10,1.0,12.017,M,38.489,M,1.8,0012*76
$GPGGA,064706.85,3439.59404488,N,13744.62289712,E,4,10,1.0,12.021,M,38.489,M,1.9,0012*7F
$GPGGA,064706.90,3439.59405623,N,13744.62290897,E,4,10,1.0,12.020,M,38.489,M,1.9,0012*72
$GPGGA,064706.95,3439.59407075,N,13744.62292042,E,4,10,1.0,12.014,M,38.489,M,2.0,0012*7F
$GPGGA,064707.00,3439.59408341,N,13744.62293326,E,4,10,1.0,12.003,M,38.489,M,2.0,0012*7F
$GPGGA,064707.05,3439.59409542,N,13744.62294809,E,4,10,1.0,11.985,M,38.489,M,2.0,0012*7B
$GPGGA,064707.10,3439.59410567,N,13744.62296100,E,4,10,1.0,11.969,M,38.489,M,2.1,0012*71
$GPGGA,064707.15,3439.59411682,N,13744.62297326,E,4,10,1.0,11.959,M,38.489,M,1.1,0012*7A
$GPGGA,064707.20,3439.59413008,N,13744.62298494,E,4,10,1.0,11.948,M,38.489,M,1.2,0012*78
$GPGGA,064707.25,3439.59414514,N,13744.62299399,E,4,10,1.0,11.943,M,38.489,M,1.3,0012*73
$GPGGA,064707.30,3439.59415851,N,13744.62300256,E,4,10,1.0,11.936,M,38.489,M,1.3,0012*7B
$GPGGA,064707.35,3439.59417038,N,13744.62301017,E,4,10,1.0,11.933,M,38.489,M,1.4,0012*7F
$GPGGA,064707.40,3439.59418364,N,13744.62301713,E,4,10,1.0,11.929,M,38.489,M,1.4,0012*70
$GPGGA,064707.45,3439.59419831,N,13744.62302122,E,4,10,1.0,11.925,M,38.489,M,1.5,0012*75
$GPGGA,064707.50,3439.59421302,N,13744.62302849,E,4,10,1.0,11.920,M,38.489,M,1.5,0012*70
$GPGGA,064707.55,3439.59422491,N,13744.62303493,E,4,10,1.0,11.914,M,38.489,M,1.5,0012*76
$GPGGA,064707.60,3439.59423673,N,13744.62304068,E,4,10,1.0,11.905,M,38.489,M,1.6,0012*7B
$GPGGA,064707.65,3439.59424934,N,13744.62304504,E,4,10,1.0,11.886,M,38.489,M,1.6,0012*70
$GPGGA,064707.70,3439.59426119,N,13744.62304768,E,4,10,1.0,11.878,M,38.489,M,1.7,0012*79
$GPGGA,064707.75,3439.59427487,N,13744.62304720,E,4,10,1.0,11.871,M,38.489,M,1.8,0012*75
$GPGGA,064707.80,3439.59428982,N,13744.62304507,E,4,10,1.0,11.861,M,38.489,M,1.8,0012*7E
$GPGGA,064707.85,3439.59430893,N,13744.62304047,E,4,10,1.0,11.869,M,38.489,M,1.9,0012*7B
$GPGGA,064707.90,3439.59432674,N,13744.62303669,E,4,10,1.0,11.859,M,38.489,M,1.9,0012*74
$GPGGA,064707.95,3439.59433786,N,13744.62304217,E,4,10,1.0,11.855,M,38.489,M,2.0,0012*70
$GPGGA,064708.00,3439.59435241,N,13744.62304254,E,4,10,1.0,11.846,M,38.489,M,2.0,0012*7E
$GPGGA,064708.05,3439.59436763,N,13744.62304354,E,4,10,1.0,11.840,M,38.489,M,2.0,0012*7A
$GPGGA,064708.10,3439.59438289,N,13744.62304341,E,4,10,1.0,11.833,M,38.489,M,2.1,0012*70
$GPGGA,064708.15,3439.59440020,N,13744.62304431,E,4,10,1.0,11.824,M,38.489,M,1.1,0012*7E
$GPGGA,064708.20,3439.59441556,N,13744.62304231,E,4,10,1.0,11.813,M,38.489,M,1.2,0012*7C
$GPGGA,064708.25,3439.59442997,N,13744.62303970,E,4,10,1.0,11.796,M,38.489,M,1.3,0012*71
$GPGGA,064708.30,3439.59444700,N,13744.62304028,E,4,10,1.0,11.778,M,38.489,M,1.3,0012*70
$GPGGA,064708.35,3439.59446606,N,13744.62304130,E,4,10,1.0,11.760,M,38.489,M,1.4,0012*76
$GPGGA,064708.40,3439.59448777,N,13744.62304130,E,4,10,1.0,11.743,M,38.489,M,1.4,0012*7C
$GPGGA,064708.45,3439.59450744,N,13744.62304172,E,4,10,1.0,11.724,M,38.489,M,1.5,0012*76
$GPGGA,064708.50,3439.59452559,N,13744.62303862,E,4,10,1.0,11.712,M,38.489,M,1.5,0012*74
$GPGGA,064708.55,3439.59453967,N,13744.62303167,E,4,10,1.0,11.707,M,38.489,M,1.5,0012*79
$GPGGA,064708.60,3439.59455696,N,13744.62302410,E,4,10,1.0,11.714,M,38.489,M,1.6,0012*7D
$GPGGA,064708.65,3439.59457434,N,13744.62301538,E,4,10,1.0,11.703,M,38.489,M,1.6,0012*7E
$GPGGA,064708.70,3439.59459208,N,13744.62300738,E,4,10,1.0,11.692,M,38.489,M,1.7,0012*76
$GPGGA,064708.75,3439.59461433,N,13744.62300171,E,4,10,1.0,11.689,M,38.489,M,1.8,0012*78
$GPGGA,064708.80,3439.59463263,N,13744.62299295,E,4,10,1.0,11.669,M,38.489,M,1.8,0012*75
$GPGGA,064708.85,3439.59464952,N,13744.62298334,E,4,10,1.0,11.645,M,38.489,M,1.9,0012*7A
$GPGGA,064708.90,3439.59466548,N,13744.62297319,E,4,10,1.0,11.632,M,38.489,M,1.9,0012*7B
$GPGGA,064708.95,3439.59468698,N,13744.62295715,E,4,10,1.0,11.615,M,38.489,M,2.0,0012*7B
$GPGGA,064709.00,3439.59470647,N,13744.62294592,E,4,10,1.0,11.611,M,38.489,M,1.0,0012*76
$GPGGA,064709.05,3439.59472587,N,13744.62293242,E,4,10,1.0,11.598,M,38.489,M,1.0,0012*71
$GPGGA,064709.10,3439.59474248,N,13744.62292195,E,4,10,1.0,11.585,M,38.489,M,1.1,0012*72
$GPGGA,064709.15,3439.59476211,N,13744.62291314,E,4,10,1.0,11.578,M,38.489,M,1.1,0012*73
$GPGGA,064709.20,3439.59478208,N,13744.62290498,E,4,10,1.0,11.579,M,38.489,M,1.2,0012*73
$GPGGA,064709.25,3439.59480152,N,13744.62289898,E,4,10,1.0,11.574,M,38.489,M,1.3,0012*75
$GPGGA,064709.30,3439.59481867,N,13744.62289376,E,4,10,1.0,11.567,M,38.489,M,1.3,0012*76
$GPGGA,064709.35,3439.59483855,N,13744.62288690,E,4,10,1.0,11.556,M,38.489,M,1.4,0012*79
$GPGGA,064709.40,3439.59485640,N,13744.62288196,E,4,10,1.0,11.534,M,38.489,M,1.4,0012*72
$GPGGA,064709.45,3439.59487734,N,13744.62287839,E,4,10,1.0,11.509,M,38.489,M,1.5,0012*7B
$GPGGA,064709.50,3439.59489752,N,13744.62287442,E,4,10,1.0,11.488,M,38.489,M,1.5,0012*79
$GPGGA,064709.55,3439.59491942,N,13744.62287000,E,4,10,1.0,11.476,M,38.489,M,1.5,0012*79
$GPGGA,064709.60,3439.59494126,N,13744.62286418,E,4,10,1.0,11.466,M,38.489,M,1.6,0012*7E
$GPGGA,064709.65,3439.59496086,N,13744.62285640,E,4,10,1.0,11.450,M,38.489,M,1.6,0012*7B
$GPGGA,064709.70,3439.59497517,N,13744.62284521,E,4,10,1.0,11.446,M,38.489,M,1.7,0012*70
$GPGGA,064709.75,3439.59499224,N,13744.62283835,E,4,10,1.0,11.441,M,38.489,M,1.8,0012*7B
$GPGGA,064709.80,3439.59500905,N,13744.62282747,E,4,10,1.0,11.448,M,38.489,M,1.8,0012*7A
$GPGGA,064709.85,3439.59502883,N,13744.62281921,E,4,10,1.0,11.444,M,38.489,M,1.9,0012*72
$GPGGA,064709.90,3439.59504877,N,13744.62281255,E,4,10,1.0,11.446,M,38.489,M,1.9,0012*71
$GPGGA,064709.95,3439.59506748,N,13744.62280482,E,4,10,1.0,11.420,M,38.489,M,2.0,0012*72
$GPGGA,064710.00,3439.59508073,N,13744.62279344,E,4,10,1.0,11.418,M,38.489,M,2.0,0012*77
$GPGGA,064710.05,3439.59509699,N,13744.62278045,E,4,10,1.0,11.393,M,38.489,M,1.0,0012*75
$GPGGA,064710.10,3439.59511232,N,13744.62276499,E,4,10,1.0,11.394,M,38.489,M,1.1,0012*70
$GPGGA,064710.15,3439.59513163,N,13744.62275422,E,4,10,1.0,11.381,M,38.489,M,1.1,0012*77
$GPGGA,064710.20,3439.59514159,N,13744.62274146,E,4,10,1.0,11.376,M,38.489,M,1.2,0012*72
$GPGGA,064710.25,3439.59515932,N,13744.62273204,E,4,10,1.0,11.378,M,38.489,M,1.3,0012*7E
$GPGGA,064710.30,3439.59517582,N,13744.62272499,E,4,10,1.0,11.380,M,38.489,M,1.3,0012*7B
$GPGGA,064710.35,3439.59519133,N,13744.62272027,E,4,10,1.0,11.375,M,38.489,M,1.4,0012*72
$GPGGA,064710.40,3439.59520934,N,13744.62271786,E,4,10,1.0,11.357,M,38.489,M,1.4,0012*7A
$GPGGA,064710.45,3439.59522681,N,13744.62271534,E,4,10,1.0,11.353,M,38.489,M,1.5,0012*72
$GPGGA,064710.50,3439.59524538,N,13744.62271280,E,4,10,1.0,11.333,M,38.489,M,1.5,0012*7F
$GPGGA,064710.55,3439.59526400,N,13744.62271070,E,4,10,1.0,11.312,M,38.489,M,1.5,0012*7C
$GPGGA,064710.60,3439.59528361,N,13744.62271061,E,4,10,1.0,11.290,M,38.489,M,1.6,0012*7C
$GPGGA,064710.65,3439.59530603,N,13744.62270530,E,4,10,1.0,11.296,M,38.489,M,1.6,0012*77
$GPGGA,064710.70,3439.59532370,N,13744.62270263,E,4,10,1.0,11.289,M,38.489,M,1.7,0012*7E
$GPGGA,064710.75,3439.59534283,N,13744.62269464,E,4,10,1.0,11.258,M,38.489,M,1.8,0012*7A
$GPGGA,064710.80,3439.59536233,N,13744.62268673,E,4,10,1.0,11.251,M,38.489,M,1.8,0012*75
$GPGGA,064710.85,3439.59538081,N,13744.62267883,E,4,10,1.0,11.248,M,38.489,M,1.9,0012*72
$GPGGA,064710.90,3439.59540011,N,13744.62266921,E,4,10,1.0,11.255,M,38.489,M,1.9,0012*74
$GPGGA,064710.95,3439.59541995,N,13744.62266367,E,4,10,1.0,11.241,M,38.489,M,2.0,0012*72
$GPGGA,064711.00,3439.59543975,N,13744.62266076,E,4,10,1.0,11.228,M,38.489,M,2.0,0012*7F
$GPGGA,064711.05,3439.59545961,N,13744.62264992,E,4,10,1.0,11.196,M,38.489,M,2.0,0012*7E
$GPGGA,064711.10,3439.59547598,N,13744.62263968,E,4,10,1.0,11.194,M,38.489,M,2.1,0012*73
$GPGGA,064711.15,3439.59549239,N,13744.62262843,E,4,10,1.0,11.173,M,38.489,M,2.2,0012*77
$GPGGA,064711.20,3439.59551200,N,13744.62261924,E,4,10,1.0,11.168,M,38.489,M,2.2,0012*7B
$GPGGA,064711.25,3439.59553441,N,13744.62261289,E,4,10,1.0,11.146,M,38.489,M,2.3,0012*7E
$GPGGA,064711.30,3439.59555076,N,13744.62260109,E,4,10,1.0,11.148,M,38.489,M,2.3,0012*78
$GPGGA,064711.35,3439.59556950,N,13744.62259447,E,4,10,1.0,11.152,M,38.489,M,2.3,0012*7D
$GPGGA,064711.40,3439.59558730,N,13744.62259056,E,4,10,1.0,11.149,M,38.489,M,2.4,0012*70
$GPGGA,064711.45,3439.59560753,N,13744.62258954,E,4,10,1.0,11.136,M,38.489,M,2.5,0012*78
$GPGGA,064711.50,3439.59562809,N,13744.62258669,E,4,10,1.0,11.122,M,38.489,M,2.5,0012*7A
$GPGGA,064711.55,3439.59564332,N,13744.62258071,E,4,10,1.0,11.107,M,38.489,M,2.5,0012*72
$GPGGA,064711.60,3439.59566769,N,13744.62258021,E,4,10,1.0,11.089,M,38.489,M,2.6,0012*7D
$GPGGA,064711.65,3439.59568957,N,13744.62257559,E,4,10,1.0,11.074,M,38.489,M,2.7,0012*73
$GPGGA,064711.70,3439.59571131,N,13744.62257104,E,4,10,1.0,11.043,M,38.489,M,1.7,0012*7C
$GPGGA,064711.75,3439.59573178,N,13744.62256675,E,4,10,1.0,11.023,M,38.489,M,1.8,0012*7F
$GPGGA,064711.80,3439.59575097,N,13744.62256194,E,4,10,1.0,11.006,M,38.489,M,1.8,0012*7C
$GPGGA,064711.85,3439.59576630,N,13744.62255408,E,4,10,1.0,11.014,M,38.489,M,1.9,0012*70
$GPGGA,064711.90,3439.59578458,N,13744.62254603,E,4,10,1.0,11.009,M,38.489,M,1.9,0012*72
$GPGGA,064711.95,3439.59580295,N,13744.62253852,E,4,10,1.0,11.009,M,38.489,M,2.0,0012*70
$GPGGA,064712.00,3439.59582317,N,13744.62253303,E,4,10,1.0,11.002,M,38.489,M,2.0,0012*72
$GPGGA,064712.05,3439.59584277,N,13744.62253385,E,4,10,1.0,10.991,M,38.489,M,1.0,0012*79
$GPGGA,064712.10,3439.59586006,N,13744.62252433,E,4,10,1.0,10.979,M,38.489,M,1.1,0012*77
$GPGGA,064712.15,3439.59587790,N,13744.62252006,E,4,10,1.0,10.974,M,38.489,M,1.1,0012*74
$GPGGA,064712.20,3439.59589450,N,13744.62251374,E,4,10,1.0,10.955,M,38.489,M,1.2,0012*76
$GPGGA,064712.25,3439.59591257,N,13744.62250469,E,4,10,1.0,10.934,M,38.489,M,1.3,0012*77
$GPGGA,064712.30,3439.59593629,N,13744.62249017,E,4,10,1.0,10.918,M,38.489,M,1.3,0012*77
$GPGGA,064712.35,3439.59594977,N,13744.62248270,E,4,10,1.0,10.939,M,38.489,M,1.4,0012*77
$GPGGA,064712.40,3439.59596973,N,13744.62247319,E,4,10,1.0,10.917,M,38.489,M,1.4,0012*7E
$GPGGA,064712.45,3439.59598915,N,13744.62246645,E,4,10,1.0,10.922,M,38.489,M,1.5,0012*7F
$GPGGA,064712.50,3439.59600660,N,13744.62246355,E,4,10,1.0,10.923,M,38.489,M,1.5,0012*71
$GPGGA,064712.55,3439.59602311,N,13744.62246115,E,4,10,1.0,10.924,M,38.489,M,1.5,0012*74
$GPGGA,064712.60,3439.59604110,N,13744.62245863,E,4,10,1.0,10.901,M,38.489,M,1.6,0012*78
$GPGGA,064712.65,3439.59605528,N,13744.62245612,E,4,10,1.0,10.893,M,38.489,M,1.6,0012*71
$GPGGA,064712.70,3439.59607430,N,13744.62245529,E,4,10,1.0,10.891,M,38.489,M,1.7,0012*77
$GPGGA,064712.75,3439.59609109,N,13744.62245520,E,4,10,1.0,10.868,M,38.489,M,1.8,0012*73
$GPGGA,064712.80,3439.59611056,N,13744.62245603,E,4,10,1.0,10.848,M,38.489,M,1.8,0012*7B
$GPGGA,064712.85,3439.59613328,N,13744.62245380,E,4,10,1.0,10.844,M,38.489,M,1.9,0012*75
$GPGGA,064712.90,3439.59615093,N,13744.62244953,E,4,10,1.0,10.816,M,38.489,M,1.9,0012*76
$GPGGA,064712.95,3439.59616970,N,13744.62244826,E,4,10,1.0,10.810,M,38.489,M,2.0,0012*7B
$GPGGA,064713.00,3439.59618554,N,13744.62244268,E,4,10,1.0,10.805,M,38.489,M,2.0,0012*76
$GPGGA,064713.05,3439.59620267,N,13744.62243452,E,4,10,1.0,10.803,M,38.489,M,2.0,0012*71
$GPGGA,064713.10,3439.59621994,N,13744.62242783,E,4,10,1.0,10.806,M,38.489,M,1.1,0012*7A
$GPGGA,064713.15,3439.59623890,N,13744.62242348,E,4,10,1.0,10.799,M,38.489,M,1.1,0012*72
$GPGGA,064713.20,3439.59625691,N,13744.62241849,E,4,10,1.0,10.792,M,38.489,M,1.2,0012*7C
$GPGGA,064713.25,3439.59627596,N,13744.62241204,E,4,10,1.0,10.775,M,38.489,M,1.3,0012*74
$GPGGA,064713.30,3439.59629310,N,13744.62240714,E,4,10,1.0,10.762,M,38.489,M,1.3,0012*75
$GPGGA,064713.35,3439.59631148,N,13744.62239971,E,4,10,1.0,10.743,M,38.489,M,1.4,0012*71
$GPGGA,064713.40,3439.59633091,N,13744.62238873,E,4,10,1.0,10.726,M,38.489,M,1.4,0012*75
$GPGGA,064713.45,3439.59634795,N,13744.62237404,E,4,10,1.0,10.729,M,38.489,M,1.5,0012*79
$GPGGA,064713.50,3439.59636646,N,13744.62236582,E,4,10,1.0,10.721,M,38.489,M,1.5,0012*76
$GPGGA,064713.55,3439.59638845,N,13744.62235903,E,4,10,1.0,10.712,M,38.489,M,1.5,0012*76
$GPGGA,064713.60,3439.59640710,N,13744.62235383,E,4,10,1.0,10.717,M,38.489,M,1.6,0012*74
$GPGGA,064713.65,3439.59642384,N,13744.62235101,E,4,10,1.0,10.719,M,38.489,M,1.6,0012*7C
$GPGGA,064713.70,3439.59644069,N,13744.62234718,E,4,10,1.0,10.719,M,38.489,M,1.7,0012*70
$GPGGA,064713.75,3439.59645839,N,13744.62234032,E,4,10,1.0,10.713,M,38.489,M,1.8,0012*73
$GPGGA,064713.80,3439.59647823,N,13744.62233435,E,4,10,1.0,10.703,M,38.489,M,1.8,0012*75
$GPGGA,064713.85,3439.59649224,N,13744.62233341,E,4,10,1.0,10.684,M,38.489,M,1.9,0012*78
$GPGGA,064713.90,3439.59651248,N,13744.62232943,E,4,10,1.0,10.668,M,38.489,M,1.9,0012*74
$GPGGA,064713.95,3439.59653017,N,13744.62232798,E,4,10,1.0,10.643,M,38.489,M,2.0,0012*70
$GPGGA,064714.00,3439.59654905,N,13744.62232510,E,4,10,1.0,10.622,M,38.489,M,2.0,0012*73
$GPGGA,064714.05,3439.59656490,N,13744.62232132,E,4,10,1.0,10.614,M,38.489,M,2.0,0012*74
$GPGGA,064714.10,3439.59658443,N,13744.62231659,E,4,10,1.0,10.609,M,38.489,M,2.1,0012*74
$GPGGA,064714.15,3439.59660419,N,13744.62230992,E,4,10,1.0,10.607,M,38.489,M,2.2,0012*71
$GPGGA,064714.20,3439.59662233,N,13744.62230153,E,4,10,1.0,10.595,M,38.489,M,1.2,0012*75
$GPGGA,064714.25,3439.59663946,N,13744.62229570,E,4,10,1.0,10.595,M,38.489,M,1.3,0012*74
$GPGGA,064714.30,3439.59665557,N,13744.62229170,E,4,10,1.0,10.594,M,38.489,M,1.3,0012*7F
$GPGGA,064714.35,3439.59667501,N,13744.62228871,E,4,10,1.0,10.584,M,38.489,M,1.4,0012*74
$GPGGA,064714.40,3439.59669443,N,13744.62228467,E,4,10,1.0,10.572,M,38.489,M,1.4,0012*7D
$GPGGA,064714.45,3439.59671213,N,13744.62227960,E,4,10,1.0,10.561,M,38.489,M,1.5,0012*74
$GPGGA,064714.50,3439.59672969,N,13744.62227459,E,4,10,1.0,10.541,M,38.489,M,1.5,0012*70
$GPGGA,064714.55,3439.59674539,N,13744.62226913,E,4,10,1.0,10.538,M,38.489,M,1.5,0012*76
$GPGGA,064714.60,3439.59676259,N,13744.62226501,E,4,10,1.0,10.525,M,38.489,M,1.6,0012*73
$GPGGA,064714.65,3439.59677940,N,13744.62225997,E,4,10,1.0,10.526,M,38.489,M,1.6,0012*77
$GPGGA,064714.70,3439.59679699,N,13744.62225747,E,4,10,1.0,10.533,M,38.489,M,1.7,0012*70
$GPGGA,064714.75,3439.59681244,N,13744.62225720,E,4,10,1.0,10.535,M,38.489,M,0.8,0012*7F
$GPGGA,064714.80,3439.59682858,N,13744.62225801,E,4,10,1.0,10.539,M,38.489,M,0.8,0012*71
$GPGGA,064714.85,3439.59684340,N,13744.62225860,E,4,10,1.0,10.534,M,38.489,M,0.9,0012*7B
$GPGGA,064714.90,3439.59685961,N,13744.62226068,E,4,10,1.0,10.511,M,38.489,M,0.9,0012*73
$GPGGA,064714.95,3439.59687486,N,13744.62226363,E,4,10,1.0,10.507,M,38.489,M,0.9,0012*7F
$GPGGA,064715.00,3439.59689062,N,13744.62226958,E,4,10,1.0,10.486,M,38.489,M,1.0,0012*70
$GPGGA,064715.05,3439.59691029,N,13744.62227504,E,4,10,1.0,10.475,M,38.489,M,1.0,0012*7B
$GPGGA,064715.10,3439.59692721,N,13744.62228238,E,4,10,1.0,10.472,M,38.489,M,1.1,0012*72
$GPGGA,064715.15,3439.59694574,N,13744.62228427,E,4,10,1.0,10.449,M,38.489,M,1.1,0012*73
$GPGGA,064715.20,3439.59696116,N,13744.62228808,E,4,10,1.0,10.455,M,38.489,M,1.2,0012*78
$GPGGA,064715.25,3439.59697706,N,13744.62228985,E,4,10,1.0,10.453,M,38.489,M,1.3,0012*78
$GPGGA,064715.30,3439.59699225,N,13744.62229265,E,4,10,1.0,10.452,M,38.489,M,1.3,0012*73
$GPGGA,064715.35,3439.59700645,N,13744.62229509,E,4,10,1.0,10.453,M,38.489,M,1.4,0012*7E
$GPGGA,064715.40,3439.59702067,N,13744.62229839,E,4,10,1.0,10.449,M,38.489,M,1.4,0012*7D
$GPGGA,064715.45,3439.59703727,N,13744.62230333,E,4,10,1.0,10.448,M,38.489,M,1.5,0012*73
$GPGGA,064715.50,3439.59705325,N,13744.62230742,E,4,10,1.0,10.444,M,38.489,M,1.5,0012*79
$GPGGA,064715.55,3439.59706764,N,13744.62230920,E,4,10,1.0,10.436,M,38.489,M,1.5,0012*71
$GPGGA,064715.60,3439.59708236,N,13744.62231078,E,4,10,1.0,10.419,M,38.489,M,1.6,0012*70
$GPGGA,064715.65,3439.59709687,N,13744.62231043,E,4,10,1.0,10.405,M,38.489,M,1.6,0012*7F
$GPGGA,064715.70,3439.59711465,N,13744.62230974,E,4,10,1.0,10.394,M,38.489,M,1.7,0012*7E
$GPGGA,064715.75,3439.59713242,N,13744.62231154,E,4,10,1.0,10.389,M,38.489,M,1.8,0012*72
$GPGGA,064715.80,3439.59714948,N,13744.62231443,E,4,10,1.0,10.386,M,38.489,M,1.8,0012*72
$GPGGA,064715.85,3439.59716460,N,13744.62231977,E,4,10,1.0,10.391,M,38.489,M,1.9,0012*7F
$GPGGA,064715.90,3439.59717968,N,13744.62232542,E,4,10,1.0,10.391,M,38.489,M,1.9,0012*76
$GPGGA,064715.95,3439.59719561,N,13744.62233077,E,4,10,1.0,10.401,M,38.489,M,2.0,0012*7E
$GPGGA,064716.00,3439.59721187,N,13744.62233709,E,4,10,1.0,10.406,M,38.489,M,2.0,0012*7F
$GPGGA,064716.05,3439.59722904,N,13744.62234561,E,4,10,1.0,10.395,M,38.489,M,1.0,0012*7F
$GPGGA,064716.10,3439.59725095,N,13744.62235555,E,4,10,1.0,10.399,M,38.489,M,1.1,0012*76
$GPGGA,064716.15,3439.59726268,N,13744.62236407,E,4,10,1.0,10.380,M,38.489,M,1.1,0012*7D
$GPGGA,064716.20,3439.59727949,N,13744.62237454,E,4,10,1.0,10.369,M,38.489,M,1.2,0012*71
$GPGGA,064716.25,3439.59729389,N,13744.62238512,E,4,10,1.0,10.359,M,38.489,M,1.3,0012*72
$GPGGA,064716.30,3439.59730896,N,13744.62239631,E,4,10,1.0,10.345,M,38.489,M,1.3,0012*75
$GPGGA,064716.35,3439.59732162,N,13744.62241031,E,4,10,1.0,10.344,M,38.489,M,1.4,0012*7F
$GPGGA,064716.40,3439.59733801,N,13744.62242167,E,4,10,1.0,10.345,M,38.489,M,1.4,0012*70
$GPGGA,064716.45,3439.59735551,N,13744.62243024,E,4,10,1.0,10.340,M,38.489,M,1.5,0012*78
$GPGGA,064716.50,3439.59737213,N,13744.62243463,E,4,10,1.0,10.347,M,38.489,M,1.5,0012*7F
$GPGGA,064716.55,3439.59738464,N,13744.62244020,E,4,10,1.0,10.344,M,38.489,M,1.5,0012*74
$GPGGA,064716.60,3439.59740058,N,13744.62244622,E,4,10,1.0,10.341,M,38.489,M,1.6,0012*74
$GPGGA,064716.65,3439.59741545,N,13744.62245312,E,4,10,1.0,10.337,M,38.489,M,1.6,0012*7F
$GPGGA,064716.70,3439.59743388,N,13744.62245902,E,4,10,1.0,10.323,M,38.489,M,1.7,0012*71
$GPGGA,064716.75,3439.59745172,N,13744.62246633,E,4,10,1.0,10.317,M,38.489,M,1.8,0012*73
$GPGGA,064716.80,3439.59746936,N,13744.62247458,E,4,10,1.0,10.300,M,38.489,M,1.8,0012*7A
$GPGGA,064716.85,3439.59748751,N,13744.62247950,E,4,10,1.0,10.292,M,38.489,M,1.9,0012*70
$GPGGA,064716.90,3439.59750439,N,13744.62248318,E,4,10,1.0,10.281,M,38.489,M,1.9,0012*7B
$GPGGA,064716.95,3439.59752383,N,13744.62248577,E,4,10,1.0,10.269,M,38.489,M,2.0,0012*79
$GPGGA,064717.00,3439.59754518,N,13744.62249325,E,4,10,1.0,10.267,M,38.489,M,2.0,0012*78
$GPGGA,064717.05,3439.59756425,N,13744.62249974,E,4,10,1.0,10.266,M,38.489,M,2.0,0012*7F
$GPGGA,064717.10,3439.59758493,N,13744.62250758,E,4,10,1.0,10.270,M,38.489,M,2.1,0012*76
$GPGGA,064717.15,3439.59760455,N,13744.62251319,E,4,10,1.0,10.268,M,38.489,M,2.2,0012*78
$GPGGA,064717.20,3439.59761883,N,13744.62251729,E,4,10,1.0,10.277,M,38.489,M,1.2,0012*72
$GPGGA,064717.25,3439.59763541,N,13744.62252310,E,4,10,1.0,10.274,M,38.489,M,1.3,0012*79
$GPGGA,064717.30,3439.59765821,N,13744.62253017,E,4,10,1.0,10.267,M,38.489,M,1.3,0012*77
$GPGGA,064717.35,3439.59768062,N,13744.62253800,E,4,10,1.0,10.256,M,38.489,M,1.4,0012*7B
$GPGGA,064717.40,3439.59770025,N,13744.62254666,E,4,10,1.0,10.244,M,38.489,M,1.4,0012*79
$GPGGA,064717.45,3439.59771802,N,13744.62255751,E,4,10,1.0,10.235,M,38.489,M,1.5,0012*73
$GPGGA,064717.50,3439.59773630,N,13744.62256709,E,4,10,1.0,10.221,M,38.489,M,1.5,0012*71
$GPGGA,064717.55,3439.59775870,N,13744.62257111,E,4,10,1.0,10.229,M,38.489,M,1.5,0012*7E
$GPGGA,064717.60,3439.59778544,N,13744.62257716,E,4,10,1.0,10.204,M,38.489,M,1.6,0012*72
$GPGGA,064717.65,3439.59780571,N,13744.62258169,E,4,10,1.0,10.213,M,38.489,M,1.6,0012*71
$GPGGA,064717.70,3439.59782207,N,13744.62258586,E,4,10,1.0,10.228,M,38.489,M,0.7,0012*7C
$GPGGA,064717.75,3439.59784014,N,13744.62258962,E,4,10,1.0,10.229,M,38.489,M,0.8,0012*77
$GPGGA,064717.80,3439.59785892,N,13744.62259488,E,4,10,1.0,10.232,M,38.489,M,0.8,0012*78
$GPGGA,064717.85,3439.59787972,N,13744.62260188,E,4,10,1.0,10.235,M,38.489,M,0.9,0012*79
$GPGGA,064717.90,3439.59790372,N,13744.62260742,E,4,10,1.0,10.220,M,38.489,M,0.9,0012*75
$GPGGA,064717.95,3439.59792294,N,13744.62261206,E,4,10,1.0,10.217,M,38.489,M,0.9,0012*7B
$GPGGA,064718.00,3439.59794708,N,13744.62261628,E,4,10,1.0,10.190,M,38.489,M,1.0,0012*72
$GPGGA,064718.05,3439.59796830,N,13744.62261618,E,4,10,1.0,10.174,M,38.489,M,1.0,0012*78
$GPGGA,064718.10,3439.59798838,N,13744.62261585,E,4,10,1.0,10.194,M,38.489,M,1.1,0012*72
$GPGGA,064718.15,3439.59800717,N,13744.62262276,E,4,10,1.0,10.182,M,38.489,M,1.1,0012*74
$GPGGA,064718.20,3439.59802802,N,13744.62262462,E,4,10,1.0,10.178,M,38.489,M,1.2,0012*7E
$GPGGA,064718.25,3439.59804903,N,13744.62262994,E,4,10,1.0,10.185,M,38.489,M,1.3,0012*7A
$GPGGA,064718.30,3439.59807116,N,13744.62263501,E,4,10,1.0,10.192,M,38.489,M,1.3,0012*76
$GPGGA,064718.35,3439.59808878,N,13744.62264048,E,4,10,1.0,10.198,M,38.489,M,1.4,0012*7F
$GPGGA,064718.40,3439.59810844,N,13744.62264528,E,4,10,1.0,10.200,M,38.489,M,1.4,0012*7A
$GPGGA,064718.45,3439.59812784,N,13744.62265040,E,4,10,1.0,10.187,M,38.489,M,1.5,0012*79
$GPGGA,064718.50,3439.59814858,N,13744.62265667,E,4,10,1.0,10.182,M,38.489,M,1.5,0012*73
$GPGGA,064718.55,3439.59817049,N,13744.62266343,E,4,10,1.0,10.181,M,38.489,M,1.5,0012*7E
$GPGGA,064718.60,3439.59818654,N,13744.62267201,E,4,10,1.0,10.164,M,38.489,M,1.6,0012*73
$GPGGA,064718.65,3439.59820532,N,13744.62268142,E,4,10,1.0,10.148,M,38.489,M,1.6,0012*7B
$GPGGA,064718.70,3439.59822176,N,13744.62269312,E,4,10,1.0,10.129,M,38.489,M,1.7,0012*79
$GPGGA,064718.75,3439.59824214,N,13744.62270399,E,4,10,1.0,10.134,M,38.489,M,1.8,0012*75
$GPGGA,064718.80,3439.59826425,N,13744.62270714,E,4,10,1.0,10.137,M,38.489,M,1.8,0012*7B
$GPGGA,064718.85,3439.59828734,N,13744.62271634,E,4,10,1.0,10.139,M,38.489,M,1.9,0012*7E
$GPGGA,064718.90,3439.59830680,N,13744.62272107,E,4,10,1.0,10.143,M,38.489,M,1.9,0012*74
$GPGGA,064718.95,3439.59832035,N,13744.62272442,E,4,10,1.0,10.148,M,38.489,M,0.9,0012*75
$GPGGA,064719.00,3439.59833637,N,13744.62272799,E,4,10,1.0,10.145,M,38.489,M,1.0,0012*7D
$GPGGA,064719.05,3439.59835276,N,13744.62273161,E,4,10,1.0,10.144,M,38.489,M,1.0,0012*7E
$GPGGA,064719.10,3439.59836913,N,13744.62273476,E,4,10,1.0,10.137,M,38.489,M,1.1,0012*77
$GPGGA,064719.15,3439.59838944,N,13744.62273573,E,4,10,1.0,10.135,M,38.489,M,1.1,0012*78
$GPGGA,064719.20,3439.59841003,N,13744.62273600,E,4,10,1.0,10.127,M,38.489,M,1.2,0012*7D
$GPGGA,064719.25,3439.59843291,N,13744.62273474,E,4,10,1.0,10.122,M,38.489,M,1.3,0012*76
$GPGGA,064719.30,3439.59845032,N,13744.62273512,E,4,10,1.0,10.100,M,38.489,M,1.3,0012*7E
$GPGGA,064719.35,3439.59846638,N,13744.62273456,E,4,10,1.0,10.109,M,38.489,M,1.4,0012*7B
$GPGGA,064719.40,3439.59849394,N,13744.62273334,E,4,10,1.0,10.112,M,38.489,M,1.4,0012*7C
$GPGGA,064719.45,3439.59851414,N,13744.62273440,E,4,10,1.0,10.122,M,38.489,M,1.5,0012*79
$GPGGA,064719.50,3439.59853321,N,13744.62273834,E,4,10,1.0,10.129,M,38.489,M,1.5,0012*7A
$GPGGA,064719.55,3439.59855237,N,13744.62274287,E,4,10,1.0,10.133,M,38.489,M,1.5,0012*71
$GPGGA,064719.60,3439.59856961,N,13744.62274655,E,4,10,1.0,10.133,M,38.489,M,1.6,0012*74
$GPGGA,064719.65,3439.59858686,N,13744.62275037,E,4,10,1.0,10.128,M,38.489,M,1.6,0012*70
$GPGGA,064719.70,3439.59859324,N,13744.62275777,E,4,10,1.0,10.102,M,38.489,M,1.7,0012*72
$GPGGA,064719.75,3439.59861378,N,13744.62276083,E,4,10,1.0,10.101,M,38.489,M,1.8,0012*76
$GPGGA,064719.80,3439.59864688,N,13744.62276141,E,4,10,1.0,10.128,M,38.489,M,1.8,0012*77
$GPGGA,064719.85,3439.59866596,N,13744.62276722,E,4,10,1.0,10.115,M,38.489,M,1.9,0012*70
$GPGGA,064719.90,3439.59867258,N,13744.62277818,E,4,10,1.0,10.075,M,38.489,M,1.9,0012*70
$GPGGA,064719.95,3439.59868881,N,13744.62278651,E,4,10,1.0,10.067,M,38.489,M,2.0,0012*71
$GPGGA,064720.00,3439.59870754,N,13744.62279221,E,4,10,1.0,10.068,M,38.489,M,2.0,0012*74
$GPGGA,064720.05,3439.59872897,N,13744.62279607,E,4,10,1.0,10.071,M,38.489,M,2.0,0012*7B
$GPGGA,064720.10,3439.59874811,N,13744.62279850,E,4,10,1.0,10.077,M,38.489,M,2.1,0012*7C
$GPGGA,064720.15,3439.59876713,N,13744.62280078,E,4,10,1.0,10.081,M,38.489,M,2.2,0012*78
$GPGGA,064720.20,3439.59878527,N,13744.62280401,E,4,10,1.0,10.088,M,38.489,M,2.2,0012*76
$GPGGA,064720.25,3439.59880391,N,13744.62280831,E,4,10,1.0,10.095,M,38.489,M,2.3,0012*7D
$GPGGA,064720.30,3439.59882416,N,13744.62281452,E,4,10,1.0,10.098,M,38.489,M,2.3,0012*76
$GPGGA,064720.35,3439.59883972,N,13744.62281933,E,4,10,1.0,10.087,M,38.489,M,2.3,0012*79
$GPGGA,064720.40,3439.59886371,N,13744.62282317,E,4,10,1.0,10.088,M,38.489,M,2.4,0012*70
$GPGGA,064720.45,3439.59888169,N,13744.62282432,E,4,10,1.0,10.086,M,38.489,M,2.5,0012*7F
$GPGGA,064720.50,3439.59890003,N,13744.62282114,E,4,10,1.0,10.071,M,38.489,M,2.5,0012*76
$GPGGA,064720.55,3439.59891626,N,13744.62281822,E,4,10,1.0,10.052,M,38.489,M,2.5,0012*7D
$GPGGA,064720.60,3439.59893267,N,13744.62282079,E,4,10,1.0,10.060,M,38.489,M,2.6,0012*7F
$GPGGA,064720.65,3439.59895204,N,13744.62282391,E,4,10,1.0,10.068,M,38.489,M,2.7,0012*75
$GPGGA,064720.70,3439.59897095,N,13744.62283025,E,4,10,1.0,10.058,M,38.489,M,2.7,0012*77
$GPGGA,064720.75,3439.59899015,N,13744.62283467,E,4,10,1.0,10.078,M,38.489,M,2.8,0012*7B
$GPGGA,064720.80,3439.59900400,N,13744.62284100,E,4,10,1.0,10.074,M,38.489,M,2.8,0012*7F
$GPGGA,064720.85,3439.59902152,N,13744.62284122,E,4,10,1.0,10.086,M,38.489,M,2.8,0012*77
$GPGGA,064720.90,3439.59904073,N,13744.62284454,E,4,10,1.0,10.085,M,38.489,M,2.9,0012*71
$GPGGA,064720.95,3439.59905909,N,13744.62284800,E,4,10,1.0,10.082,M,38.489,M,3.0,0012*73
$GPGGA,064721.00,3439.59907930,N,13744.62285305,E,4,10,1.0,10.072,M,38.489,M,3.0,0012*76
$GPGGA,064721.05,3439.59910122,N,13744.62286029,E,4,10,1.0,10.066,M,38.489,M,3.0,0012*75
$GPGGA,064721.10,3439.59911858,N,13744.62286950,E,4,10,1.0,10.060,M,38.489,M,3.1,0012*74
$GPGGA,064721.15,3439.59913245,N,13744.62287962,E,4,10,1.0,10.052,M,38.489,M,3.2,0012*77
$GPGGA,064721.20,3439.59915278,N,13744.62288634,E,4,10,1.0,10.060,M,38.489,M,3.2,0012*7B
$GPGGA,064721.25,3439.59917025,N,13744.62289587,E,4,10,1.0,10.062,M,38.489,M,3.3,0012*7F
$GPGGA,064721.30,3439.59918664,N,13744.62289857,E,4,10,1.0,10.075,M,38.489,M,3.3,0012*71
$GPGGA,064721.35,3439.59920432,N,13744.62290040,E,4,10,1.0,10.075,M,38.489,M,3.3,0012*78
$GPGGA,064721.40,3439.59922024,N,13744.62290337,E,4,10,1.0,10.079,M,38.489,M,3.4,0012*73
$GPGGA,064721.45,3439.59923577,N,13744.62290979,E,4,10,1.0,10.083,M,38.489,M,3.5,0012*70
$GPGGA,064721.50,3439.59925115,N,13744.62291840,E,4,10,1.0,10.080,M,38.489,M,3.5,0012*7B
$GPGGA,064721.55,3439.59927160,N,13744.62292568,E,4,10,1.0,10.075,M,38.489,M,3.5,0012*70
$GPGGA,064721.60,3439.59928709,N,13744.62293284,E,4,10,1.0,10.068,M,38.489,M,2.6,0012*7A
$GPGGA,064721.65,3439.59930326,N,13744.62293578,E,4,10,1.0,10.060,M,38.489,M,2.7,0012*72
$GPGGA,064721.70,3439.59931676,N,13744.62293679,E,4,10,1.0,10.053,M,38.489,M,2.7,0012*75
$GPGGA,064721.75,3439.59933537,N,13744.62293933,E,4,10,1.0,10.050,M,38.489,M,2.8,0012*79
$GPGGA,064721.80,3439.59935093,N,13744.62294597,E,4,10,1.0,10.050,M,38.489,M,2.8,0012*7B
$GPGGA,064721.85,3439.59936448,N,13744.62295371,E,4,10,1.0,10.062,M,38.489,M,2.8,0012*71
$GPGGA,064721.90,3439.59937859,N,13744.62296097,E,4,10,1.0,10.071,M,38.489,M,2.9,0012*73
$GPGGA,064721.95,3439.59939388,N,13744.62296757,E,4,10,1.0,10.083,M,38.489,M,3.0,0012*71
$GPGGA,064722.00,3439.59940768,N,13744.62297374,E,4,10,1.0,10.088,M,38.489,M,3.0,0012*75
$GPGGA,064722.05,3439.59942733,N,13744.62297787,E,4,10,1.0,10.096,M,38.489,M,2.0,0012*7A
$GPGGA,064722.10,3439.59944306,N,13744.62298752,E,4,10,1.0,10.097,M,38.489,M,2.1,0012*7D
$GPGGA,064722.15,3439.59945958,N,13744.62299551,E,4,10,1.0,10.097,M,38.489,M,2.2,0012*7B
$GPGGA,064722.20,3439.59947187,N,13744.62300522,E,4,10,1.0,10.092,M,38.489,M,2.2,0012*75
$GPGGA,064722.25,3439.59948322,N,13744.62301668,E,4,10,1.0,10.089,M,38.489,M,2.3,0012*75
$GPGGA,064722.30,3439.59949442,N,13744.62302674,E,4,10,1.0,10.082,M,38.489,M,2.3,0012*74
$GPGGA,064722.35,3439.59950656,N,13744.62303922,E,4,10,1.0,10.078,M,38.489,M,2.3,0012*76
$GPGGA,064722.40,3439.59951963,N,13744.62305221,E,4,10,1.0,10.083,M,38.489,M,2.4,0012*71
$GPGGA,064722.45,3439.59953247,N,13744.62306091,E,4,10,1.0,10.088,M,38.489,M,2.5,0012*7B
$GPGGA,064722.50,3439.59954235,N,13744.62306776,E,4,10,1.0,10.089,M,38.489,M,2.5,0012*72
$GPGGA,064722.55,3439.59955411,N,13744.62307396,E,4,10,1.0,10.093,M,38.489,M,2.5,0012*76
$GPGGA,064722.60,3439.59956805,N,13744.62308036,E,4,10,1.0,10.102,M,38.489,M,2.6,0012*76
$GPGGA,064722.65,3439.59957912,N,13744.62308671,E,4,10,1.0,10.108,M,38.489,M,2.7,0012*7B
$GPGGA,064722.70,3439.59958845,N,13744.62309535,E,4,10,1.0,10.107,M,38.489,M,2.7,0012*7E
$GPGGA,064722.75,3439.59960110,N,13744.62310414,E,4,10,1.0,10.111,M,38.489,M,2.8,0012*7B
$GPGGA,064722.80,3439.59961521,N,13744.62311369,E,4,10,1.0,10.116,M,38.489,M,2.8,0012*7D
$GPGGA,064722.85,3439.59962947,N,13744.62312137,E,4,10,1.0,10.116,M,38.489,M,2.8,0012*7D
$GPGGA,064722.90,3439.59964307,N,13744.62312652,E,4,10,1.0,10.102,M,38.489,M,2.9,0012*71
$GPGGA,064722.95,3439.59965698,N,13744.62313026,E,4,10,1.0,10.096,M,38.489,M,3.0,0012*76
$GPGGA,064723.00,3439.59967201,N,13744.62313619,E,4,10,1.0,10.109,M,38.489,M,3.0,0012*70
$GPGGA,064723.05,3439.59968330,N,13744.62314278,E,4,10,1.0,10.109,M,38.489,M,3.0,0012*7D
$GPGGA,064723.10,3439.59969662,N,13744.62314992,E,4,10,1.0,10.119,M,38.489,M,3.1,0012*75
$GPGGA,064723.15,3439.59970901,N,13744.62315766,E,4,10,1.0,10.123,M,38.489,M,3.2,0012*7C
$GPGGA,064723.20,3439.59972028,N,13744.62316308,E,4,10,1.0,10.128,M,38.489,M,3.2,0012*7E
$GPGGA,064723.25,3439.59973163,N,13744.62316695,E,4,10,1.0,10.141,M,38.489,M,2.3,0012*7A
$GPGGA,064723.30,3439.59973998,N,13744.62317387,E,4,10,1.0,10.144,M,38.489,M,2.3,0012*70
$GPGGA,064723.35,3439.59974784,N,13744.62317967,E,4,10,1.0,10.144,M,38.489,M,2.3,0012*75
$GPGGA,064723.40,3439.59975875,N,13744.62318484,E,4,10,1.0,10.139,M,38.489,M,2.4,0012*75
$GPGGA,064723.45,3439.59976652,N,13744.62319249,E,4,10,1.0,10.139,M,38.489,M,2.5,0012*7F
$GPGGA,064723.50,3439.59977314,N,13744.62320068,E,4,10,1.0,10.138,M,38.489,M,2.5,0012*77
$GPGGA,064723.55,3439.59977857,N,13744.62321072,E,4,10,1.0,10.138,M,38.489,M,2.5,0012*74
$GPGGA,064723.60,3439.59978092,N,13744.62322034,E,4,10,1.0,10.145,M,38.489,M,2.6,0012*74
$GPGGA,064723.65,3439.59978378,N,13744.62323063,E,4,10,1.0,10.143,M,38.489,M,2.7,0012*72
$GPGGA,064723.70,3439.59978750,N,13744.62324074,E,4,10,1.0,10.139,M,38.489,M,2.7,0012*74
$GPGGA,064723.75,3439.59979069,N,13744.62325129,E,4,10,1.0,10.141,M,38.489,M,2.8,0012*75
$GPGGA,064723.80,3439.59979646,N,13744.62326028,E,4,10,1.0,10.146,M,38.489,M,2.8,0012*70
$GPGGA,064723.85,3439.59980272,N,13744.62326686,E,4,10,1.0,10.141,M,38.489,M,2.8,0012*75
$GPGGA,064723.90,3439.59980607,N,13744.62327451,E,4,10,1.0,10.145,M,38.489,M,2.9,0012*7B
$GPGGA,064723.95,3439.59980602,N,13744.62328039,E,4,10,1.0,10.151,M,38.489,M,3.0,0012*73
$GPGGA,064724.00,3439.59980448,N,13744.62328907,E,4,10,1.0,10.151,M,38.489,M,3.0,0012*70
$GPGGA,064724.05,3439.59980748,N,13744.62329388,E,4,10,1.0,10.159,M,38.489,M,3.0,0012*72
$GPGGA,064724.10,3439.59980857,N,13744.62329782,E,4,10,1.0,10.162,M,38.489,M,3.1,0012*70
$GPGGA,064724.15,3439.59980877,N,13744.62330037,E,4,10,1.0,10.164,M,38.489,M,3.2,0012*73
$GPGGA,064724.20,3439.59980786,N,13744.62330094,E,4,10,1.0,10.164,M,38.489,M,3.2,0012*7D
$GPGGA,064724.25,3439.59980944,N,13744.62329983,E,4,10,1.0,10.162,M,38.489,M,3.3,0012*78
$GPGGA,064724.30,3439.59981113,N,13744.62329799,E,4,10,1.0,10.158,M,38.489,M,3.3,0012*7B
$GPGGA,064724.35,3439.59981166,N,13744.62329602,E,4,10,1.0,10.157,M,38.489,M,3.3,0012*70
$GPGGA,064724.40,3439.59981142,N,13744.62329324,E,4,10,1.0,10.152,M,38.489,M,3.4,0012*77
$GPGGA,064724.45,3439.59980716,N,13744.62329032,E,4,10,1.0,10.130,M,38.489,M,2.5,0012*74
$GPGGA,064724.50,3439.59980963,N,13744.62328803,E,4,10,1.0,10.139,M,38.489,M,2.5,0012*7E
$GPGGA,064724.55,3439.59981021,N,13744.62328520,E,4,10,1.0,10.138,M,38.489,M,2.5,0012*78
$GPGGA,064724.60,3439.59981033,N,13744.62328365,E,4,10,1.0,10.135,M,38.489,M,2.6,0012*74
$GPGGA,064724.65,3439.59981062,N,13744.62328320,E,4,10,1.0,10.137,M,38.489,M,2.7,0012*77
$GPGGA,064724.70,3439.59981133,N,13744.62328167,E,4,10,1.0,10.142,M,38.489,M,2.7,0012*75
$GPGGA,064724.75,3439.59981298,N,13744.62327969,E,4,10,1.0,10.141,M,38.489,M,2.8,0012*77
$GPGGA,064724.80,3439.59981386,N,13744.62327881,E,4,10,1.0,10.138,M,38.489,M,2.8,0012*7A
$GPGGA,064724.85,3439.59981502,N,13744.62327749,E,4,10,1.0,10.133,M,38.489,M,1.9,0012*77
$GPGGA,064724.90,3439.59981963,N,13744.62327655,E,4,10,1.0,10.134,M,38.489,M,0.9,0012*72
$GPGGA,064724.95,3439.59981973,N,13744.62327522,E,4,10,1.0,10.134,M,38.489,M,0.9,0012*75
$GPGGA,064725.00,3439.59982029,N,13744.62327451,E,4,10,1.0,10.134,M,38.489,M,1.0,0012*70
$GPGGA,064725.05,3439.59981975,N,13744.62327409,E,4,10,1.0,10.132,M,38.489,M,1.0,0012*7D
$GPGGA,064725.10,3439.59981944,N,13744.62327406,E,4,10,1.0,10.132,M,38.489,M,1.1,0012*75
$GPGGA,064725.15,3439.59981798,N,13744.62327255,E,4,10,1.0,10.137,M,38.489,M,1.1,0012*7A
$GPGGA,064725.20,3439.59981854,N,13744.62327390,E,4,10,1.0,10.138,M,38.489,M,1.2,0012*77
$GPGGA,064725.25,3439.59981888,N,13744.62327462,E,4,10,1.0,10.135,M,38.489,M,1.3,0012*75
$GPGGA,064725.30,3439.59981883,N,13744.62327519,E,4,10,1.0,10.136,M,38.489,M,1.3,0012*74
$GPGGA,064725.35,3439.59981943,N,13744.62327493,E,4,10,1.0,10.130,M,38.489,M,1.4,0012*7E
$GPGGA,064725.40,3439.59981876,N,13744.62327601,E,4,10,1.0,10.135,M,38.489,M,1.4,0012*77
$GPGGA,064725.45,3439.59981835,N,13744.62327711,E,4,10,1.0,10.134,M,38.489,M,1.5,0012*75
$GPGGA,064725.50,3439.59981862,N,13744.62327748,E,4,10,1.0,10.134,M,38.489,M,1.5,0012*7F
$GPGGA,064725.55,3439.59981907,N,13744.62327631,E,4,10,1.0,10.134,M,38.489,M,1.5,0012*77
$GPGGA,064725.60,3439.59981949,N,13744.62327598,E,4,10,1.0,10.132,M,38.489,M,1.6,0012*7E
$GPGGA,064725.65,3439.59982047,N,13744.62327552,E,4,10,1.0,10.133,M,38.489,M,1.6,0012*78
$GPGGA,064725.70,3439.59982020,N,13744.62327720,E,4,10,1.0,10.136,M,38.489,M,1.7,0012*7E
$GPGGA,064725.75,3439.59982105,N,13744.62327811,E,4,10,1.0,10.139,M,38.489,M,1.8,0012*70
$GPGGA,064725.80,3439.59982198,N,13744.62327743,E,4,10,1.0,10.137,M,38.489,M,1.8,0012*78
$GPGGA,064725.85,3439.59982361,N,13744.62327578,E,4,10,1.0,10.136,M,38.489,M,1.9,0012*73
$GPGGA,064725.90,3439.59982701,N,13744.62327485,E,4,10,1.0,10.136,M,38.489,M,1.9,0012*76
$GPGGA,064725.95,3439.59982861,N,13744.62327441,E,4,10,1.0,10.136,M,38.489,M,2.0,0012*78
$GPGGA,064726.00,3439.59982902,N,13744.62327497,E,4,10,1.0,10.136,M,38.489,M,2.0,0012*78
$GPGGA,064726.05,3439.59982631,N,13744.62327566,E,4,10,1.0,10.140,M,38.489,M,1.0,0012*7F
$GPGGA,064726.10,3439.59982499,N,13744.62327586,E,4,10,1.0,10.140,M,38.489,M,1.1,0012*74
$GPGGA,064726.15,3439.59982546,N,13744.62327660,E,4,10,1.0,10.139,M,38.489,M,1.1,0012*77
$GPGGA,064726.20,3439.59982591,N,13744.62327880,E,4,10,1.0,10.141,M,38.489,M,1.2,0012*77
$GPGGA,064726.25,3439.59982619,N,13744.62327994,E,4,10,1.0,10.140,M,38.489,M,1.3,0012*75
$GPGGA,064726.30,3439.59982793,N,13744.62328005,E,4,10,1.0,10.136,M,38.489,M,1.3,0012*7D
$GPGGA,064726.35,3439.59982750,N,13744.62328115,E,4,10,1.0,10.140,M,38.489,M,1.4,0012*71
$GPGGA,064726.40,3439.59982726,N,13744.62328299,E,4,10,1.0,10.138,M,38.489,M,1.4,0012*7A
$GPGGA,064726.45,3439.59982681,N,13744.62328438,E,4,10,1.0,10.141,M,38.489,M,1.5,0012*71
$GPGGA,064726.50,3439.59982928,N,13744.62328434,E,4,10,1.0,10.146,M,38.489,M,1.5,0012*72
$GPGGA,064726.55,3439.59982942,N,13744.62328525,E,4,10,1.0,10.142,M,38.489,M,1.5,0012*7E
$GPGGA,064726.60,3439.59982907,N,13744.62328612,E,4,10,1.0,10.143,M,38.489,M,1.6,0012*7C
$GPGGA,064726.65,3439.59982983,N,13744.62328680,E,4,10,1.0,10.142,M,38.489,M,1.6,0012*7F
$GPGGA,064726.70,3439.59983064,N,13744.62328896,E,4,10,1.0,10.139,M,38.489,M,1.7,0012*7E
$GPGGA,064726.75,3439.59982993,N,13744.62329003,E,4,10,1.0,10.139,M,38.489,M,1.8,0012*71
$GPGGA,064726.80,3439.59982910,N,13744.62328903,E,4,10,1.0,10.139,M,38.489,M,1.8,0012*78
$GPGGA,064726.85,3439.59982967,N,13744.62328923,E,4,10,1.0,10.140,M,38.489,M,0.9,0012*71
$GPGGA,064726.90,3439.59982914,N,13744.62329018,E,4,10,1.0,10.140,M,38.489,M,0.9,0012*71
$GPGGA,064726.95,3439.59982931,N,13744.62328940,E,4,10,1.0,10.139,M,38.489,M,0.9,0012*78
$GPGGA,064727.00,3439.59983062,N,13744.62328853,E,4,10,1.0,10.142,M,38.489,M,1.0,0012*7C
$GPGGA,064727.05,3439.59982982,N,13744.62328709,E,4,10,1.0,10.137,M,38.489,M,1.0,0012*7D
$GPGGA,064727.10,3439.59982852,N,13744.62328717,E,4,10,1.0,10.139,M,38.489,M,1.1,0012*75
$GPGGA,064727.15,3439.59982755,N,13744.62328705,E,4,10,1.0,10.138,M,38.489,M,1.1,0012*7A
$GPGGA,064727.20,3439.59982821,N,13744.62328657,E,4,10,1.0,10.137,M,38.489,M,1.2,0012*7A
$GPGGA,064727.25,3439.59982854,N,13744.62328598,E,4,10,1.0,10.138,M,38.489,M,1.3,0012*73
$GPGGA,064727.30,3439.59983068,N,13744.62328482,E,4,10,1.0,10.138,M,38.489,M,1.3,0012*7B
$GPGGA,064727.35,3439.59983007,N,13744.62328603,E,4,10,1.0,10.137,M,38.489,M,1.4,0012*74
$GPGGA,064727.40,3439.59982824,N,13744.62328524,E,4,10,1.0,10.136,M,38.489,M,1.4,0012*79
$GPGGA,064727.45,3439.59982805,N,13744.62328381,E,4,10,1.0,10.136,M,38.489,M,1.5,0012*77
$GPGGA,064727.50,3439.59982932,N,13744.62328214,E,4,10,1.0,10.139,M,38.489,M,1.5,0012*74
$GPGGA,064727.55,3439.59982858,N,13744.62328242,E,4,10,1.0,10.138,M,38.489,M,1.5,0012*7E
$GPGGA,064727.60,3439.59982796,N,13744.62328345,E,4,10,1.0,10.138,M,38.489,M,1.6,0012*70
$GPGGA,064727.65,3439.59982817,N,13744.62328293,E,4,10,1.0,10.137,M,38.489,M,1.6,0012*76
$GPGGA,064727.70,3439.59983075,N,13744.62328046,E,4,10,1.0,10.135,M,38.489,M,1.7,0012*76
$GPGGA,064727.75,3439.59982980,N,13744.62328103,E,4,10,1.0,10.132,M,38.489,M,0.8,0012*78
$GPGGA,064727.80,3439.59982936,N,13744.62328189,E,4,10,1.0,10.134,M,38.489,M,0.8,0012*7B
$GPGGA,064727.85,3439.59983000,N,13744.62328132,E,4,10,1.0,10.129,M,38.489,M,0.9,0012*7E
$GPGGA,064727.90,3439.59983032,N,13744.62328068,E,4,10,1.0,10.135,M,38.489,M,0.9,0012*78
$GPGGA,064727.95,3439.59983085,N,13744.62327965,E,4,10,1.0,10.137,M,38.489,M,0.9,0012*78
$GPGGA,064728.00,3439.59983145,N,13744.62327798,E,4,10,1.0,10.135,M,38.489,M,1.0,0012*70
$GPGGA,064728.05,3439.59983083,N,13744.62327795,E,4,10,1.0,10.135,M,38.489,M,1.0,0012*73
$GPGGA,064728.10,3439.59983125,N,13744.62327793,E,4,10,1.0,10.132,M,38.489,M,1.1,0012*7A
$GPGGA,064728.15,3439.59983180,N,13744.62327804,E,4,10,1.0,10.133,M,38.489,M,1.1,0012*70
$GPGGA,064728.20,3439.59983225,N,13744.62327810,E,4,10,1.0,10.134,M,38.489,M,1.2,0012*7B
$GPGGA,064728.25,3439.59983155,N,13744.62327899,E,4,10,1.0,10.135,M,38.489,M,1.3,0012*7B
$GPGGA,064728.30,3439.59983181,N,13744.62327911,E,4,10,1.0,10.135,M,38.489,M,1.3,0012*77
$GPGGA,064728.35,3439.59983183,N,13744.62327796,E,4,10,1.0,10.131,M,38.489,M,1.4,0012*72
$GPGGA,064728.40,3439.59983275,N,13744.62327902,E,4,10,1.0,10.133,M,38.489,M,1.4,0012*7B
$GPGGA,064728.45,3439.59983158,N,13744.62328047,E,4,10,1.0,10.136,M,38.489,M,1.5,0012*71
$GPGGA,064728.50,3439.59983056,N,13744.62328218,E,4,10,1.0,10.133,M,38.489,M,1.5,0012*77
$GPGGA,064728.55,3439.59982975,N,13744.62328206,E,4,10,1.0,10.134,M,38.489,M,1.5,0012*73
$GPGGA,064728.60,3439.59983031,N,13744.62328335,E,4,10,1.0,10.135,M,38.489,M,1.6,0012*7E
$GPGGA,064728.65,3439.59983170,N,13744.62328380,E,4,10,1.0,10.133,M,38.489,M,1.6,0012*77
$GPGGA,064728.70,3439.59983127,N,13744.62328406,E,4,10,1.0,10.133,M,38.489,M,0.7,0012*78
$GPGGA,064728.75,3439.59983102,N,13744.62328552,E,4,10,1.0,10.133,M,38.489,M,0.8,0012*75
$GPGGA,064728.80,3439.59983157,N,13744.62328611,E,4,10,1.0,10.138,M,38.489,M,0.8,0012*70
$GPGGA,064728.85,3439.59983235,N,13744.62328672,E,4,10,1.0,10.138,M,38.489,M,0.9,0012*76
$GPGGA,064728.90,3439.59983167,N,13744.62328728,E,4,10,1.0,10.137,M,38.489,M,0.9,0012*77
$GPGGA,064728.95,3439.59983225,N,13744.62329020,E,4,10,1.0,10.136,M,38.489,M,0.9,0012*78
$GPGGA,064729.00,3439.59983269,N,13744.62329069,E,4,10,1.0,10.131,M,38.489,M,1.0,0012*7F
$GPGGA,064729.05,3439.59983273,N,13744.62329133,E,4,10,1.0,10.132,M,38.489,M,1.0,0012*7C
$GPGGA,064729.10,3439.59983213,N,13744.62329177,E,4,10,1.0,10.138,M,38.489,M,1.1,0012*75
$GPGGA,064729.15,3439.59983225,N,13744.62329131,E,4,10,1.0,10.135,M,38.489,M,1.1,0012*7A
$GPGGA,064729.20,3439.59983245,N,13744.62329292,E,4,10,1.0,10.138,M,38.489,M,1.2,0012*7E
$GPGGA,064729.25,3439.59983167,N,13744.62329232,E,4,10,1.0,10.140,M,38.489,M,1.3,0012*7C
$GPGGA,064729.30,3439.59983268,N,13744.62329012,E,4,10,1.0,10.140,M,38.489,M,1.3,0012*74
$GPGGA,064729.35,3439.59983380,N,13744.62328913,E,4,10,1.0,10.132,M,38.489,M,1.4,0012*7D
$GPGGA,064729.40,3439.59983265,N,13744.62328968,E,4,10,1.0,10.133,M,38.489,M,1.4,0012*78
$GPGGA,064729.45,3439.59983193,N,13744.62328884,E,4,10,1.0,10.135,M,38.489,M,1.5,0012*73
$GPGGA,064729.50,3439.59983212,N,13744.62328770,E,4,10,1.0,10.136,M,38.489,M,1.5,0012*7A
$GPGGA,064729.55,3439.59983248,N,13744.62328699,E,4,10,1.0,10.136,M,38.489,M,1.5,0012*76
$GPGGA,064729.60,3439.59983278,N,13744.62328555,E,4,10,1.0,10.137,M,38.489,M,1.6,0012*72
$GPGGA,064729.65,3439.59983358,N,13744.62328591,E,4,10,1.0,10.135,M,38.489,M,1.6,0012*7E
$GPGGA,064729.70,3439.59983360,N,13744.62328567,E,4,10,1.0,10.133,M,38.489,M,0.7,0012*7E
$GPGGA,064729.75,3439.59983349,N,13744.62328468,E,4,10,1.0,10.135,M,38.489,M,0.8,0012*77
$GPGGA,064729.80,3439.59983310,N,13744.62328346,E,4,10,1.0,10.134,M,38.489,M,0.8,0012*7B
$GPGGA,064729.85,3439.59983323,N,13744.62328237,E,4,10,1.0,10.132,M,38.489,M,0.9,0012*7E
$GPGGA,064729.90,3439.59983341,N,13744.62328193,E,4,10,1.0,10.133,M,38.489,M,0.9,0012*72
$GPGGA,064729.95,3439.59983391,N,13744.62328160,E,4,10,1.0,10.134,M,38.489,M,0.9,0012*71
$GPGGA,064730.00,3439.59983363,N,13744.62328046,E,4,10,1.0,10.133,M,38.489,M,1.0,0012*72
$GPGGA,064730.05,3439.59983440,N,13744.62327939,E,4,10,1.0,10.133,M,38.489,M,1.0,0012*7F
$GPGGA,064730.10,3439.59983401,N,13744.62327809,E,4,10,1.0,10.132,M,38.489,M,1.1,0012*7C
$GPGGA,064730.15,3439.59983457,N,13744.62327774,E,4,10,1.0,10.132,M,38.489,M,1.1,0012*7F
$GPGGA,064730.20,3439.59983424,N,13744.62327694,E,4,10,1.0,10.137,M,38.489,M,1.2,0012*74
$GPGGA,064730.25,3439.59983358,N,13744.62327611,E,4,10,1.0,10.134,M,38.489,M,1.3,0012*72
$GPGGA,064730.30,3439.59983253,N,13744.62327532,E,4,10,1.0,10.134,M,38.489,M,1.3,0012*7E
$GPGGA,064730.35,3439.59983332,N,13744.62327478,E,4,10,1.0,10.134,M,38.489,M,1.4,0012*75
$GPGGA,064730.40,3439.59983453,N,13744.62327370,E,4,10,1.0,10.133,M,38.489,M,1.4,0012*7F
$GPGGA,064730.45,3439.59983435,N,13744.62327250,E,4,10,1.0,10.134,M,38.489,M,1.5,0012*7F
$GPGGA,064730.50,3439.59983412,N,13744.62327204,E,4,10,1.0,10.134,M,38.489,M,1.5,0012*7F
$GPGGA,064730.55,3439.59983414,N,13744.62327168,E,4,10,1.0,10.131,M,38.489,M,1.5,0012*70
$GPGGA,064730.60,3439.59983410,N,13744.62327192,E,4,10,1.0,10.131,M,38.489,M,1.6,0012*74
$GPGGA,064730.65,3439.59983510,N,13744.62327230,E,4,10,1.0,10.132,M,38.489,M,1.6,0012*78
$GPGGA,064730.70,3439.59983498,N,13744.62327238,E,4,10,1.0,10.136,M,38.489,M,1.7,0012*70
$GPGGA,064730.75,3439.59983494,N,13744.62327258,E,4,10,1.0,10.134,M,38.489,M,0.8,0012*73
$GPGGA,064730.80,3439.59983501,N,13744.62327177,E,4,10,1.0,10.130,M,38.489,M,0.8,0012*7E
$GPGGA,064730.85,3439.59983548,N,13744.62327185,E,4,10,1.0,10.132,M,38.489,M,0.9,0012*78
$GPGGA,064730.90,3439.59983605,N,13744.62327210,E,4,10,1.0,10.129,M,38.489,M,0.9,0012*73
$GPGGA,064730.95,3439.59983604,N,13744.62327168,E,4,10,1.0,10.130,M,38.489,M,0.9,0012*73
$GPGGA,064731.00,3439.59983515,N,13744.62327323,E,4,10,1.0,10.131,M,38.489,M,1.0,0012*79
$GPGGA,064731.05,3439.59983563,N,13744.62327383,E,4,10,1.0,10.128,M,38.489,M,1.0,0012*7F
$GPGGA,064731.10,3439.59983632,N,13744.62327455,E,4,10,1.0,10.134,M,38.489,M,1.1,0012*7C
$GPGGA,064731.15,3439.59983641,N,13744.62327550,E,4,10,1.0,10.138,M,38.489,M,1.1,0012*75
$GPGGA,064731.20,3439.59983711,N,13744.62327605,E,4,10,1.0,10.136,M,38.489,M,1.2,0012*79
$GPGGA,064731.25,3439.59983698,N,13744.62327621,E,4,10,1.0,10.133,M,38.489,M,1.3,0012*7E
$GPGGA,064731.30,3439.59983720,N,13744.62327751,E,4,10,1.0,10.131,M,38.489,M,1.3,0012*7C
$GPGGA,064731.35,3439.59983647,N,13744.62327859,E,4,10,1.0,10.131,M,38.489,M,1.4,0012*79
$GPGGA,064731.40,3439.59983628,N,13744.62327777,E,4,10,1.0,10.133,M,38.489,M,1.4,0012*73
$GPGGA,064731.45,3439.59983480,N,13744.62327808,E,4,10,1.0,10.138,M,38.489,M,1.5,0012*7B
$GPGGA,064731.50,3439.59983509,N,13744.62327861,E,4,10,1.0,10.133,M,38.489,M,1.5,0012*7B
$GPGGA,064731.55,3439.59983571,N,13744.62327951,E,4,10,1.0,10.130,M,38.489,M,1.5,0012*70
$GPGGA,064731.60,3439.59983539,N,13744.62328111,E,4,10,1.0,10.128,M,38.489,M,1.6,0012*73
$GPGGA,064731.65,3439.59983543,N,13744.62328151,E,4,10,1.0,10.131,M,38.489,M,1.6,0012*77
$GPGGA,064731.70,3439.59983660,N,13744.62328170,E,4,10,1.0,10.133,M,38.489,M,1.7,0012*71
$GPGGA,064731.75,3439.59983635,N,13744.62328180,E,4,10,1.0,10.134,M,38.489,M,1.8,0012*73
$GPGGA,064731.80,3439.59983500,N,13744.62328176,E,4,10,1.0,10.132,M,38.489,M,1.8,0012*73
$GPGGA,064731.85,3439.59983544,N,13744.62328299,E,4,10,1.0,10.135,M,38.489,M,1.9,0012*72
$GPGGA,064731.90,3439.59983612,N,13744.62328370,E,4,10,1.0,10.136,M,38.489,M,1.9,0012*73
$GPGGA,064731.95,3439.59983697,N,13744.62328359,E,4,10,1.0,10.132,M,38.489,M,0.9,0012*75
$GPGGA,064732.00,3439.59983724,N,13744.62328410,E,4,10,1.0,10.131,M,38.489,M,1.0,0012*72
$GPGGA,064732.05,3439.59983710,N,13744.62328572,E,4,10,1.0,10.134,M,38.489,M,1.0,0012*70
$GPGGA,064732.10,3439.59983655,N,13744.62328827,E,4,10,1.0,10.135,M,38.489,M,1.1,0012*79
$GPGGA,064732.15,3439.59983696,N,13744.62328873,E,4,10,1.0,10.137,M,38.489,M,1.1,0012*70
$GPGGA,064732.20,3439.59983806,N,13744.62328886,E,4,10,1.0,10.138,M,38.489,M,1.2,0012*77
$GPGGA,064732.25,3439.59983886,N,13744.62328924,E,4,10,1.0,10.138,M,38.489,M,1.3,0012*72
$GPGGA,064732.30,3439.59983949,N,13744.62329048,E,4,10,1.0,10.135,M,38.489,M,1.3,0012*7B
$GPGGA,064732.35,3439.59983950,N,13744.62329116,E,4,10,1.0,10.138,M,38.489,M,1.4,0012*76
$GPGGA,064732.40,3439.59983955,N,13744.62329148,E,4,10,1.0,10.138,M,38.489,M,1.4,0012*7A
$GPGGA,064732.45,3439.59983995,N,13744.62329258,E,4,10,1.0,10.139,M,38.489,M,1.5,0012*71
$GPGGA,064732.50,3439.59984018,N,13744.62329304,E,4,10,1.0,10.140,M,38.489,M,1.5,0012*78
$GPGGA,064732.55,3439.59983918,N,13744.62329392,E,4,10,1.0,10.140,M,38.489,M,1.5,0012*7C
$GPGGA,064732.60,3439.59983954,N,13744.62329381,E,4,10,1.0,10.139,M,38.489,M,1.6,0012*7D
$GPGGA,064732.65,3439.59983951,N,13744.62329131,E,4,10,1.0,10.142,M,38.489,M,1.6,0012*78
$GPGGA,064732.70,3439.59983989,N,13744.62328998,E,4,10,1.0,10.139,M,38.489,M,1.7,0012*7E
$GPGGA,064732.75,3439.59983874,N,13744.62328896,E,4,10,1.0,10.137,M,38.489,M,1.8,0012*76
$GPGGA,064732.80,3439.59983695,N,13744.62328899,E,4,10,1.0,10.141,M,38.489,M,1.8,0012*73
$GPGGA,064732.85,3439.59983776,N,13744.62328819,E,4,10,1.0,10.141,M,38.489,M,1.9,0012*73
$GPGGA,064732.90,3439.59983805,N,13744.62328503,E,4,10,1.0,10.134,M,38.489,M,0.9,0012*79
$GPGGA,064732.95,3439.59983796,N,13744.62328277,E,4,10,1.0,10.131,M,38.489,M,0.9,0012*78
$GPGGA,064733.00,3439.59983750,N,13744.62328181,E,4,10,1.0,10.130,M,38.489,M,1.0,0012*7C
$GPGGA,064733.05,3439.59983560,N,13744.62327984,E,4,10,1.0,10.127,M,38.489,M,1.0,0012*7C
$GPGGA,064733.10,3439.59983541,N,13744.62328007,E,4,10,1.0,10.126,M,38.489,M,1.1,0012*76
$GPGGA,064733.15,3439.59983563,N,13744.62328125,E,4,10,1.0,10.129,M,38.489,M,1.1,0012*7D
$GPGGA,064733.20,3439.59983538,N,13744.62328168,E,4,10,1.0,10.133,M,38.489,M,1.2,0012*74
$GPGGA,064733.25,3439.59983529,N,13744.62328078,E,4,10,1.0,10.132,M,38.489,M,1.3,0012*71
$GPGGA,064733.30,3439.59983659,N,13744.62328004,E,4,10,1.0,10.130,M,38.489,M,1.3,0012*78
$GPGGA,064733.35,3439.59983663,N,13744.62328010,E,4,10,1.0,10.131,M,38.489,M,1.4,0012*77
$GPGGA,064733.40,3439.59983563,N,13744.62328088,E,4,10,1.0,10.134,M,38.489,M,1.4,0012*72
$GPGGA,064733.45,3439.59983577,N,13744.62328058,E,4,10,1.0,10.133,M,38.489,M,1.5,0012*79
$GPGGA,064733.50,3439.59983793,N,13744.62327726,E,4,10,1.0,10.132,M,38.489,M,1.5,0012*75
$GPGGA,064733.55,3439.59983900,N,13744.62327468,E,4,10,1.0,10.130,M,38.489,M,1.5,0012*7F
$GPGGA,064733.60,3439.59983951,N,13744.62327269,E,4,10,1.0,10.133,M,38.489,M,1.6,0012*7A
$GPGGA,064733.65,3439.59984055,N,13744.62326879,E,4,10,1.0,10.134,M,38.489,M,1.6,0012*78
$GPGGA,064733.70,3439.59984348,N,13744.62326321,E,4,10,1.0,10.131,M,38.489,M,1.7,0012*71
$GPGGA,064733.75,3439.59984613,N,13744.62325731,E,4,10,1.0,10.125,M,38.489,M,1.8,0012*73
$GPGGA,064733.80,3439.59984953,N,13744.62324946,E,4,10,1.0,10.124,M,38.489,M,1.8,0012*7C
$GPGGA,064733.85,3439.59984350,N,13744.62324767,E,4,10,1.0,10.124,M,38.489,M,1.9,0012*7C
$GPGGA,064733.90,3439.59984643,N,13744.62324750,E,4,10,1.0,10.116,M,38.489,M,1.9,0012*7A
$GPGGA,064733.95,3439.59983603,N,13744.62324347,E,4,10,1.0,10.126,M,38.489,M,2.0,0012*77
$GPGGA,064734.00,3439.59983322,N,13744.62324582,E,4,10,1.0,10.137,M,38.489,M,2.0,0012*75
$GPGGA,064734.05,3439.59983478,N,13744.62323879,E,4,10,1.0,10.134,M,38.489,M,2.0,0012*75
$GPGGA,064734.10,3439.59983356,N,13744.62323089,E,4,10,1.0,10.129,M,38.489,M,2.1,0012*70
$GPGGA,064734.15,3439.59983073,N,13744.62322290,E,4,10,1.0,10.121,M,38.489,M,2.2,0012*71
$GPGGA,064734.20,3439.59982471,N,13744.62321661,E,4,10,1.0,10.109,M,38.489,M,2.2,0012*73
$GPGGA,064734.25,3439.59981645,N,13744.62320948,E,4,10,1.0,10.088,M,38.489,M,2.3,0012*7C
$GPGGA,064734.30,3439.59981677,N,13744.62320657,E,4,10,1.0,10.096,M,38.489,M,2.3,0012*77
$GPGGA,064734.35,3439.59981093,N,13744.62320114,E,4,10,1.0,10.090,M,38.489,M,2.3,0012*78
$GPGGA,064734.40,3439.59980624,N,13744.62319794,E,4,10,1.0,10.091,M,38.489,M,2.4,0012*73
$GPGGA,064734.45,3439.59979762,N,13744.62319384,E,4,10,1.0,10.091,M,38.489,M,1.5,0012*74
$GPGGA,064734.50,3439.59978966,N,13744.62319065,E,4,10,1.0,10.090,M,38.489,M,1.5,0012*76
$GPGGA,064734.55,3439.59978388,N,13744.62318663,E,4,10,1.0,10.094,M,38.489,M,1.5,0012*7C
$GPGGA,064734.60,3439.59977843,N,13744.62318247,E,4,10,1.0,10.088,M,38.489,M,1.6,0012*75
$GPGGA,064734.65,3439.59977601,N,13744.62318020,E,4,10,1.0,10.085,M,38.489,M,1.6,0012*76
$GPGGA,064734.70,3439.59977370,N,13744.62317764,E,4,10,1.0,10.077,M,38.489,M,1.7,0012*75
$GPGGA,064734.75,3439.59976845,N,13744.62317559,E,4,10,1.0,10.080,M,38.489,M,1.8,0012*77
$GPGGA,064734.80,3439.59976546,N,13744.62317524,E,4,10,1.0,10.073,M,38.489,M,1.8,0012*75
$GPGGA,064734.85,3439.59976183,N,13744.62317424,E,4,10,1.0,10.070,M,38.489,M,1.9,0012*7E
$GPGGA,064734.90,3439.59975847,N,13744.62317291,E,4,10,1.0,10.069,M,38.489,M,1.9,0012*78
$GPGGA,064734.95,3439.59975838,N,13744.62317121,E,4,10,1.0,10.070,M,38.489,M,2.0,0012*7F
$GPGGA,064735.00,3439.59976743,N,13744.62316447,E,4,10,1.0,10.076,M,38.489,M,1.0,0012*73
$GPGGA,064735.05,3439.59976599,N,13744.62316386,E,4,10,1.0,10.079,M,38.489,M,1.0,0012*76
$GPGGA,064735.10,3439.59976743,N,13744.62316444,E,4,10,1.0,10.080,M,38.489,M,1.1,0012*79
$GPGGA,064735.15,3439.59976975,N,13744.62316314,E,4,10,1.0,10.082,M,38.489,M,1.1,0012*77
$GPGGA,064735.20,3439.59976928,N,13744.62316255,E,4,10,1.0,10.084,M,38.489,M,1.2,0012*78
$GPGGA,064735.25,3439.59976903,N,13744.62316119,E,4,10,1.0,10.079,M,38.489,M,1.3,0012*7C
$GPGGA,064735.30,3439.59976976,N,13744.62316017,E,4,10,1.0,10.074,M,38.489,M,1.3,0012*78
$GPGGA,064735.35,3439.59976847,N,13744.62315935,E,4,10,1.0,10.070,M,38.489,M,1.4,0012*77
$GPGGA,064735.40,3439.59976869,N,13744.62315681,E,4,10,1.0,10.071,M,38.489,M,1.4,0012*78
$GPGGA,064735.45,3439.59976916,N,13744.62315576,E,4,10,1.0,10.075,M,38.489,M,1.5,0012*7A
$GPGGA,064735.50,3439.59976961,N,13744.62315508,E,4,10,1.0,10.082,M,38.489,M,1.5,0012*7F
$GPGGA,064735.55,3439.59976963,N,13744.62315413,E,4,10,1.0,10.075,M,38.489,M,1.5,0012*7B
$GPGGA,064735.60,3439.59977018,N,13744.62315400,E,4,10,1.0,10.071,M,38.489,M,1.6,0012*7C
$GPGGA,064735.65,3439.59976959,N,13744.62315340,E,4,10,1.0,10.073,M,38.489,M,1.6,0012*75
$GPGGA,064735.70,3439.59976888,N,13744.62315386,E,4,10,1.0,10.071,M,38.489,M,1.7,0012*75
$GPGGA,064735.75,3439.59976297,N,13744.62315703,E,4,10,1.0,10.059,M,38.489,M,0.8,0012*79
$GPGGA,064735.80,3439.59976425,N,13744.62315578,E,4,10,1.0,10.057,M,38.489,M,0.8,0012*7C
$GPGGA,064735.85,3439.59976317,N,13744.62315418,E,4,10,1.0,10.061,M,38.489,M,0.9,0012*7C
$GPGGA,064735.90,3439.59976322,N,13744.62315462,E,4,10,1.0,10.063,M,38.489,M,0.9,0012*71
$GPGGA,064735.95,3439.59976464,N,13744.62315546,E,4,10,1.0,10.061,M,38.489,M,0.9,0012*74
$GPGGA,064736.00,3439.59976557,N,13744.62315521,E,4,10,1.0,10.058,M,38.489,M,1.0,0012*79
$GPGGA,064736.05,3439.59976430,N,13744.62315290,E,4,10,1.0,10.057,M,38.489,M,1.0,0012*7E
$GPGGA,064736.10,3439.59976402,N,13744.62315302,E,4,10,1.0,10.058,M,38.489,M,1.1,0012*7F
$GPGGA,064736.15,3439.59976577,N,13744.62315180,E,4,10,1.0,10.059,M,38.489,M,1.1,0012*70
$GPGGA,064736.20,3439.59976504,N,13744.62315151,E,4,10,1.0,10.058,M,38.489,M,1.2,0012*7C
$GPGGA,064736.25,3439.59976345,N,13744.62315230,E,4,10,1.0,10.060,M,38.489,M,1.3,0012*74
$GPGGA,064736.30,3439.59976346,N,13744.62315140,E,4,10,1.0,10.058,M,38.489,M,1.3,0012*7C
$GPGGA,064736.35,3439.59976262,N,13744.62315089,E,4,10,1.0,10.058,M,38.489,M,1.4,0012*7D
$GPGGA,064736.40,3439.59976250,N,13744.62315058,E,4,10,1.0,10.057,M,38.489,M,1.4,0012*7D
$GPGGA,064736.45,3439.59976211,N,13744.62315089,E,4,10,1.0,10.058,M,38.489,M,1.5,0012*7F
$GPGGA,064736.50,3439.59976246,N,13744.62315026,E,4,10,1.0,10.056,M,38.489,M,1.5,0012*72
$GPGGA,064736.55,3439.59975965,N,13744.62314900,E,4,10,1.0,10.055,M,38.489,M,1.5,0012*71
$GPGGA,064736.60,3439.59975955,N,13744.62315010,E,4,10,1.0,10.058,M,38.489,M,1.6,0012*73
$GPGGA,064736.65,3439.59976088,N,13744.62314982,E,4,10,1.0,10.056,M,38.489,M,1.6,0012*71
$GPGGA,064736.70,3439.59975990,N,13744.62314904,E,4,10,1.0,10.058,M,38.489,M,1.7,0012*77
$GPGGA,064736.75,3439.59975863,N,13744.62314990,E,4,10,1.0,10.057,M,38.489,M,1.8,0012*72
$GPGGA,064736.80,3439.59975894,N,13744.62315266,E,4,10,1.0,10.063,M,38.489,M,1.8,0012*74
$GPGGA,064736.85,3439.59975822,N,13744.62315587,E,4,10,1.0,10.082,M,38.489,M,0.9,0012*7B
$GPGGA,064736.90,3439.59976360,N,13744.62315947,E,4,10,1.0,10.080,M,38.489,M,0.9,0012*73
$GPGGA,064736.95,3439.59976715,N,13744.62316305,E,4,10,1.0,10.084,M,38.489,M,0.9,0012*7B
$GPGGA,064737.00,3439.59976538,N,13744.62316830,E,4,10,1.0,10.088,M,38.489,M,1.0,0012*72
$GPGGA,064737.05,3439.59977188,N,13744.62317191,E,4,10,1.0,10.089,M,38.489,M,1.0,0012*7B
$GPGGA,064737.10,3439.59977471,N,13744.62317639,E,4,10,1.0,10.091,M,38.489,M,1.1,0012*71
$GPGGA,064737.15,3439.59978001,N,13744.62318186,E,4,10,1.0,10.102,M,38.489,M,1.1,0012*7F
$GPGGA,064737.20,3439.59978515,N,13744.62319164,E,4,10,1.0,10.113,M,38.489,M,1.2,0012*77
$GPGGA,064737.25,3439.59979207,N,13744.62319973,E,4,10,1.0,10.123,M,38.489,M,1.3,0012*7B
$GPGGA,064737.30,3439.59978757,N,13744.62320326,E,4,10,1.0,10.107,M,38.489,M,1.3,0012*78
$GPGGA,064737.35,3439.59980205,N,13744.62320307,E,4,10,1.0,10.131,M,38.489,M,1.4,0012*79
$GPGGA,064737.40,3439.59980517,N,13744.62320533,E,4,10,1.0,10.134,M,38.489,M,1.4,0012*7B
$GPGGA,064737.45,3439.59981441,N,13744.62320731,E,4,10,1.0,10.130,M,38.489,M,1.5,0012*78
$GPGGA,064737.50,3439.59981344,N,13744.62321953,E,4,10,1.0,10.142,M,38.489,M,1.5,0012*70
$GPGGA,064737.55,3439.59982070,N,13744.62322313,E,4,10,1.0,10.137,M,38.489,M,1.5,0012*7D
$GPGGA,064737.60,3439.59980549,N,13744.62323282,E,4,10,1.0,10.131,M,38.489,M,1.6,0012*7B
$GPGGA,064737.65,3439.59982728,N,13744.62323110,E,4,10,1.0,10.131,M,38.489,M,1.6,0012*71
$GPGGA,064737.70,3439.59981851,N,13744.62324025,E,4,10,1.0,10.152,M,38.489,M,1.7,0012*73
$GPGGA,064737.75,3439.59981361,N,13744.62324788,E,4,10,1.0,10.143,M,38.489,M,1.8,0012*71
$GPGGA,064737.80,3439.59980672,N,13744.62325426,E,4,10,1.0,10.132,M,38.489,M,1.8,0012*7D
$GPGGA,064737.85,3439.59979943,N,13744.62326017,E,4,10,1.0,10.129,M,38.489,M,0.9,0012*7C
$GPGGA,064737.90,3439.59981016,N,13744.62327093,E,4,10,1.0,10.125,M,38.489,M,0.9,0012*77
$GPGGA,064737.95,3439.59981684,N,13744.62327940,E,4,10,1.0,10.150,M,38.489,M,0.9,0012*7A
$GPGGA,064738.00,3439.59984281,N,13744.62328466,E,4,10,1.0,10.144,M,38.489,M,1.0,0012*76
