$GPGGA,065353.400,3815.2946,N,14050.6393,E,1,9,1.04,146.5,M,37.1,M,,*58
$GPGGA,065353.600,3815.2946,N,14050.6393,E,1,9,1.04,146.5,M,37.1,M,,*5A
$GPGGA,065353.800,3815.2946,N,14050.6393,E,1,9,1.04,146.5,M,37.1,M,,*54
$GPGGA,065354.000,3815.2946,N,14050.6393,E,1,9,1.04,146.5,M,37.1,M,,*5B
$GPGGA,065354.200,3815.2946,N,14050.6393,E,1,9,1.04,146.5,M,37.1,M,,*59
$GPGGA,065354.400,3815.2946,N,14050.6393,E,1,9,1.04,146.5,M,37.1,M,,*5F
$GPGGA,065354.600,3815.2946,N,14050.6393,E,1,9,1.04,146.5,M,37.1,M,,*5D
$GPGGA,065354.800,3815.2946,N,14050.6393,E,1,9,1.04,146.5,M,37.1,M,,*53
$GPGGA,065355.000,3815.2946,N,14050.6393,E,1,9,1.34,146.5,M,37.1,M,,*59
$GPGGA,065355.200,3815.2946,N,14050.6393,E,1,8,1.34,146.5,M,37.1,M,,*5A
$GPGGA,065355.400,3815.2946,N,14050.6393,E,1,8,1.34,146.5,M,37.1,M,,*5C
$GPGGA,065355.600,3815.2946,N,14050.6393,E,1,8,1.34,146.5,M,37.1,M,,*5E
$GPGGA,065355.800,3815.2946,N,14050.6393,E,1,8,1.34,146.5,M,37.1,M,,*50
$GPGGA,065356.000,3815.2946,N,14050.6393,E,1,7,1.61,146.5,M,37.1,M,,*54
$GPGGA,065356.200,3815.2946,N,14050.6393,E,1,7,1.61,146.5,M,37.1,M,,*56
$GPGGA,065356.400,3815.2946,N,14050.6393,E,1,7,1.61,146.5,M,37.1,M,,*50
$GPGGA,065356.600,3815.2946,N,14050.6393,E,1,7,1.61,146.5,M,37.1,M,,*52
$GPGGA,065356.800,3815.2946,N,14050.6393,E,1,7,1.61,146.5,M,37.1,M,,*5C
$GPGGA,065357.000,3815.2946,N,14050.6393,E,1,7,1.61,146.5,M,37.1,M,,*55
$GPGGA,065357.200,3815.2946,N,14050.6393,E,1,7,1.61,146.5,M,37.1,M,,*57
$GPGGA,065357.400,3815.2946,N,14050.6393,E,1,7,1.61,146.5,M,37.1,M,,*51
$GPGGA,065357.600,3815.2946,N,14050.6393,E,1,7,1.61,146.5,M,37.1,M,,*53
$GPGGA,065357.800,3815.2946,N,14050.6393,E,1,7,1.61,146.5,M,37.1,M,,*5D
$GPGGA,065358.000,3815.2946,N,14050.6393,E,1,7,1.61,146.5,M,37.1,M,,*5A
$GPGGA,065358.200,3815.2946,N,14050.6393,E,1,7,1.61,146.5,M,37.1,M,,*58
$GPGGA,065358.400,3815.2946,N,14050.6393,E,1,7,1.61,146.5,M,37.1,M,,*5E
$GPGGA,065358.600,3815.2946,N,14050.6393,E,1,7,1.61,146.5,M,37.1,M,,*5C
$GPGGA,065358.800,3815.2946,N,14050.6393,E,1,7,1.61,146.5,M,37.1,M,,*52
$GPGGA,065359.000,3815.2946,N,14050.6393,E,1,8,1.23,146.5,M,37.1,M,,*52
$GPGGA,065359.200,3815.2946,N,14050.6393,E,1,8,1.23,146.5,M,37.1,M,,*50
$GPGGA,065359.400,3815.2946,N,14050.6393,E,1,8,1.23,146.5,M,37.1,M,,*56
$GPGGA,065359.600,3815.2946,N,14050.6393,E,1,8,1.23,146.5,M,37.1,M,,*54
$GPGGA,065359.800,3815.2946,N,14050.6393,E,1,8,1.23,146.5,M,37.1,M,,*5A
$GPGGA,065400.000,3815.2946,N,14050.6393,E,1,8,1.23,146.5,M,37.1,M,,*59
$GPGGA,065400.200,3815.2946,N,14050.6393,E,1,8,1.23,146.5,M,37.1,M,,*5B
$GPGGA,065400.400,3815.2946,N,14050.6393,E,1,8,1.23,146.5,M,37.1,M,,*5D
$GPGGA,065400.600,3815.2946,N,14050.6393,E,1,8,1.23,146.5,M,37.1,M,,*5F
$GPGGA,065400.800,3815.2946,N,14050.6393,E,1,8,1.23,146.5,M,37.1,M,,*51
$GPGGA,065401.000,3815.2946,N,14050.6393,E,1,8,1.23,146.5,M,37.1,M,,*58
$GPGGA,065401.200,3815.2947,N,14050.6393,E,1,8,1.23,146.5,M,37.1,M,,*5B
$GPGGA,065401.400,3815.2947,N,14050.6393,E,1,8,1.23,146.5,M,37.1,M,,*5D
$GPGGA,065401.600,3815.2947,N,14050.6393,E,1,8,1.23,146.5,M,37.1,M,,*5F
$GPGGA,065401.800,3815.2947,N,14050.6393,E,1,8,1.23,146.5,M,37.1,M,,*51
$GPGGA,065402.000,3815.2947,N,14050.6393,E,1,8,1.23,146.5,M,37.1,M,,*5A
$GPGGA,065402.200,3815.2947,N,14050.6393,E,1,8,1.23,146.5,M,37.1,M,,*58
$GPGGA,065402.400,3815.2947,N,14050.6393,E,1,8,1.23,146.5,M,37.1,M,,*5E
$GPGGA,065402.600,3815.2947,N,14050.6393,E,1,8,1.23,146.5,M,37.1,M,,*5C
$GPGGA,065402.800,3815.2947,N,14050.6393,E,1,8,1.23,146.5,M,37.1,M,,*52
$GPGGA,065403.000,3815.2947,N,14050.6393,E,1,8,1.23,146.5,M,37.1,M,,*5B
$GPGGA,065403.200,3815.2947,N,14050.6393,E,1,8,1.23,146.5,M,37.1,M,,*59
$GPGGA,065403.400,3815.2947,N,14050.6393,E,1,8,1.23,146.5,M,37.1,M,,*5F
$GPGGA,065403.600,3815.2947,N,14050.6393,E,1,7,1.61,146.5,M,37.1,M,,*54
$GPGGA,065403.800,3815.2947,N,14050.6393,E,1,7,1.61,146.5,M,37.1,M,,*5A
$GPGGA,065404.000,3815.2947,N,14050.6393,E,1,7,1.61,146.5,M,37.1,M,,*55
$GPGGA,065404.200,3815.2947,N,14050.6393,E,1,7,1.61,146.5,M,37.1,M,,*57
$GPGGA,065404.400,3815.2947,N,14050.6393,E,1,7,1.61,146.5,M,37.1,M,,*51
$GPGGA,065404.600,3815.2947,N,14050.6393,E,1,7,1.61,146.5,M,37.1,M,,*53
$GPGGA,065404.800,3815.2947,N,14050.6393,E,1,7,1.61,146.5,M,37.1,M,,*5D
$GPGGA,065405.000,3815.2947,N,14050.6393,E,1,7,1.61,146.5,M,37.1,M,,*54
$GPGGA,065405.200,3815.2947,N,14050.6393,E,1,7,1.61,146.5,M,37.1,M,,*56
$GPGGA,065405.400,3815.2947,N,14050.6393,E,1,7,1.61,146.5,M,37.1,M,,*50
$GPGGA,065405.600,3815.2947,N,14050.6393,E,1,7,1.61,146.5,M,37.1,M,,*52
$GPGGA,065405.800,3815.2947,N,14050.6393,E,1,7,1.61,146.5,M,37.1,M,,*5C
$GPGGA,065406.000,3815.2947,N,14050.6393,E,1,7,1.61,146.5,M,37.1,M,,*57
$GPGGA,065406.200,3815.2947,N,14050.6393,E,1,7,1.61,146.5,M,37.1,M,,*55
$GPGGA,065406.400,3815.2947,N,14050.6393,E,1,7,1.61,146.5,M,37.1,M,,*53
$GPGGA,065406.600,3815.2947,N,14050.6393,E,1,7,1.61,146.5,M,37.1,M,,*51
$GPGGA,065406.800,3815.2947,N,14050.6393,E,1,7,1.61,146.5,M,37.1,M,,*5F
$GPGGA,065407.000,3815.2947,N,14050.6393,E,1,7,1.61,146.5,M,37.1,M,,*56
$GPGGA,065407.200,3815.2947,N,14050.6393,E,1,7,1.61,146.5,M,37.1,M,,*54
$GPGGA,065407.400,3815.2947,N,14050.6393,E,1,7,1.61,146.5,M,37.1,M,,*52
$GPGGA,065407.600,3815.2947,N,14050.6393,E,1,7,1.61,146.5,M,37.1,M,,*50
$GPGGA,065407.800,3815.2947,N,14050.6393,E,1,7,1.61,146.5,M,37.1,M,,*5E
$GPGGA,065408.000,3815.2947,N,14050.6393,E,1,7,1.61,146.5,M,37.1,M,,*59
$GPGGA,065408.200,3815.2947,N,14050.6393,E,1,7,1.61,146.5,M,37.1,M,,*5B
$GPGGA,065408.400,3815.2947,N,14050.6393,E,1,7,1.61,146.5,M,37.1,M,,*5D
$GPGGA,065408.600,3815.2947,N,14050.6393,E,1,7,1.61,146.5,M,37.1,M,,*5F
$GPGGA,065408.800,3815.2947,N,14050.6393,E,1,7,1.61,146.5,M,37.1,M,,*51
$GPGGA,065409.000,3815.2947,N,14050.6393,E,1,7,1.61,146.5,M,37.1,M,,*58
$GPGGA,065409.200,3815.2947,N,14050.6393,E,1,7,1.61,146.5,M,37.1,M,,*5A
$GPGGA,065409.400,3815.2947,N,14050.6393,E,1,7,1.61,146.5,M,37.1,M,,*5C
$GPGGA,065409.600,3815.2947,N,14050.6393,E,1,7,1.61,146.5,M,37.1,M,,*5E
$GPGGA,065409.800,3815.2947,N,14050.6393,E,1,7,1.61,146.5,M,37.1,M,,*50
$GPGGA,065410.000,3815.2947,N,14050.6393,E,1,7,1.61,146.5,M,37.1,M,,*50
$GPGGA,065410.200,3815.2947,N,14050.6393,E,1,7,1.61,146.5,M,37.1,M,,*52
$GPGGA,065410.400,3815.2947,N,14050.6393,E,1,7,1.61,146.5,M,37.1,M,,*54
$GPGGA,065410.600,3815.2947,N,14050.6392,E,1,7,1.61,146.5,M,37.1,M,,*57
$GPGGA,065410.800,3815.2947,N,14050.6392,E,1,7,1.61,146.5,M,37.1,M,,*59
$GPGGA,065411.000,3815.2947,N,14050.6392,E,1,7,1.61,146.5,M,37.1,M,,*50
$GPGGA,065411.200,3815.2947,N,14050.6392,E,1,7,1.61,146.5,M,37.1,M,,*52
$GPGGA,065411.400,3815.2947,N,14050.6392,E,1,7,1.61,146.5,M,37.1,M,,*54
$GPGGA,065411.600,3815.2947,N,14050.6392,E,1,7,1.61,146.5,M,37.1,M,,*56
$GPGGA,065411.800,3815.2947,N,14050.6392,E,1,7,1.61,146.5,M,37.1,M,,*58
$GPGGA,065412.000,3815.2947,N,14050.6392,E,1,7,1.61,146.5,M,37.1,M,,*53
$GPGGA,065412.200,3815.2947,N,14050.6392,E,1,7,1.61,146.5,M,37.1,M,,*51
$GPGGA,065412.400,3815.2947,N,14050.6392,E,1,7,1.61,146.5,M,37.1,M,,*57
$GPGGA,065412.600,3815.2947,N,14050.6392,E,1,7,1.61,146.5,M,37.1,M,,*55
$GPGGA,065412.800,3815.2947,N,14050.6392,E,1,7,1.61,146.5,M,37.1,M,,*5B
$GPGGA,065413.000,3815.2947,N,14050.6392,E,1,7,1.61,146.5,M,37.1,M,,*52
$GPGGA,065413.200,3815.2947,N,14050.6392,E,1,7,1.61,146.5,M,37.1,M,,*50
$GPGGA,065413.400,3815.2947,N,14050.6392,E,1,7,1.61,146.5,M,37.1,M,,*56
$GPGGA,065413.600,3815.2947,N,14050.6392,E,1,7,1.61,146.5,M,37.1,M,,*54
$GPGGA,065413.800,3815.2947,N,14050.6392,E,1,7,1.61,146.5,M,37.1,M,,*5A
$GPGGA,065414.000,3815.2947,N,14050.6392,E,1,7,1.61,146.5,M,37.1,M,,*55
$GPGGA,065414.200,3815.2947,N,14050.6392,E,1,7,1.61,146.5,M,37.1,M,,*57
$GPGGA,065414.400,3815.2947,N,14050.6392,E,1,7,1.61,146.6,M,37.1,M,,*52
$GPGGA,065414.600,3815.2947,N,14050.6392,E,1,7,1.61,146.6,M,37.1,M,,*50
$GPGGA,065414.800,3815.2947,N,14050.6392,E,1,7,1.61,146.6,M,37.1,M,,*5E
$GPGGA,065415.000,3815.2947,N,14050.6392,E,1,7,1.61,146.6,M,37.1,M,,*57
$GPGGA,065415.200,3815.2947,N,14050.6392,E,1,7,1.61,146.6,M,37.1,M,,*55
$GPGGA,065415.400,3815.2947,N,14050.6392,E,1,7,1.61,146.6,M,37.1,M,,*53
$GPGGA,065415.600,3815.2947,N,14050.6392,E,1,7,1.61,146.6,M,37.1,M,,*51
$GPGGA,065415.800,3815.2947,N,14050.6392,E,1,7,1.61,146.6,M,37.1,M,,*5F
$GPGGA,065416.000,3815.2947,N,14050.6392,E,1,7,1.61,146.6,M,37.1,M,,*54
$GPGGA,065416.200,3815.2947,N,14050.6392,E,1,7,1.61,146.6,M,37.1,M,,*56
$GPGGA,065416.400,3815.2947,N,14050.6392,E,1,7,1.61,146.6,M,37.1,M,,*50
$GPGGA,065416.600,3815.2947,N,14050.6392,E,1,7,1.61,146.6,M,37.1,M,,*52
$GPGGA,065416.800,3815.2947,N,14050.6392,E,1,7,1.61,146.6,M,37.1,M,,*5C
$GPGGA,065417.000,3815.2947,N,14050.6392,E,1,7,1.61,146.6,M,37.1,M,,*55
$GPGGA,065417.200,3815.2947,N,14050.6392,E,1,7,1.61,146.6,M,37.1,M,,*57
$GPGGA,065417.400,3815.2947,N,14050.6392,E,1,7,1.61,146.6,M,37.1,M,,*51
$GPGGA,065417.600,3815.2947,N,14050.6392,E,1,8,1.23,146.6,M,37.1,M,,*5A
$GPGGA,065417.800,3815.2947,N,14050.6392,E,1,8,1.23,146.6,M,37.1,M,,*54
$GPGGA,065418.000,3815.2947,N,14050.6392,E,1,8,1.23,146.6,M,37.1,M,,*53
$GPGGA,065418.200,3815.2947,N,14050.6392,E,1,8,1.23,146.6,M,37.1,M,,*51
$GPGGA,065418.400,3815.2947,N,14050.6392,E,1,8,1.23,146.6,M,37.1,M,,*57
$GPGGA,065418.600,3815.2947,N,14050.6392,E,1,8,1.23,146.6,M,37.1,M,,*55
$GPGGA,065418.800,3815.2947,N,14050.6392,E,1,8,1.23,146.6,M,37.1,M,,*5B
$GPGGA,065419.000,3815.2947,N,14050.6392,E,1,8,1.23,146.6,M,37.1,M,,*52
$GPGGA,065419.200,3815.2947,N,14050.6392,E,1,8,1.23,146.6,M,37.1,M,,*50
$GPGGA,065419.400,3815.2947,N,14050.6392,E,1,8,1.23,146.6,M,37.1,M,,*56
$GPGGA,065419.600,3815.2947,N,14050.6392,E,1,8,1.23,146.6,M,37.1,M,,*54
$GPGGA,065419.800,3815.2947,N,14050.6392,E,1,8,1.23,146.6,M,37.1,M,,*5A
$GPGGA,065420.000,3815.2948,N,14050.6392,E,1,8,1.23,146.6,M,37.1,M,,*57
$GPGGA,065420.200,3815.2948,N,14050.6392,E,1,8,1.23,146.6,M,37.1,M,,*55
$GPGGA,065420.400,3815.2948,N,14050.6392,E,1,9,1.15,146.6,M,37.1,M,,*57
$GPGGA,065420.600,3815.2948,N,14050.6392,E,1,9,1.15,146.6,M,37.1,M,,*55
$GPGGA,065420.800,3815.2948,N,14050.6392,E,1,9,1.15,146.6,M,37.1,M,,*5B
$GPGGA,065421.000,3815.2948,N,14050.6392,E,1,9,1.15,146.6,M,37.1,M,,*52
$GPGGA,065421.200,3815.2948,N,14050.6392,E,1,9,1.15,146.6,M,37.1,M,,*50
$GPGGA,065421.400,3815.2948,N,14050.6392,E,1,9,1.15,146.6,M,37.1,M,,*56
$GPGGA,065421.600,3815.2948,N,14050.6392,E,1,9,1.15,146.6,M,37.1,M,,*54
$GPGGA,065421.800,3815.2948,N,14050.6392,E,1,9,1.15,146.6,M,37.1,M,,*5A
$GPGGA,065422.000,3815.2948,N,14050.6392,E,1,9,1.15,146.6,M,37.1,M,,*51
$GPGGA,065422.200,3815.2948,N,14050.6392,E,1,9,1.15,146.6,M,37.1,M,,*53
$GPGGA,065422.400,3815.2948,N,14050.6392,E,1,9,1.15,146.6,M,37.1,M,,*55
$GPGGA,065422.600,3815.2948,N,14050.6392,E,1,9,1.15,146.6,M,37.1,M,,*57
$GPGGA,065422.800,3815.2948,N,14050.6392,E,1,9,1.15,146.6,M,37.1,M,,*59
$GPGGA,065423.000,3815.2948,N,14050.6392,E,1,9,1.15,146.6,M,37.1,M,,*50
$GPGGA,065423.200,3815.2948,N,14050.6392,E,1,9,1.15,146.6,M,37.1,M,,*52
$GPGGA,065423.400,3815.2948,N,14050.6392,E,1,9,1.15,146.6,M,37.1,M,,*54
$GPGGA,065423.600,3815.2948,N,14050.6392,E,1,9,1.15,146.6,M,37.1,M,,*56
$GPGGA,065423.800,3815.2948,N,14050.6392,E,1,9,1.15,146.6,M,37.1,M,,*58
$GPGGA,065424.000,3815.2948,N,14050.6392,E,1,9,1.15,146.6,M,37.1,M,,*57
$GPGGA,065424.200,3815.2948,N,14050.6392,E,1,9,1.15,146.6,M,37.1,M,,*55
$GPGGA,065424.400,3815.2948,N,14050.6392,E,1,9,1.15,146.6,M,37.1,M,,*53
$GPGGA,065424.600,3815.2948,N,14050.6392,E,1,9,1.15,146.6,M,37.1,M,,*51
$GPGGA,065424.800,3815.2948,N,14050.6392,E,1,9,1.15,146.6,M,37.1,M,,*5F
$GPGGA,065425.000,3815.2948,N,14050.6392,E,1,9,1.15,146.6,M,37.1,M,,*56
$GPGGA,065425.200,3815.2948,N,14050.6392,E,1,9,1.15,146.6,M,37.1,M,,*54
$GPGGA,065425.400,3815.2947,N,14050.6392,E,1,9,1.15,146.6,M,37.1,M,,*5D
$GPGGA,065425.600,3815.2947,N,14050.6392,E,1,9,1.15,146.6,M,37.1,M,,*5F
$GPGGA,065425.800,3815.2947,N,14050.6392,E,1,9,1.15,146.6,M,37.1,M,,*51
$GPGGA,065426.000,3815.2947,N,14050.6392,E,1,9,1.15,146.6,M,37.1,M,,*5A
$GPGGA,065426.200,3815.2947,N,14050.6392,E,1,9,1.15,146.6,M,37.1,M,,*58
$GPGGA,065426.400,3815.2947,N,14050.6392,E,1,9,1.15,146.6,M,37.1,M,,*5E
$GPGGA,065426.600,3815.2947,N,14050.6392,E,1,9,1.15,146.6,M,37.1,M,,*5C
$GPGGA,065426.800,3815.2947,N,14050.6392,E,1,9,1.15,146.6,M,37.1,M,,*52
$GPGGA,065427.000,3815.2947,N,14050.6392,E,1,9,1.15,146.6,M,37.1,M,,*5B
$GPGGA,065427.200,3815.2947,N,14050.6392,E,1,9,1.15,146.6,M,37.1,M,,*59
$GPGGA,065427.400,3815.2947,N,14050.6392,E,1,9,1.15,146.6,M,37.1,M,,*5F
$GPGGA,065427.600,3815.2947,N,14050.6392,E,1,9,1.15,146.6,M,37.1,M,,*5D
$GPGGA,065427.800,3815.2947,N,14050.6392,E,1,9,1.15,146.6,M,37.1,M,,*53
$GPGGA,065428.000,3815.2947,N,14050.6392,E,1,9,1.15,146.6,M,37.1,M,,*54
$GPGGA,065428.200,3815.2947,N,14050.6392,E,1,9,1.15,146.6,M,37.1,M,,*56
$GPGGA,065428.400,3815.2947,N,14050.6392,E,1,9,1.15,146.6,M,37.1,M,,*50
$GPGGA,065428.600,3815.2947,N,14050.6392,E,1,9,1.15,146.6,M,37.1,M,,*52
$GPGGA,065428.800,3815.2947,N,14050.6392,E,1,9,1.15,146.6,M,37.1,M,,*5C
$GPGGA,065429.000,3815.2947,N,14050.6392,E,1,9,1.15,146.6,M,37.1,M,,*55
$GPGGA,065429.200,3815.2947,N,14050.6392,E,1,9,1.15,146.6,M,37.1,M,,*57
$GPGGA,065429.400,3815.2947,N,14050.6392,E,1,9,1.15,146.6,M,37.1,M,,*51
$GPGGA,065429.600,3815.2947,N,14050.6392,E,1,9,1.15,146.7,M,37.1,M,,*52
$GPGGA,065429.800,3815.2947,N,14050.6392,E,1,9,1.15,146.7,M,37.1,M,,*5C
$GPGGA,065430.000,3815.2947,N,14050.6392,E,1,9,1.15,146.7,M,37.1,M,,*5C
$GPGGA,065430.200,3815.2947,N,14050.6393,E,1,9,1.15,146.7,M,37.1,M,,*5F
$GPGGA,065430.400,3815.2947,N,14050.6393,E,1,9,1.15,146.7,M,37.1,M,,*59
$GPGGA,065430.600,3815.2947,N,14050.6393,E,1,9,1.15,146.7,M,37.1,M,,*5B
$GPGGA,065430.800,3815.2947,N,14050.6393,E,1,9,1.15,146.7,M,37.1,M,,*55
$GPGGA,065431.000,3815.2947,N,14050.6393,E,1,9,1.15,146.7,M,37.1,M,,*5C
$GPGGA,065431.200,3815.2947,N,14050.6393,E,1,9,1.15,146.7,M,37.1,M,,*5E
$GPGGA,065431.400,3815.2947,N,14050.6393,E,1,9,1.15,146.7,M,37.1,M,,*58
$GPGGA,065431.600,3815.2947,N,14050.6393,E,1,9,1.15,146.7,M,37.1,M,,*5A
$GPGGA,065431.800,3815.2947,N,14050.6393,E,1,9,1.15,146.7,M,37.1,M,,*54
$GPGGA,065432.000,3815.2947,N,14050.6393,E,1,9,1.15,146.7,M,37.1,M,,*5F
$GPGGA,065432.200,3815.2947,N,14050.6393,E,1,9,1.15,146.7,M,37.1,M,,*5D
$GPGGA,065432.400,3815.2947,N,14050.6393,E,1,9,1.15,146.7,M,37.1,M,,*5B
$GPGGA,065432.600,3815.2947,N,14050.6393,E,1,9,1.13,146.7,M,37.1,M,,*5F
$GPGGA,065432.800,3815.2947,N,14050.6393,E,1,9,1.15,146.7,M,37.1,M,,*57
$GPGGA,065433.000,3815.2947,N,14050.6393,E,1,9,1.15,146.7,M,37.1,M,,*5E
$GPGGA,065433.200,3815.2947,N,14050.6393,E,1,9,1.15,146.7,M,37.1,M,,*5C
$GPGGA,065433.400,3815.2947,N,14050.6393,E,1,9,1.15,146.7,M,37.1,M,,*5A
$GPGGA,065433.600,3815.2947,N,14050.6393,E,1,9,1.15,146.7,M,37.1,M,,*58
$GPGGA,065433.800,3815.2947,N,14050.6393,E,1,8,1.17,146.7,M,37.1,M,,*55
$GPGGA,065434.000,3815.2947,N,14050.6393,E,1,8,1.17,146.7,M,37.1,M,,*5A
$GPGGA,065434.200,3815.2947,N,14050.6393,E,1,8,1.17,146.7,M,37.1,M,,*58
$GPGGA,065434.400,3815.2947,N,14050.6393,E,1,8,1.17,146.7,M,37.1,M,,*5E
$GPGGA,065434.600,3815.2947,N,14050.6393,E,1,8,1.17,146.7,M,37.1,M,,*5C
$GPGGA,065434.800,3815.2947,N,14050.6393,E,1,8,1.17,146.7,M,37.1,M,,*52
$GPGGA,065435.000,3815.2947,N,14050.6393,E,1,8,1.17,146.7,M,37.1,M,,*5B
$GPGGA,065435.200,3815.2947,N,14050.6393,E,1,8,1.17,146.7,M,37.1,M,,*59
$GPGGA,065435.400,3815.2947,N,14050.6393,E,1,8,1.17,146.7,M,37.1,M,,*5F
$GPGGA,065435.600,3815.2947,N,14050.6393,E,1,8,1.17,146.7,M,37.1,M,,*5D
$GPGGA,065435.800,3815.2947,N,14050.6393,E,1,8,1.17,146.7,M,37.1,M,,*53
$GPGGA,065436.000,3815.2947,N,14050.6393,E,1,8,1.17,146.7,M,37.1,M,,*58
$GPGGA,065436.200,3815.2947,N,14050.6393,E,1,8,1.17,146.7,M,37.1,M,,*5A
$GPGGA,065436.400,3815.2947,N,14050.6393,E,1,8,1.17,146.7,M,37.1,M,,*5C
$GPGGA,065436.600,3815.2947,N,14050.6393,E,1,8,1.17,146.7,M,37.1,M,,*5E
$GPGGA,065436.800,3815.2947,N,14050.6393,E,1,8,1.17,146.7,M,37.1,M,,*50
$GPGGA,065437.000,3815.2947,N,14050.6393,E,1,8,1.17,146.8,M,37.1,M,,*56
$GPGGA,065437.200,3815.2947,N,14050.6393,E,1,8,1.17,146.8,M,37.1,M,,*54
$GPGGA,065437.400,3815.2947,N,14050.6393,E,1,9,1.15,146.8,M,37.1,M,,*51
$GPGGA,065437.600,3815.2947,N,14050.6393,E,1,9,1.15,146.8,M,37.1,M,,*53
$GPGGA,065437.800,3815.2947,N,14050.6393,E,1,9,1.15,146.8,M,37.1,M,,*5D
$GPGGA,065438.000,3815.2947,N,14050.6393,E,1,9,1.15,146.8,M,37.1,M,,*5A
$GPGGA,065438.200,3815.2947,N,14050.6393,E,1,9,1.15,146.8,M,37.1,M,,*58
$GPGGA,065438.400,3815.2947,N,14050.6393,E,1,9,1.15,146.8,M,37.1,M,,*5E
$GPGGA,065438.600,3815.2947,N,14050.6393,E,1,9,1.15,146.8,M,37.1,M,,*5C
$GPGGA,065438.800,3815.2947,N,14050.6393,E,1,9,1.15,146.8,M,37.1,M,,*52
$GPGGA,065439.000,3815.2947,N,14050.6393,E,1,9,1.15,146.8,M,37.1,M,,*5B
$GPGGA,065439.200,3815.2947,N,14050.6393,E,1,9,1.15,146.8,M,37.1,M,,*59
$GPGGA,065439.400,3815.2947,N,14050.6393,E,1,9,1.15,146.8,M,37.1,M,,*5F
$GPGGA,065439.600,3815.2947,N,14050.6393,E,1,9,1.15,146.8,M,37.1,M,,*5D
$GPGGA,065439.800,3815.2947,N,14050.6393,E,1,9,1.15,146.8,M,37.1,M,,*53
$GPGGA,065440.000,3815.2947,N,14050.6393,E,1,9,1.15,146.8,M,37.1,M,,*55
$GPGGA,065440.200,3815.2947,N,14050.6393,E,1,9,1.15,146.8,M,37.1,M,,*57
$GPGGA,065440.400,3815.2947,N,14050.6393,E,1,9,1.15,146.8,M,37.1,M,,*51
$GPGGA,065440.600,3815.2947,N,14050.6393,E,1,9,1.15,146.8,M,37.1,M,,*53
$GPGGA,065440.800,3815.2947,N,14050.6393,E,1,9,1.15,146.8,M,37.1,M,,*5D
$GPGGA,065441.000,3815.2947,N,14050.6393,E,1,9,1.15,146.8,M,37.1,M,,*54
$GPGGA,065441.200,3815.2947,N,14050.6393,E,1,9,1.15,146.8,M,37.1,M,,*56
$GPGGA,065441.400,3815.2947,N,14050.6393,E,1,9,1.15,146.8,M,37.1,M,,*50
$GPGGA,065441.600,3815.2947,N,14050.6393,E,1,9,1.15,146.8,M,37.1,M,,*52
$GPGGA,065441.800,3815.2946,N,14050.6393,E,1,9,1.15,146.8,M,37.1,M,,*5D
$GPGGA,065442.000,3815.2946,N,14050.6393,E,1,9,1.15,146.8,M,37.1,M,,*56
$GPGGA,065442.200,3815.2946,N,14050.6393,E,1,9,1.15,146.8,M,37.1,M,,*54
$GPGGA,065442.400,3815.2946,N,14050.6393,E,1,9,1.15,146.8,M,37.1,M,,*52
$GPGGA,065442.600,3815.2946,N,14050.6393,E,1,9,1.15,146.8,M,37.1,M,,*50
$GPGGA,065442.800,3815.2946,N,14050.6393,E,1,9,1.15,146.8,M,37.1,M,,*5E
$GPGGA,065443.000,3815.2946,N,14050.6393,E,1,9,1.15,146.8,M,37.1,M,,*57
$GPGGA,065443.200,3815.2946,N,14050.6393,E,1,9,1.15,146.8,M,37.1,M,,*55
$GPGGA,065443.400,3815.2946,N,14050.6393,E,1,9,1.15,146.8,M,37.1,M,,*53
$GPGGA,065443.600,3815.2946,N,14050.6393,E,1,9,1.15,146.8,M,37.1,M,,*51
$GPGGA,065443.800,3815.2946,N,14050.6393,E,1,9,1.15,146.8,M,37.1,M,,*5F
$GPGGA,065444.000,3815.2946,N,14050.6393,E,1,9,1.15,146.8,M,37.1,M,,*50
$GPGGA,065444.200,3815.2946,N,14050.6393,E,1,9,1.15,146.8,M,37.1,M,,*52
$GPGGA,065444.400,3815.2946,N,14050.6393,E,1,9,1.15,146.8,M,37.1,M,,*54
$GPGGA,065444.600,3815.2946,N,14050.6393,E,1,9,1.15,146.8,M,37.1,M,,*56
$GPGGA,065444.800,3815.2946,N,14050.6393,E,1,9,1.15,146.8,M,37.1,M,,*58
$GPGGA,065445.000,3815.2946,N,14050.6393,E,1,9,1.15,146.8,M,37.1,M,,*51
$GPGGA,065445.200,3815.2946,N,14050.6393,E,1,9,1.15,146.8,M,37.1,M,,*53
$GPGGA,065445.400,3815.2946,N,14050.6393,E,1,9,1.15,146.9,M,37.1,M,,*54
$GPGGA,065445.600,3815.2946,N,14050.6393,E,1,9,1.15,146.9,M,37.1,M,,*56
$GPGGA,065445.800,3815.2946,N,14050.6393,E,1,9,1.15,146.9,M,37.1,M,,*58
$GPGGA,065446.000,3815.2946,N,14050.6393,E,1,8,1.23,146.9,M,37.1,M,,*57
$GPGGA,065446.200,3815.2946,N,14050.6393,E,1,8,1.23,146.9,M,37.1,M,,*55
$GPGGA,065446.400,3815.2946,N,14050.6393,E,1,8,1.23,146.9,M,37.1,M,,*53
$GPGGA,065446.600,3815.2946,N,14050.6393,E,1,8,1.23,146.9,M,37.1,M,,*51
$GPGGA,065446.800,3815.2946,N,14050.6393,E,1,8,1.23,146.9,M,37.1,M,,*5F
$GPGGA,065447.000,3815.2946,N,14050.6393,E,1,8,1.23,146.9,M,37.1,M,,*56
$GPGGA,065447.200,3815.2946,N,14050.6393,E,1,8,1.23,146.9,M,37.1,M,,*54
$GPGGA,065447.400,3815.2946,N,14050.6393,E,1,8,1.23,146.9,M,37.1,M,,*52
$GPGGA,065447.600,3815.2946,N,14050.6393,E,1,8,1.23,146.9,M,37.1,M,,*50
$GPGGA,065447.800,3815.2946,N,14050.6393,E,1,8,1.23,146.9,M,37.1,M,,*5E
$GPGGA,065448.000,3815.2946,N,14050.6393,E,1,8,1.23,146.9,M,37.1,M,,*59
$GPGGA,065448.200,3815.2946,N,14050.6393,E,1,8,1.23,146.9,M,37.1,M,,*5B
$GPGGA,065448.400,3815.2946,N,14050.6393,E,1,8,1.23,146.9,M,37.1,M,,*5D
$GPGGA,065448.600,3815.2946,N,14050.6393,E,1,8,1.23,146.9,M,37.1,M,,*5F
$GPGGA,065448.800,3815.2946,N,14050.6393,E,1,8,1.23,146.9,M,37.1,M,,*51
$GPGGA,065449.000,3815.2946,N,14050.6393,E,1,8,1.23,146.9,M,37.1,M,,*58
$GPGGA,065449.200,3815.2946,N,14050.6393,E,1,8,1.23,146.9,M,37.1,M,,*5A
$GPGGA,065449.400,3815.2946,N,14050.6393,E,1,8,1.23,146.9,M,37.1,M,,*5C
$GPGGA,065449.600,3815.2946,N,14050.6393,E,1,8,1.23,146.9,M,37.1,M,,*5E
$GPGGA,065449.800,3815.2946,N,14050.6393,E,1,8,1.23,146.9,M,37.1,M,,*50
$GPGGA,065450.000,3815.2946,N,14050.6393,E,1,8,1.23,146.9,M,37.1,M,,*50
$GPGGA,065450.200,3815.2946,N,14050.6393,E,1,8,1.23,146.9,M,37.1,M,,*52
$GPGGA,065450.400,3815.2946,N,14050.6393,E,1,8,1.23,146.9,M,37.1,M,,*54
$GPGGA,065450.600,3815.2946,N,14050.6393,E,1,8,1.23,146.9,M,37.1,M,,*56
$GPGGA,065450.800,3815.2946,N,14050.6393,E,1,8,1.23,146.9,M,37.1,M,,*58
$GPGGA,065451.000,3815.2946,N,14050.6393,E,1,8,1.23,146.9,M,37.1,M,,*51
$GPGGA,065451.200,3815.2946,N,14050.6393,E,1,8,1.23,146.9,M,37.1,M,,*53
$GPGGA,065451.400,3815.2946,N,14050.6393,E,1,8,1.23,146.9,M,37.1,M,,*55
$GPGGA,065451.600,3815.2946,N,14050.6393,E,1,8,1.23,146.9,M,37.1,M,,*57
$GPGGA,065451.800,3815.2946,N,14050.6393,E,1,8,1.23,146.9,M,37.1,M,,*59
$GPGGA,065452.000,3815.2946,N,14050.6393,E,1,8,1.23,146.9,M,37.1,M,,*52
$GPGGA,065452.200,3815.2946,N,14050.6393,E,1,8,1.23,146.9,M,37.1,M,,*50
$GPGGA,065452.400,3815.2946,N,14050.6393,E,1,8,1.23,146.9,M,37.1,M,,*56
$GPGGA,065452.600,3815.2946,N,14050.6393,E,1,8,1.23,146.9,M,37.1,M,,*54
$GPGGA,065452.800,3815.2946,N,14050.6393,E,1,8,1.23,146.9,M,37.1,M,,*5A
$GPGGA,065453.000,3815.2946,N,14050.6393,E,1,8,1.23,146.9,M,37.1,M,,*53
$GPGGA,065453.200,3815.2946,N,14050.6393,E,1,8,1.23,146.9,M,37.1,M,,*51
$GPGGA,065453.400,3815.2946,N,14050.6393,E,1,8,1.23,146.9,M,37.1,M,,*57
$GPGGA,065453.600,3815.2946,N,14050.6393,E,1,8,1.23,146.9,M,37.1,M,,*55
$GPGGA,065453.800,3815.2946,N,14050.6393,E,1,8,1.23,146.9,M,37.1,M,,*5B
$GPGGA,065454.000,3815.2946,N,14050.6393,E,1,8,1.23,146.9,M,37.1,M,,*54
$GPGGA,065454.200,3815.2946,N,14050.6393,E,1,8,1.23,146.9,M,37.1,M,,*56
$GPGGA,065454.400,3815.2946,N,14050.6393,E,1,8,1.23,146.9,M,37.1,M,,*50
$GPGGA,065454.600,3815.2946,N,14050.6393,E,1,8,1.23,146.9,M,37.1,M,,*52
$GPGGA,065454.800,3815.2946,N,14050.6393,E,1,8,1.23,146.9,M,37.1,M,,*5C
$GPGGA,065455.000,3815.2946,N,14050.6393,E,1,8,1.23,146.9,M,37.1,M,,*55
$GPGGA,065455.200,3815.2946,N,14050.6393,E,1,8,1.23,146.9,M,37.1,M,,*57
$GPGGA,065455.400,3815.2946,N,14050.6393,E,1,8,1.23,146.9,M,37.1,M,,*51
$GPGGA,065455.600,3815.2946,N,14050.6393,E,1,8,1.23,146.9,M,37.1,M,,*53
$GPGGA,065455.800,3815.2946,N,14050.6393,E,1,8,1.23,146.9,M,37.1,M,,*5D
$GPGGA,065456.000,3815.2946,N,14050.6393,E,1,8,1.23,146.9,M,37.1,M,,*56
$GPGGA,065456.200,3815.2946,N,14050.6393,E,1,8,1.23,146.9,M,37.1,M,,*54
$GPGGA,065456.400,3815.2946,N,14050.6393,E,1,8,1.23,146.9,M,37.1,M,,*52
$GPGGA,065456.600,3815.2946,N,14050.6393,E,1,8,1.23,146.9,M,37.1,M,,*50
$GPGGA,065456.800,3815.2946,N,14050.6393,E,1,8,1.23,146.9,M,37.1,M,,*5E
$GPGGA,065457.000,3815.2946,N,14050.6393,E,1,8,1.23,146.9,M,37.1,M,,*57
$GPGGA,065457.200,3815.2946,N,14050.6393,E,1,8,1.23,146.9,M,37.1,M,,*55
$GPGGA,065457.400,3815.2946,N,14050.6393,E,1,8,1.23,147.0,M,37.1,M,,*5B
$GPGGA,065457.600,3815.2946,N,14050.6393,E,1,8,1.23,147.0,M,37.1,M,,*59
$GPGGA,065457.800,3815.2946,N,14050.6393,E,1,8,1.23,147.0,M,37.1,M,,*57
$GPGGA,065458.000,3815.2946,N,14050.6393,E,1,8,1.23,147.0,M,37.1,M,,*50
$GPGGA,065458.200,3815.2946,N,14050.6393,E,1,8,1.23,147.0,M,37.1,M,,*52
$GPGGA,065458.400,3815.2946,N,14050.6393,E,1,8,1.23,147.0,M,37.1,M,,*54
$GPGGA,065458.600,3815.2946,N,14050.6393,E,1,8,1.23,147.0,M,37.1,M,,*56
$GPGGA,065458.800,3815.2946,N,14050.6393,E,1,9,1.04,147.0,M,37.1,M,,*5C
$GPGGA,065459.000,3815.2946,N,14050.6393,E,1,9,1.04,147.0,M,37.1,M,,*55
$GPGGA,065459.200,3815.2946,N,14050.6393,E,1,9,1.04,147.0,M,37.1,M,,*57
$GPGGA,065459.400,3815.2946,N,14050.6393,E,1,9,1.04,147.0,M,37.1,M,,*51
$GPGGA,065459.600,3815.2946,N,14050.6393,E,1,9,1.04,147.0,M,37.1,M,,*53
$GPGGA,065459.800,3815.2946,N,14050.6393,E,1,9,1.04,147.0,M,37.1,M,,*5D
$GPGGA,065500.000,3815.2946,N,14050.6393,E,1,9,1.04,147.0,M,37.1,M,,*58
$GPGGA,065500.200,3815.2946,N,14050.6393,E,1,9,1.04,147.0,M,37.1,M,,*5A
$GPGGA,065500.400,3815.2946,N,14050.6393,E,1,9,1.04,147.0,M,37.1,M,,*5C
$GPGGA,065500.600,3815.2946,N,14050.6393,E,1,9,1.04,147.0,M,37.1,M,,*5E
$GPGGA,065500.800,3815.2946,N,14050.6393,E,1,9,1.04,147.0,M,37.1,M,,*50
$GPGGA,065501.000,3815.2946,N,14050.6393,E,1,9,1.04,147.0,M,37.1,M,,*59
$GPGGA,065501.200,3815.2946,N,14050.6393,E,1,9,1.04,147.0,M,37.1,M,,*5B
$GPGGA,065501.400,3815.2946,N,14050.6393,E,1,9,1.04,147.0,M,37.1,M,,*5D
$GPGGA,065501.600,3815.2946,N,14050.6393,E,1,9,1.04,147.0,M,37.1,M,,*5F
$GPGGA,065501.800,3815.2946,N,14050.6393,E,1,9,1.04,147.0,M,37.1,M,,*51
$GPGGA,065502.000,3815.2946,N,14050.6393,E,1,9,1.04,147.0,M,37.1,M,,*5A
$GPGGA,065502.200,3815.2946,N,14050.6393,E,1,9,1.04,147.0,M,37.1,M,,*58
$GPGGA,065502.400,3815.2946,N,14050.6393,E,1,9,1.04,147.0,M,37.1,M,,*5E
$GPGGA,065502.600,3815.2946,N,14050.6393,E,1,9,1.04,147.0,M,37.1,M,,*5C
$GPGGA,065502.800,3815.2946,N,14050.6393,E,1,9,1.04,147.0,M,37.1,M,,*52
$GPGGA,065503.000,3815.2946,N,14050.6393,E,1,9,1.04,147.0,M,37.1,M,,*5B
$GPGGA,065503.200,3815.2946,N,14050.6393,E,1,9,1.04,147.0,M,37.1,M,,*59
$GPGGA,065503.400,3815.2946,N,14050.6393,E,1,9,1.04,147.0,M,37.1,M,,*5F
$GPGGA,065503.600,3815.2946,N,14050.6393,E,1,9,1.04,147.0,M,37.1,M,,*5D
$GPGGA,065503.800,3815.2946,N,14050.6393,E,1,9,1.04,147.0,M,37.1,M,,*53
$GPGGA,065504.000,3815.2946,N,14050.6393,E,1,9,1.04,147.0,M,37.1,M,,*5C
$GPGGA,065504.200,3815.2946,N,14050.6393,E,1,9,1.04,147.0,M,37.1,M,,*5E
$GPGGA,065504.400,3815.2946,N,14050.6393,E,1,9,1.04,147.0,M,37.1,M,,*58
$GPGGA,065504.600,3815.2946,N,14050.6393,E,1,9,1.04,147.0,M,37.1,M,,*5A
$GPGGA,065504.800,3815.2946,N,14050.6393,E,1,9,1.04,147.0,M,37.1,M,,*54
$GPGGA,065505.000,3815.2946,N,14050.6393,E,1,9,1.04,147.0,M,37.1,M,,*5D
$GPGGA,065505.200,3815.2946,N,14050.6393,E,1,9,1.04,147.0,M,37.1,M,,*5F
$GPGGA,065505.400,3815.2946,N,14050.6393,E,1,9,1.04,147.0,M,37.1,M,,*59
$GPGGA,065505.600,3815.2946,N,14050.6393,E,1,9,1.04,147.0,M,37.1,M,,*5B
$GPGGA,065505.800,3815.2946,N,14050.6393,E,1,9,1.04,147.0,M,37.1,M,,*55
$GPGGA,065506.000,3815.2946,N,14050.6393,E,1,9,1.04,147.0,M,37.1,M,,*5E
$GPGGA,065506.200,3815.2946,N,14050.6393,E,1,9,1.04,147.0,M,37.1,M,,*5C
$GPGGA,065506.400,3815.2946,N,14050.6393,E,1,9,1.04,147.0,M,37.1,M,,*5A
$GPGGA,065506.600,3815.2946,N,14050.6393,E,1,9,1.04,147.0,M,37.1,M,,*58
$GPGGA,065506.800,3815.2946,N,14050.6393,E,1,9,1.04,147.0,M,37.1,M,,*56
$GPGGA,065507.000,3815.2946,N,14050.6393,E,1,9,1.04,147.1,M,37.1,M,,*5E
$GPGGA,065507.200,3815.2946,N,14050.6393,E,1,9,1.04,147.1,M,37.1,M,,*5C
$GPGGA,065507.400,3815.2946,N,14050.6393,E,1,9,1.04,147.1,M,37.1,M,,*5A
$GPGGA,065507.600,3815.2946,N,14050.6393,E,1,9,1.04,147.1,M,37.1,M,,*58
$GPGGA,065507.800,3815.2946,N,14050.6393,E,1,9,1.04,147.1,M,37.1,M,,*56
$GPGGA,065508.000,3815.2946,N,14050.6393,E,1,9,1.04,147.1,M,37.1,M,,*51
$GPGGA,065508.200,3815.2946,N,14050.6393,E,1,9,1.04,147.1,M,37.1,M,,*53
$GPGGA,065508.400,3815.2946,N,14050.6393,E,1,9,1.04,147.1,M,37.1,M,,*55
$GPGGA,065508.600,3815.2946,N,14050.6393,E,1,9,1.04,147.1,M,37.1,M,,*57
$GPGGA,065508.800,3815.2946,N,14050.6393,E,1,9,1.04,147.1,M,37.1,M,,*59
$GPGGA,065509.000,3815.2945,N,14050.6393,E,1,9,1.04,147.1,M,37.1,M,,*53
$GPGGA,065509.200,3815.2945,N,14050.6393,E,1,9,1.04,147.1,M,37.1,M,,*51
$GPGGA,065509.400,3815.2945,N,14050.6393,E,1,9,1.04,147.1,M,37.1,M,,*57
$GPGGA,065509.600,3815.2945,N,14050.6393,E,1,9,1.04,147.1,M,37.1,M,,*55
$GPGGA,065509.800,3815.2945,N,14050.6393,E,1,9,1.04,147.1,M,37.1,M,,*5B
$GPGGA,065510.000,3815.2945,N,14050.6393,E,1,9,1.04,147.1,M,37.1,M,,*5B
$GPGGA,065510.200,3815.2945,N,14050.6393,E,1,9,1.04,147.1,M,37.1,M,,*59
$GPGGA,065510.400,3815.2945,N,14050.6393,E,1,9,1.04,147.1,M,37.1,M,,*5F
$GPGGA,065510.600,3815.2945,N,14050.6393,E,1,9,1.04,147.1,M,37.1,M,,*5D
$GPGGA,065510.800,3815.2945,N,14050.6393,E,1,9,1.04,147.1,M,37.1,M,,*53
$GPGGA,065511.000,3815.2945,N,14050.6393,E,1,9,1.04,147.1,M,37.1,M,,*5A
$GPGGA,065511.200,3815.2945,N,14050.6393,E,1,9,1.04,147.1,M,37.1,M,,*58
$GPGGA,065511.400,3815.2945,N,14050.6393,E,1,9,1.04,147.1,M,37.1,M,,*5E
$GPGGA,065511.600,3815.2945,N,14050.6393,E,1,9,1.04,147.1,M,37.1,M,,*5C
$GPGGA,065511.800,3815.2945,N,14050.6393,E,1,9,1.04,147.1,M,37.1,M,,*52
$GPGGA,065512.000,3815.2945,N,14050.6393,E,1,9,1.04,147.1,M,37.1,M,,*59
$GPGGA,065512.200,3815.2945,N,14050.6393,E,1,9,1.04,147.1,M,37.1,M,,*5B
$GPGGA,065512.400,3815.2945,N,14050.6393,E,1,9,1.04,147.1,M,37.1,M,,*5D
$GPGGA,065512.600,3815.2945,N,14050.6393,E,1,9,1.04,147.1,M,37.1,M,,*5F
$GPGGA,065512.800,3815.2945,N,14050.6393,E,1,9,1.04,147.2,M,37.1,M,,*52
$GPGGA,065513.000,3815.2945,N,14050.6393,E,1,9,1.04,147.2,M,37.1,M,,*5B
$GPGGA,065513.200,3815.2945,N,14050.6393,E,1,9,1.04,147.2,M,37.1,M,,*59
$GPGGA,065513.400,3815.2945,N,14050.6393,E,1,9,1.04,147.2,M,37.1,M,,*5F
$GPGGA,065513.600,3815.2945,N,14050.6393,E,1,9,1.04,147.2,M,37.1,M,,*5D
$GPGGA,065513.800,3815.2945,N,14050.6393,E,1,9,1.04,147.2,M,37.1,M,,*53
$GPGGA,065514.000,3815.2945,N,14050.6393,E,1,9,1.04,147.2,M,37.1,M,,*5C
$GPGGA,065514.200,3815.2945,N,14050.6393,E,1,9,1.04,147.2,M,37.1,M,,*5E
$GPGGA,065514.400,3815.2945,N,14050.6393,E,1,9,1.04,147.2,M,37.1,M,,*58
$GPGGA,065514.600,3815.2945,N,14050.6393,E,1,9,1.04,147.2,M,37.1,M,,*5A
$GPGGA,065514.800,3815.2945,N,14050.6393,E,1,9,1.04,147.2,M,37.1,M,,*54
$GPGGA,065515.000,3815.2945,N,14050.6393,E,1,9,1.04,147.2,M,37.1,M,,*5D
$GPGGA,065515.200,3815.2945,N,14050.6393,E,1,9,1.04,147.2,M,37.1,M,,*5F
$GPGGA,065515.400,3815.2945,N,14050.6393,E,1,9,1.04,147.2,M,37.1,M,,*59
$GPGGA,065515.600,3815.2945,N,14050.6393,E,1,9,1.04,147.2,M,37.1,M,,*5B
$GPGGA,065515.800,3815.2945,N,14050.6393,E,1,9,1.04,147.2,M,37.1,M,,*55
$GPGGA,065516.000,3815.2945,N,14050.6393,E,1,9,1.04,147.2,M,37.1,M,,*5E
$GPGGA,065516.200,3815.2945,N,14050.6393,E,1,9,1.04,147.2,M,37.1,M,,*5C
$GPGGA,065516.400,3815.2945,N,14050.6393,E,1,9,1.04,147.2,M,37.1,M,,*5A
$GPGGA,065516.600,3815.2945,N,14050.6393,E,1,9,1.04,147.2,M,37.1,M,,*58
$GPGGA,065516.800,3815.2945,N,14050.6393,E,1,9,1.04,147.2,M,37.1,M,,*56
$GPGGA,065517.000,3815.2945,N,14050.6393,E,1,9,1.04,147.2,M,37.1,M,,*5F
$GPGGA,065517.200,3815.2945,N,14050.6393,E,1,9,1.04,147.2,M,37.1,M,,*5D
$GPGGA,065517.400,3815.2945,N,14050.6393,E,1,9,1.04,147.2,M,37.1,M,,*5B
$GPGGA,065517.600,3815.2945,N,14050.6393,E,1,9,1.04,147.2,M,37.1,M,,*59
$GPGGA,065517.800,3815.2945,N,14050.6393,E,1,9,1.04,147.2,M,37.1,M,,*57
$GPGGA,065518.000,3815.2945,N,14050.6393,E,1,9,1.04,147.2,M,37.1,M,,*50
$GPGGA,065518.200,3815.2945,N,14050.6393,E,1,9,1.04,147.2,M,37.1,M,,*52
$GPGGA,065518.400,3815.2945,N,14050.6393,E,1,9,1.04,147.2,M,37.1,M,,*54
$GPGGA,065518.600,3815.2945,N,14050.6393,E,1,9,1.04,147.3,M,37.1,M,,*57
$GPGGA,065518.800,3815.2945,N,14050.6393,E,1,9,1.04,147.3,M,37.1,M,,*59
$GPGGA,065519.000,3815.2945,N,14050.6393,E,1,9,1.04,147.3,M,37.1,M,,*50
$GPGGA,065519.200,3815.2945,N,14050.6393,E,1,9,1.04,147.3,M,37.1,M,,*52
$GPGGA,065519.400,3815.2945,N,14050.6393,E,1,9,1.04,147.3,M,37.1,M,,*54
$GPGGA,065519.600,3815.2945,N,14050.6393,E,1,9,1.04,147.3,M,37.1,M,,*56
$GPGGA,065519.800,3815.2945,N,14050.6393,E,1,9,1.04,147.3,M,37.1,M,,*58
$GPGGA,065520.000,3815.2945,N,14050.6393,E,1,9,1.04,147.3,M,37.1,M,,*5A
$GPGGA,065520.200,3815.2945,N,14050.6393,E,1,9,1.04,147.3,M,37.1,M,,*58
$GPGGA,065520.400,3815.2945,N,14050.6393,E,1,9,1.04,147.3,M,37.1,M,,*5E
$GPGGA,065520.600,3815.2945,N,14050.6393,E,1,9,1.04,147.3,M,37.1,M,,*5C
$GPGGA,065520.800,3815.2945,N,14050.6393,E,1,9,1.04,147.3,M,37.1,M,,*52
$GPGGA,065521.000,3815.2945,N,14050.6393,E,1,9,1.04,147.3,M,37.1,M,,*5B
$GPGGA,065521.200,3815.2945,N,14050.6393,E,1,9,1.04,147.3,M,37.1,M,,*59
$GPGGA,065521.400,3815.2945,N,14050.6393,E,1,9,1.04,147.3,M,37.1,M,,*5F
$GPGGA,065521.600,3815.2945,N,14050.6393,E,1,9,1.04,147.3,M,37.1,M,,*5D
$GPGGA,065521.800,3815.2945,N,14050.6393,E,1,9,1.04,147.3,M,37.1,M,,*53
$GPGGA,065522.000,3815.2945,N,14050.6393,E,1,9,1.04,147.3,M,37.1,M,,*58
$GPGGA,065522.200,3815.2945,N,14050.6393,E,1,9,1.04,147.3,M,37.1,M,,*5A
$GPGGA,065522.400,3815.2945,N,14050.6393,E,1,9,1.04,147.3,M,37.1,M,,*5C
$GPGGA,065522.600,3815.2945,N,14050.6393,E,1,9,1.04,147.3,M,37.1,M,,*5E
$GPGGA,065522.800,3815.2945,N,14050.6393,E,1,9,1.04,147.3,M,37.1,M,,*50
$GPGGA,065523.000,3815.2945,N,14050.6393,E,1,9,1.04,147.3,M,37.1,M,,*59
$GPGGA,065523.200,3815.2945,N,14050.6393,E,1,9,1.04,147.3,M,37.1,M,,*5B
$GPGGA,065523.400,3815.2945,N,14050.6393,E,1,9,1.04,147.3,M,37.1,M,,*5D
$GPGGA,065523.600,3815.2945,N,14050.6393,E,1,9,1.04,147.3,M,37.1,M,,*5F
$GPGGA,065523.800,3815.2945,N,14050.6393,E,1,9,1.04,147.3,M,37.1,M,,*51
$GPGGA,065524.000,3815.2945,N,14050.6393,E,1,9,1.04,147.4,M,37.1,M,,*59
$GPGGA,065524.200,3815.2945,N,14050.6393,E,1,9,1.04,147.4,M,37.1,M,,*5B
$GPGGA,065524.400,3815.2945,N,14050.6393,E,1,9,1.04,147.4,M,37.1,M,,*5D
$GPGGA,065524.600,3815.2945,N,14050.6393,E,1,9,1.04,147.4,M,37.1,M,,*5F
$GPGGA,065524.800,3815.2945,N,14050.6393,E,1,9,1.04,147.4,M,37.1,M,,*51
$GPGGA,065525.000,3815.2945,N,14050.6393,E,1,9,1.04,147.4,M,37.1,M,,*58
$GPGGA,065525.200,3815.2945,N,14050.6393,E,1,9,1.04,147.4,M,37.1,M,,*5A
$GPGGA,065525.400,3815.2945,N,14050.6393,E,1,9,1.04,147.4,M,37.1,M,,*5C
$GPGGA,065525.600,3815.2945,N,14050.6393,E,1,9,1.04,147.4,M,37.1,M,,*5E
$GPGGA,065525.800,3815.2945,N,14050.6393,E,1,9,1.04,147.4,M,37.1,M,,*50
$GPGGA,065526.000,3815.2945,N,14050.6393,E,1,9,1.04,147.4,M,37.1,M,,*5B
$GPGGA,065526.200,3815.2945,N,14050.6393,E,1,9,1.04,147.4,M,37.1,M,,*59
$GPGGA,065526.400,3815.2945,N,14050.6393,E,1,9,1.04,147.4,M,37.1,M,,*5F
$GPGGA,065526.600,3815.2945,N,14050.6393,E,1,9,1.04,147.4,M,37.1,M,,*5D
$GPGGA,065526.800,3815.2945,N,14050.6393,E,1,9,1.04,147.4,M,37.1,M,,*53
$GPGGA,065527.000,3815.2945,N,14050.6393,E,1,9,1.04,147.4,M,37.1,M,,*5A
$GPGGA,065527.200,3815.2945,N,14050.6393,E,1,9,1.04,147.4,M,37.1,M,,*58
$GPGGA,065527.400,3815.2945,N,14050.6393,E,1,9,1.04,147.4,M,37.1,M,,*5E
$GPGGA,065527.600,3815.2945,N,14050.6393,E,1,9,1.04,147.4,M,37.1,M,,*5C
$GPGGA,065527.800,3815.2945,N,14050.6393,E,1,9,1.04,147.4,M,37.1,M,,*52
$GPGGA,065528.000,3815.2945,N,14050.6393,E,1,9,1.04,147.4,M,37.1,M,,*55
$GPGGA,065528.200,3815.2945,N,14050.6393,E,1,9,1.04,147.4,M,37.1,M,,*57
$GPGGA,065528.400,3815.2945,N,14050.6393,E,1,9,1.04,147.4,M,37.1,M,,*51
$GPGGA,065528.600,3815.2945,N,14050.6393,E,1,9,1.04,147.4,M,37.1,M,,*53
$GPGGA,065528.800,3815.2945,N,14050.6393,E,1,9,1.04,147.4,M,37.1,M,,*5D
$GPGGA,065529.000,3815.2945,N,14050.6393,E,1,8,1.23,147.4,M,37.1,M,,*50
$GPGGA,065529.200,3815.2945,N,14050.6393,E,1,8,1.23,147.4,M,37.1,M,,*52
$GPGGA,065529.400,3815.2945,N,14050.6393,E,1,9,1.04,147.4,M,37.1,M,,*50
$GPGGA,065529.600,3815.2945,N,14050.6393,E,1,9,1.04,147.4,M,37.1,M,,*52
$GPGGA,065529.800,3815.2945,N,14050.6393,E,1,9,1.04,147.4,M,37.1,M,,*5C
$GPGGA,065530.000,3815.2945,N,14050.6393,E,1,8,1.23,147.4,M,37.1,M,,*58
$GPGGA,065530.200,3815.2945,N,14050.6393,E,1,8,1.23,147.4,M,37.1,M,,*5A
$GPGGA,065530.400,3815.2945,N,14050.6393,E,1,9,1.04,147.4,M,37.1,M,,*58
$GPGGA,065530.600,3815.2945,N,14050.6393,E,1,9,1.04,147.4,M,37.1,M,,*5A
$GPGGA,065530.800,3815.2945,N,14050.6393,E,1,9,1.04,147.4,M,37.1,M,,*54
$GPGGA,065531.000,3815.2945,N,14050.6393,E,1,9,1.04,147.4,M,37.1,M,,*5D
$GPGGA,065531.200,3815.2945,N,14050.6393,E,1,9,1.04,147.5,M,37.1,M,,*5E
$GPGGA,065531.400,3815.2945,N,14050.6393,E,1,9,1.04,147.5,M,37.1,M,,*58
$GPGGA,065531.600,3815.2945,N,14050.6393,E,1,9,1.04,147.5,M,37.1,M,,*5A
$GPGGA,065531.800,3815.2945,N,14050.6393,E,1,9,1.04,147.5,M,37.1,M,,*54
$GPGGA,065532.000,3815.2945,N,14050.6393,E,1,9,1.04,147.5,M,37.1,M,,*5F
$GPGGA,065532.200,3815.2945,N,14050.6393,E,1,9,1.23,147.5,M,37.1,M,,*58
$GPGGA,065532.400,3815.2945,N,14050.6393,E,1,8,1.23,147.5,M,37.1,M,,*5F
$GPGGA,065532.600,3815.2945,N,14050.6393,E,1,8,1.23,147.5,M,37.1,M,,*5D
$GPGGA,065532.800,3815.2945,N,14050.6393,E,1,8,1.23,147.5,M,37.1,M,,*53
$GPGGA,065533.000,3815.2945,N,14050.6393,E,1,8,1.23,147.5,M,37.1,M,,*5A
$GPGGA,065533.200,3815.2945,N,14050.6393,E,1,8,1.23,147.5,M,37.1,M,,*58
$GPGGA,065533.400,3815.2945,N,14050.6393,E,1,8,1.23,147.5,M,37.1,M,,*5E
$GPGGA,065533.600,3815.2945,N,14050.6393,E,1,8,1.23,147.5,M,37.1,M,,*5C
$GPGGA,065533.800,3815.2945,N,14050.6393,E,1,8,1.23,147.5,M,37.1,M,,*52
$GPGGA,065534.000,3815.2945,N,14050.6393,E,1,8,1.23,147.5,M,37.1,M,,*5D
$GPGGA,065534.200,3815.2945,N,14050.6393,E,1,8,1.23,147.5,M,37.1,M,,*5F
$GPGGA,065534.400,3815.2945,N,14050.6393,E,1,8,1.23,147.5,M,37.1,M,,*59
$GPGGA,065534.600,3815.2945,N,14050.6393,E,1,8,1.23,147.5,M,37.1,M,,*5B
$GPGGA,065534.800,3815.2945,N,14050.6393,E,1,8,1.23,147.5,M,37.1,M,,*55
$GPGGA,065535.000,3815.2945,N,14050.6393,E,1,8,1.23,147.5,M,37.1,M,,*5C
$GPGGA,065535.200,3815.2945,N,14050.6393,E,1,8,1.23,147.5,M,37.1,M,,*5E
$GPGGA,065535.400,3815.2945,N,14050.6393,E,1,8,1.23,147.5,M,37.1,M,,*58
$GPGGA,065535.600,3815.2945,N,14050.6393,E,1,8,1.23,147.5,M,37.1,M,,*5A
$GPGGA,065535.800,3815.2945,N,14050.6393,E,1,9,1.15,147.5,M,37.1,M,,*50
$GPGGA,065536.000,3815.2945,N,14050.6393,E,1,9,1.15,147.5,M,37.1,M,,*5B
$GPGGA,065536.200,3815.2945,N,14050.6393,E,1,9,1.15,147.5,M,37.1,M,,*59
$GPGGA,065536.400,3815.2945,N,14050.6393,E,1,9,1.15,147.5,M,37.1,M,,*5F
$GPGGA,065536.600,3815.2945,N,14050.6393,E,1,9,1.15,147.5,M,37.1,M,,*5D
$GPGGA,065536.800,3815.2945,N,14050.6393,E,1,9,1.15,147.5,M,37.1,M,,*53
$GPGGA,065537.000,3815.2945,N,14050.6393,E,1,9,1.15,147.5,M,37.1,M,,*5A
$GPGGA,065537.200,3815.2945,N,14050.6393,E,1,9,1.15,147.5,M,37.1,M,,*58
$GPGGA,065537.400,3815.2945,N,14050.6393,E,1,9,1.15,147.5,M,37.1,M,,*5E
$GPGGA,065537.600,3815.2945,N,14050.6393,E,1,9,1.15,147.5,M,37.1,M,,*5C
$GPGGA,065537.800,3815.2945,N,14050.6393,E,1,9,1.15,147.5,M,37.1,M,,*52
$GPGGA,065538.000,3815.2945,N,14050.6393,E,1,9,1.15,147.5,M,37.1,M,,*55
$GPGGA,065538.200,3815.2945,N,14050.6393,E,1,9,1.15,147.5,M,37.1,M,,*57
$GPGGA,065538.400,3815.2945,N,14050.6393,E,1,9,1.15,147.5,M,37.1,M,,*51
$GPGGA,065538.600,3815.2945,N,14050.6393,E,1,9,1.15,147.5,M,37.1,M,,*53
$GPGGA,065538.800,3815.2944,N,14050.6393,E,1,9,1.15,147.5,M,37.1,M,,*5C
$GPGGA,065539.000,3815.2944,N,14050.6393,E,1,9,1.15,147.5,M,37.1,M,,*55
$GPGGA,065539.200,3815.2944,N,14050.6393,E,1,9,1.15,147.5,M,37.1,M,,*57
$GPGGA,065539.400,3815.2944,N,14050.6393,E,1,9,1.15,147.5,M,37.1,M,,*51
$GPGGA,065539.600,3815.2944,N,14050.6393,E,1,9,1.15,147.5,M,37.1,M,,*53
$GPGGA,065539.800,3815.2944,N,14050.6393,E,1,9,1.15,147.5,M,37.1,M,,*5D
$GPGGA,065540.000,3815.2944,N,14050.6393,E,1,9,1.15,147.5,M,37.1,M,,*5B
$GPGGA,065540.200,3815.2944,N,14050.6393,E,1,9,1.15,147.6,M,37.1,M,,*5A
$GPGGA,065540.400,3815.2944,N,14050.6393,E,1,9,1.15,147.6,M,37.1,M,,*5C
$GPGGA,065540.600,3815.2944,N,14050.6393,E,1,9,1.15,147.6,M,37.1,M,,*5E
$GPGGA,065540.800,3815.2944,N,14050.6393,E,1,9,1.15,147.6,M,37.1,M,,*50
$GPGGA,065541.000,3815.2944,N,14050.6393,E,1,9,1.15,147.6,M,37.1,M,,*59
$GPGGA,065541.200,3815.2944,N,14050.6393,E,1,9,1.15,147.6,M,37.1,M,,*5B
$GPGGA,065541.400,3815.2944,N,14050.6393,E,1,9,1.15,147.6,M,37.1,M,,*5D
$GPGGA,065541.600,3815.2944,N,14050.6393,E,1,9,1.15,147.6,M,37.1,M,,*5F
$GPGGA,065541.800,3815.2944,N,14050.6393,E,1,9,1.15,147.6,M,37.1,M,,*51
$GPGGA,065542.000,3815.2944,N,14050.6393,E,1,9,1.15,147.6,M,37.1,M,,*5A
$GPGGA,065542.200,3815.2944,N,14050.6393,E,1,9,1.15,147.6,M,37.1,M,,*58
$GPGGA,065542.400,3815.2944,N,14050.6393,E,1,9,1.15,147.6,M,37.1,M,,*5E
$GPGGA,065542.600,3815.2944,N,14050.6393,E,1,9,1.15,147.6,M,37.1,M,,*5C
$GPGGA,065542.800,3815.2944,N,14050.6393,E,1,9,1.15,147.6,M,37.1,M,,*52
$GPGGA,065543.000,3815.2944,N,14050.6393,E,1,9,1.15,147.6,M,37.1,M,,*5B
$GPGGA,065543.200,3815.2944,N,14050.6393,E,1,9,1.15,147.6,M,37.1,M,,*59
$GPGGA,065543.400,3815.2944,N,14050.6393,E,1,9,1.15,147.6,M,37.1,M,,*5F
$GPGGA,065543.600,3815.2944,N,14050.6393,E,1,9,1.15,147.6,M,37.1,M,,*5D
$GPGGA,065543.800,3815.2944,N,14050.6393,E,1,9,1.15,147.6,M,37.1,M,,*53
$GPGGA,065544.000,3815.2944,N,14050.6393,E,1,9,1.15,147.6,M,37.1,M,,*5C
$GPGGA,065544.200,3815.2944,N,14050.6393,E,1,9,1.15,147.6,M,37.1,M,,*5E
$GPGGA,065544.400,3815.2944,N,14050.6393,E,1,9,1.15,147.6,M,37.1,M,,*58
$GPGGA,065544.600,3815.2944,N,14050.6393,E,1,9,1.15,147.6,M,37.1,M,,*5A
$GPGGA,065544.800,3815.2944,N,14050.6393,E,1,9,1.15,147.6,M,37.1,M,,*54
$GPGGA,065545.000,3815.2944,N,14050.6393,E,1,9,1.15,147.6,M,37.1,M,,*5D
$GPGGA,065545.200,3815.2944,N,14050.6393,E,1,9,1.15,147.6,M,37.1,M,,*5F
$GPGGA,065545.400,3815.2944,N,14050.6393,E,1,9,1.15,147.6,M,37.1,M,,*59
$GPGGA,065545.600,3815.2944,N,14050.6393,E,1,9,1.15,147.6,M,37.1,M,,*5B
$GPGGA,065545.800,3815.2944,N,14050.6393,E,1,9,1.15,147.6,M,37.1,M,,*55
$GPGGA,065546.000,3815.2944,N,14050.6393,E,1,9,1.15,147.6,M,37.1,M,,*5E
$GPGGA,065546.200,3815.2944,N,14050.6393,E,1,9,1.15,147.6,M,37.1,M,,*5C
$GPGGA,065546.400,3815.2944,N,14050.6393,E,1,9,1.15,147.6,M,37.1,M,,*5A
$GPGGA,065546.600,3815.2944,N,14050.6393,E,1,9,1.15,147.6,M,37.1,M,,*58
$GPGGA,065546.800,3815.2944,N,14050.6393,E,1,9,1.15,147.6,M,37.1,M,,*56
$GPGGA,065547.000,3815.2944,N,14050.6393,E,1,9,1.15,147.6,M,37.1,M,,*5F
$GPGGA,065547.200,3815.2944,N,14050.6393,E,1,9,1.15,147.6,M,37.1,M,,*5D
$GPGGA,065547.400,3815.2944,N,14050.6393,E,1,9,1.15,147.6,M,37.1,M,,*5B
$GPGGA,065547.600,3815.2944,N,14050.6393,E,1,9,1.15,147.6,M,37.1,M,,*59
$GPGGA,065547.800,3815.2944,N,14050.6393,E,1,9,1.15,147.6,M,37.1,M,,*57
$GPGGA,065548.000,3815.2944,N,14050.6393,E,1,9,1.15,147.6,M,37.1,M,,*50
$GPGGA,065548.200,3815.2944,N,14050.6393,E,1,9,1.15,147.6,M,37.1,M,,*52
$GPGGA,065548.400,3815.2944,N,14050.6393,E,1,9,1.15,147.6,M,37.1,M,,*54
$GPGGA,065548.600,3815.2944,N,14050.6393,E,1,9,1.15,147.6,M,37.1,M,,*56
$GPGGA,065548.800,3815.2944,N,14050.6393,E,1,9,1.15,147.6,M,37.1,M,,*58
$GPGGA,065549.000,3815.2944,N,14050.6393,E,1,9,1.15,147.6,M,37.1,M,,*51
$GPGGA,065549.200,3815.2944,N,14050.6393,E,1,9,1.15,147.6,M,37.1,M,,*53
$GPGGA,065549.400,3815.2944,N,14050.6393,E,1,9,1.15,147.6,M,37.1,M,,*55
$GPGGA,065549.600,3815.2944,N,14050.6393,E,1,9,1.15,147.6,M,37.1,M,,*57
$GPGGA,065549.800,3815.2944,N,14050.6393,E,1,9,1.15,147.6,M,37.1,M,,*59
$GPGGA,065550.000,3815.2944,N,14050.6393,E,1,9,1.15,147.6,M,37.1,M,,*59
$GPGGA,065550.200,3815.2944,N,14050.6393,E,1,9,1.15,147.6,M,37.1,M,,*5B
$GPGGA,065550.400,3815.2944,N,14050.6393,E,1,9,1.15,147.6,M,37.1,M,,*5D
$GPGGA,065550.600,3815.2944,N,14050.6393,E,1,9,1.15,147.6,M,37.1,M,,*5F
$GPGGA,065550.800,3815.2944,N,14050.6393,E,1,9,1.15,147.6,M,37.1,M,,*51
$GPGGA,065551.000,3815.2944,N,14050.6393,E,1,9,1.15,147.6,M,37.1,M,,*58
$GPGGA,065551.200,3815.2944,N,14050.6393,E,1,9,1.15,147.6,M,37.1,M,,*5A
$GPGGA,065551.400,3815.2944,N,14050.6393,E,1,9,1.15,147.6,M,37.1,M,,*5C
$GPGGA,065551.600,3815.2944,N,14050.6393,E,1,9,1.15,147.6,M,37.1,M,,*5E
$GPGGA,065551.800,3815.2944,N,14050.6393,E,1,9,1.15,147.6,M,37.1,M,,*50
$GPGGA,065552.000,3815.2944,N,14050.6393,E,1,9,1.15,147.6,M,37.1,M,,*5B
$GPGGA,065552.200,3815.2944,N,14050.6393,E,1,9,1.15,147.6,M,37.1,M,,*59
$GPGGA,065552.400,3815.2944,N,14050.6393,E,1,9,1.15,147.6,M,37.1,M,,*5F
$GPGGA,065552.600,3815.2944,N,14050.6393,E,1,9,1.15,147.6,M,37.1,M,,*5D
$GPGGA,065552.800,3815.2944,N,14050.6393,E,1,9,1.15,147.6,M,37.1,M,,*53
$GPGGA,065553.000,3815.2944,N,14050.6393,E,1,9,1.15,147.6,M,37.1,M,,*5A
$GPGGA,065553.200,3815.2944,N,14050.6393,E,1,9,1.15,147.6,M,37.1,M,,*58
$GPGGA,065553.400,3815.2944,N,14050.6393,E,1,9,1.15,147.6,M,37.1,M,,*5E
$GPGGA,065553.600,3815.2944,N,14050.6393,E,1,9,1.15,147.6,M,37.1,M,,*5C
$GPGGA,065553.800,3815.2944,N,14050.6393,E,1,9,1.15,147.6,M,37.1,M,,*52
$GPGGA,065554.000,3815.2944,N,14050.6393,E,1,9,1.15,147.6,M,37.1,M,,*5D
$GPGGA,065554.200,3815.2944,N,14050.6393,E,1,9,1.15,147.6,M,37.1,M,,*5F
$GPGGA,065554.400,3815.2944,N,14050.6393,E,1,9,1.15,147.6,M,37.1,M,,*59
$GPGGA,065554.600,3815.2944,N,14050.6393,E,1,9,1.15,147.6,M,37.1,M,,*5B
$GPGGA,065554.800,3815.2944,N,14050.6393,E,1,9,1.15,147.6,M,37.1,M,,*55
$GPGGA,065555.000,3815.2944,N,14050.6393,E,1,9,1.15,147.6,M,37.1,M,,*5C
$GPGGA,065555.200,3815.2944,N,14050.6393,E,1,9,1.15,147.6,M,37.1,M,,*5E
$GPGGA,065555.400,3815.2944,N,14050.6393,E,1,9,1.15,147.6,M,37.1,M,,*58
$GPGGA,065555.600,3815.2944,N,14050.6393,E,1,9,1.15,147.6,M,37.1,M,,*5A
$GPGGA,065555.800,3815.2944,N,14050.6393,E,1,9,1.15,147.6,M,37.1,M,,*54
$GPGGA,065556.000,3815.2944,N,14050.6393,E,1,9,1.15,147.6,M,37.1,M,,*5F
$GPGGA,065556.200,3815.2944,N,14050.6393,E,1,9,1.15,147.6,M,37.1,M,,*5D
$GPGGA,065556.400,3815.2944,N,14050.6393,E,1,9,1.15,147.6,M,37.1,M,,*5B
$GPGGA,065556.600,3815.2944,N,14050.6393,E,1,9,1.15,147.6,M,37.1,M,,*59
$GPGGA,065556.800,3815.2944,N,14050.6393,E,1,9,1.15,147.6,M,37.1,M,,*57
$GPGGA,065557.000,3815.2944,N,14050.6393,E,1,9,1.15,147.6,M,37.1,M,,*5E
$GPGGA,065557.200,3815.2944,N,14050.6393,E,1,9,1.15,147.6,M,37.1,M,,*5C
$GPGGA,065557.400,3815.2943,N,14050.6393,E,1,9,1.15,147.6,M,37.1,M,,*5D
$GPGGA,065557.600,3815.2943,N,14050.6393,E,1,9,1.15,147.6,M,37.1,M,,*5F
$GPGGA,065557.800,3815.2943,N,14050.6393,E,1,9,1.15,147.6,M,37.1,M,,*51
$GPGGA,065558.000,3815.2943,N,14050.6393,E,1,9,1.15,147.6,M,37.1,M,,*56
$GPGGA,065558.200,3815.2943,N,14050.6393,E,1,9,1.15,147.6,M,37.1,M,,*54
$GPGGA,065558.400,3815.2943,N,14050.6393,E,1,9,1.15,147.6,M,37.1,M,,*52
$GPGGA,065558.600,3815.2943,N,14050.6393,E,1,9,1.15,147.6,M,37.1,M,,*50
$GPGGA,065558.800,3815.2943,N,14050.6393,E,1,9,1.15,147.7,M,37.1,M,,*5F
$GPGGA,065559.000,3815.2943,N,14050.6393,E,1,9,1.15,147.7,M,37.1,M,,*56
$GPGGA,065559.200,3815.2943,N,14050.6393,E,1,9,1.15,147.7,M,37.1,M,,*54
$GPGGA,065559.400,3815.2943,N,14050.6393,E,1,9,1.15,147.7,M,37.1,M,,*52
$GPGGA,065559.600,3815.2943,N,14050.6393,E,1,9,1.15,147.7,M,37.1,M,,*50
$GPGGA,065559.800,3815.2943,N,14050.6393,E,1,9,1.15,147.7,M,37.1,M,,*5E
$GPGGA,065600.000,3815.2943,N,14050.6393,E,1,9,1.15,147.7,M,37.1,M,,*59
$GPGGA,065600.200,3815.2943,N,14050.6393,E,1,9,1.15,147.7,M,37.1,M,,*5B
$GPGGA,065600.400,3815.2943,N,14050.6393,E,1,9,1.15,147.7,M,37.1,M,,*5D
$GPGGA,065600.600,3815.2943,N,14050.6393,E,1,9,1.15,147.7,M,37.1,M,,*5F
$GPGGA,065600.800,3815.2943,N,14050.6393,E,1,9,1.15,147.7,M,37.1,M,,*51
$GPGGA,065601.000,3815.2943,N,14050.6393,E,1,9,1.15,147.7,M,37.1,M,,*58
$GPGGA,065601.200,3815.2943,N,14050.6393,E,1,9,1.15,147.7,M,37.1,M,,*5A
$GPGGA,065601.400,3815.2943,N,14050.6393,E,1,9,1.15,147.7,M,37.1,M,,*5C
$GPGGA,065601.600,3815.2943,N,14050.6393,E,1,9,1.15,147.7,M,37.1,M,,*5E
$GPGGA,065601.800,3815.2943,N,14050.6393,E,1,9,1.15,147.7,M,37.1,M,,*50
$GPGGA,065602.000,3815.2943,N,14050.6392,E,1,9,1.15,147.7,M,37.1,M,,*5A
$GPGGA,065602.200,3815.2943,N,14050.6392,E,1,9,1.15,147.7,M,37.1,M,,*58
$GPGGA,065602.400,3815.2943,N,14050.6392,E,1,9,1.15,147.7,M,37.1,M,,*5E
$GPGGA,065602.600,3815.2943,N,14050.6392,E,1,9,1.15,147.7,M,37.1,M,,*5C
$GPGGA,065602.800,3815.2943,N,14050.6392,E,1,9,1.15,147.7,M,37.1,M,,*52
$GPGGA,065603.000,3815.2943,N,14050.6392,E,1,9,1.15,147.7,M,37.1,M,,*5B
$GPGGA,065603.200,3815.2943,N,14050.6392,E,1,9,1.15,147.7,M,37.1,M,,*59
$GPGGA,065603.400,3815.2943,N,14050.6392,E,1,9,1.15,147.7,M,37.1,M,,*5F
$GPGGA,065603.600,3815.2943,N,14050.6392,E,1,9,1.15,147.7,M,37.1,M,,*5D
$GPGGA,065603.800,3815.2943,N,14050.6392,E,1,9,1.15,147.7,M,37.1,M,,*53
$GPGGA,065604.000,3815.2943,N,14050.6392,E,1,9,1.15,147.7,M,37.1,M,,*5C
$GPGGA,065604.200,3815.2943,N,14050.6392,E,1,9,1.15,147.7,M,37.1,M,,*5E
$GPGGA,065604.400,3815.2943,N,14050.6392,E,1,9,1.15,147.7,M,37.1,M,,*58
$GPGGA,065604.600,3815.2943,N,14050.6392,E,1,9,1.15,147.7,M,37.1,M,,*5A
$GPGGA,065604.800,3815.2943,N,14050.6392,E,1,9,1.15,147.7,M,37.1,M,,*54
$GPGGA,065605.000,3815.2943,N,14050.6392,E,1,9,1.15,147.7,M,37.1,M,,*5D
$GPGGA,065605.200,3815.2943,N,14050.6392,E,1,9,1.15,147.7,M,37.1,M,,*5F
$GPGGA,065605.400,3815.2943,N,14050.6392,E,1,9,1.15,147.7,M,37.1,M,,*59
$GPGGA,065605.600,3815.2943,N,14050.6392,E,1,9,1.15,147.7,M,37.1,M,,*5B
$GPGGA,065605.800,3815.2943,N,14050.6392,E,1,9,1.15,147.7,M,37.1,M,,*55
$GPGGA,065606.000,3815.2943,N,14050.6392,E,1,9,1.15,147.7,M,37.1,M,,*5E
$GPGGA,065606.200,3815.2943,N,14050.6392,E,1,9,1.15,147.7,M,37.1,M,,*5C
$GPGGA,065606.400,3815.2943,N,14050.6392,E,1,9,1.15,147.7,M,37.1,M,,*5A
$GPGGA,065606.600,3815.2943,N,14050.6392,E,1,9,1.15,147.7,M,37.1,M,,*58
$GPGGA,065606.800,3815.2943,N,14050.6392,E,1,9,1.15,147.7,M,37.1,M,,*56
$GPGGA,065607.000,3815.2943,N,14050.6392,E,1,9,1.15,147.7,M,37.1,M,,*5F
$GPGGA,065607.200,3815.2943,N,14050.6392,E,1,9,1.15,147.7,M,37.1,M,,*5D
$GPGGA,065607.400,3815.2943,N,14050.6392,E,1,9,1.15,147.7,M,37.1,M,,*5B
$GPGGA,065607.600,3815.2943,N,14050.6392,E,1,9,1.15,147.7,M,37.1,M,,*59
$GPGGA,065607.800,3815.2943,N,14050.6392,E,1,9,1.15,147.7,M,37.1,M,,*57
$GPGGA,065608.000,3815.2943,N,14050.6392,E,1,9,1.15,147.7,M,37.1,M,,*50
$GPGGA,065608.200,3815.2943,N,14050.6392,E,1,9,1.15,147.7,M,37.1,M,,*52
$GPGGA,065608.400,3815.2943,N,14050.6392,E,1,9,1.15,147.7,M,37.1,M,,*54
$GPGGA,065608.600,3815.2943,N,14050.6392,E,1,9,1.15,147.7,M,37.1,M,,*56
$GPGGA,065608.800,3815.2943,N,14050.6392,E,1,9,1.15,147.7,M,37.1,M,,*58
$GPGGA,065609.000,3815.2943,N,14050.6392,E,1,9,1.15,147.7,M,37.1,M,,*51
$GPGGA,065609.200,3815.2943,N,14050.6392,E,1,9,1.15,147.7,M,37.1,M,,*53
$GPGGA,065609.400,3815.2943,N,14050.6392,E,1,9,1.15,147.7,M,37.1,M,,*55
$GPGGA,065609.600,3815.2943,N,14050.6392,E,1,9,1.15,147.7,M,37.1,M,,*57
$GPGGA,065609.800,3815.2943,N,14050.6392,E,1,9,1.15,147.7,M,37.1,M,,*59
$GPGGA,065610.000,3815.2943,N,14050.6392,E,1,9,1.15,147.7,M,37.1,M,,*59
$GPGGA,065610.200,3815.2943,N,14050.6392,E,1,9,1.15,147.7,M,37.1,M,,*5B
$GPGGA,065610.400,3815.2943,N,14050.6392,E,1,9,1.15,147.7,M,37.1,M,,*5D
$GPGGA,065610.600,3815.2943,N,14050.6392,E,1,9,1.15,147.7,M,37.1,M,,*5F
$GPGGA,065610.800,3815.2943,N,14050.6392,E,1,9,1.15,147.7,M,37.1,M,,*51
$GPGGA,065611.000,3815.2943,N,14050.6392,E,1,9,1.15,147.7,M,37.1,M,,*58
$GPGGA,065611.200,3815.2943,N,14050.6392,E,1,9,1.15,147.7,M,37.1,M,,*5A
$GPGGA,065611.400,3815.2943,N,14050.6392,E,1,9,1.15,147.7,M,37.1,M,,*5C
$GPGGA,065611.600,3815.2943,N,14050.6392,E,1,8,1.29,147.7,M,37.1,M,,*50
$GPGGA,065611.800,3815.2943,N,14050.6392,E,1,8,1.29,147.7,M,37.1,M,,*5E
$GPGGA,065612.000,3815.2943,N,14050.6392,E,1,8,1.29,147.7,M,37.1,M,,*55
$GPGGA,065612.200,3815.2943,N,14050.6392,E,1,8,1.29,147.7,M,37.1,M,,*57
$GPGGA,065612.400,3815.2943,N,14050.6392,E,1,8,1.29,147.7,M,37.1,M,,*51
$GPGGA,065612.600,3815.2943,N,14050.6392,E,1,8,1.29,147.7,M,37.1,M,,*53
$GPGGA,065612.800,3815.2943,N,14050.6392,E,1,9,1.15,147.7,M,37.1,M,,*53
$GPGGA,065613.000,3815.2943,N,14050.6392,E,1,9,1.15,147.7,M,37.1,M,,*5A
$GPGGA,065613.200,3815.2943,N,14050.6392,E,1,9,1.15,147.7,M,37.1,M,,*58
$GPGGA,065613.400,3815.2943,N,14050.6392,E,1,9,1.15,147.7,M,37.1,M,,*5E
$GPGGA,065613.600,3815.2943,N,14050.6392,E,1,9,1.15,147.7,M,37.1,M,,*5C
$GPGGA,065613.800,3815.2943,N,14050.6392,E,1,9,1.15,147.7,M,37.1,M,,*52
$GPGGA,065614.000,3815.2943,N,14050.6392,E,1,9,1.15,147.7,M,37.1,M,,*5D
$GPGGA,065614.200,3815.2943,N,14050.6392,E,1,9,1.15,147.7,M,37.1,M,,*5F
$GPGGA,065614.400,3815.2943,N,14050.6392,E,1,9,1.15,147.7,M,37.1,M,,*59
$GPGGA,065614.600,3815.2943,N,14050.6392,E,1,9,1.15,147.7,M,37.1,M,,*5B
$GPGGA,065614.800,3815.2943,N,14050.6392,E,1,9,1.15,147.7,M,37.1,M,,*55
$GPGGA,065615.000,3815.2943,N,14050.6391,E,1,9,1.15,147.7,M,37.1,M,,*5F
$GPGGA,065615.200,3815.2943,N,14050.6391,E,1,9,1.15,147.7,M,37.1,M,,*5D
$GPGGA,065615.400,3815.2943,N,14050.6391,E,1,9,1.15,147.7,M,37.1,M,,*5B
$GPGGA,065615.600,3815.2943,N,14050.6391,E,1,9,1.15,147.7,M,37.1,M,,*59
$GPGGA,065615.800,3815.2943,N,14050.6391,E,1,9,1.15,147.7,M,37.1,M,,*57
$GPGGA,065616.000,3815.2943,N,14050.6391,E,1,9,1.15,147.7,M,37.1,M,,*5C
$GPGGA,065616.200,3815.2943,N,14050.6391,E,1,9,1.15,147.7,M,37.1,M,,*5E
$GPGGA,065616.400,3815.2943,N,14050.6391,E,1,9,1.15,147.7,M,37.1,M,,*58
$GPGGA,065616.600,3815.2943,N,14050.6391,E,1,9,1.15,147.7,M,37.1,M,,*5A
$GPGGA,065616.800,3815.2943,N,14050.6391,E,1,9,1.15,147.7,M,37.1,M,,*54
$GPGGA,065617.000,3815.2943,N,14050.6391,E,1,9,1.15,147.7,M,37.1,M,,*5D
$GPGGA,065617.200,3815.2943,N,14050.6391,E,1,9,1.15,147.7,M,37.1,M,,*5F
$GPGGA,065617.400,3815.2943,N,14050.6391,E,1,9,1.15,147.7,M,37.1,M,,*59
$GPGGA,065617.600,3815.2943,N,14050.6391,E,1,9,1.15,147.7,M,37.1,M,,*5B
$GPGGA,065617.800,3815.2943,N,14050.6391,E,1,9,1.15,147.7,M,37.1,M,,*55
$GPGGA,065618.000,3815.2943,N,14050.6391,E,1,9,1.15,147.7,M,37.1,M,,*52
$GPGGA,065618.200,3815.2943,N,14050.6391,E,1,9,1.15,147.7,M,37.1,M,,*50
$GPGGA,065618.400,3815.2943,N,14050.6391,E,1,9,1.15,147.7,M,37.1,M,,*56
$GPGGA,065618.600,3815.2943,N,14050.6391,E,1,9,1.15,147.7,M,37.1,M,,*54
$GPGGA,065618.800,3815.2943,N,14050.6391,E,1,9,1.15,147.7,M,37.1,M,,*5A
$GPGGA,065619.000,3815.2943,N,14050.6391,E,1,9,1.15,147.7,M,37.1,M,,*53
$GPGGA,065619.200,3815.2943,N,14050.6391,E,1,9,1.15,147.7,M,37.1,M,,*51
$GPGGA,065619.400,3815.2943,N,14050.6391,E,1,9,1.15,147.7,M,37.1,M,,*57
$GPGGA,065619.600,3815.2943,N,14050.6391,E,1,9,1.15,147.7,M,37.1,M,,*55
$GPGGA,065619.800,3815.2943,N,14050.6391,E,1,9,1.15,147.7,M,37.1,M,,*5B
$GPGGA,065620.000,3815.2943,N,14050.6391,E,1,9,1.15,147.7,M,37.1,M,,*59
$GPGGA,065620.200,3815.2943,N,14050.6391,E,1,9,1.15,147.7,M,37.1,M,,*5B
$GPGGA,065620.400,3815.2943,N,14050.6391,E,1,9,1.15,147.7,M,37.1,M,,*5D
$GPGGA,065620.600,3815.2943,N,14050.6391,E,1,9,1.15,147.7,M,37.1,M,,*5F
$GPGGA,065620.800,3815.2943,N,14050.6391,E,1,9,1.15,147.7,M,37.1,M,,*51
$GPGGA,065621.000,3815.2943,N,14050.6391,E,1,9,1.15,147.7,M,37.1,M,,*58
$GPGGA,065621.200,3815.2943,N,14050.6391,E,1,9,1.15,147.7,M,37.1,M,,*5A
$GPGGA,065621.400,3815.2943,N,14050.6391,E,1,9,1.15,147.7,M,37.1,M,,*5C
$GPGGA,065621.600,3815.2943,N,14050.6391,E,1,8,1.17,147.7,M,37.1,M,,*5D
$GPGGA,065621.800,3815.2943,N,14050.6391,E,1,8,1.17,147.7,M,37.1,M,,*53
$GPGGA,065622.000,3815.2943,N,14050.6391,E,1,8,1.17,147.7,M,37.1,M,,*58
$GPGGA,065622.200,3815.2943,N,14050.6391,E,1,9,0.94,147.7,M,37.1,M,,*51
$GPGGA,065622.400,3815.2943,N,14050.6391,E,1,10,0.91,147.7,M,37.1,M,,*6A
$GPGGA,065622.600,3815.2943,N,14050.6391,E,1,10,0.91,147.7,M,37.1,M,,*68
$GPGGA,065622.800,3815.2943,N,14050.6391,E,1,10,0.91,147.8,M,37.1,M,,*69
$GPGGA,065623.000,3815.2943,N,14050.6391,E,1,10,0.91,147.8,M,37.1,M,,*60
$GPGGA,065623.200,3815.2943,N,14050.6391,E,1,10,0.91,147.8,M,37.1,M,,*62
$GPGGA,065623.400,3815.2943,N,14050.6391,E,1,10,0.91,147.8,M,37.1,M,,*64
$GPGGA,065623.600,3815.2943,N,14050.6391,E,1,10,0.91,147.8,M,37.1,M,,*66
$GPGGA,065623.800,3815.2943,N,14050.6391,E,1,10,0.91,147.8,M,37.1,M,,*68
$GPGGA,065624.000,3815.2943,N,14050.6391,E,1,10,0.91,147.8,M,37.1,M,,*67
$GPGGA,065624.200,3815.2943,N,14050.6391,E,1,10,0.91,147.8,M,37.1,M,,*65
$GPGGA,065624.400,3815.2943,N,14050.6391,E,1,10,0.91,147.8,M,37.1,M,,*63
$GPGGA,065624.600,3815.2943,N,14050.6391,E,1,10,0.91,147.8,M,37.1,M,,*61
$GPGGA,065624.800,3815.2943,N,14050.6391,E,1,10,0.91,147.8,M,37.1,M,,*6F
$GPGGA,065625.000,3815.2943,N,14050.6391,E,1,10,0.91,147.8,M,37.1,M,,*66
$GPGGA,065625.200,3815.2943,N,14050.6391,E,1,10,0.91,147.8,M,37.1,M,,*64
$GPGGA,065625.400,3815.2943,N,14050.6391,E,1,10,0.91,147.8,M,37.1,M,,*62
$GPGGA,065625.600,3815.2943,N,14050.6391,E,1,10,0.91,147.8,M,37.1,M,,*60
$GPGGA,065625.800,3815.2943,N,14050.6391,E,1,10,0.91,147.8,M,37.1,M,,*6E
$GPGGA,065626.000,3815.2943,N,14050.6391,E,1,10,0.91,147.8,M,37.1,M,,*65
$GPGGA,065626.200,3815.2943,N,14050.6391,E,1,10,0.91,147.8,M,37.1,M,,*67
$GPGGA,065626.400,3815.2943,N,14050.6391,E,1,10,0.91,147.8,M,37.1,M,,*61
$GPGGA,065626.600,3815.2943,N,14050.6391,E,1,10,0.91,147.8,M,37.1,M,,*63
$GPGGA,065626.800,3815.2943,N,14050.6391,E,1,10,0.91,147.8,M,37.1,M,,*6D
$GPGGA,065627.000,3815.2943,N,14050.6391,E,1,10,0.91,147.8,M,37.1,M,,*64
$GPGGA,065627.200,3815.2942,N,14050.6391,E,1,10,0.91,147.8,M,37.1,M,,*67
$GPGGA,065627.400,3815.2942,N,14050.6391,E,1,10,0.91,147.8,M,37.1,M,,*61
$GPGGA,065627.600,3815.2942,N,14050.6391,E,1,10,0.91,147.8,M,37.1,M,,*63
$GPGGA,065627.800,3815.2942,N,14050.6391,E,1,10,0.91,147.8,M,37.1,M,,*6D
$GPGGA,065628.000,3815.2942,N,14050.6391,E,1,10,0.91,147.8,M,37.1,M,,*6A
$GPGGA,065628.200,3815.2942,N,14050.6391,E,1,10,0.91,147.8,M,37.1,M,,*68
$GPGGA,065628.400,3815.2942,N,14050.6391,E,1,10,0.91,147.8,M,37.1,M,,*6E
$GPGGA,065628.600,3815.2942,N,14050.6391,E,1,10,0.91,147.8,M,37.1,M,,*6C
$GPGGA,065628.800,3815.2942,N,14050.6391,E,1,10,0.91,147.8,M,37.1,M,,*62
$GPGGA,065629.000,3815.2942,N,14050.6391,E,1,10,0.91,147.8,M,37.1,M,,*6B
$GPGGA,065629.200,3815.2942,N,14050.6391,E,1,10,0.91,147.8,M,37.1,M,,*69
$GPGGA,065629.400,3815.2942,N,14050.6391,E,1,10,0.91,147.8,M,37.1,M,,*6F
$GPGGA,065629.600,3815.2942,N,14050.6390,E,1,10,0.91,147.8,M,37.1,M,,*6C
$GPGGA,065629.800,3815.2942,N,14050.6390,E,1,10,0.91,147.8,M,37.1,M,,*62
$GPGGA,065630.000,3815.2942,N,14050.6390,E,1,10,0.91,147.8,M,37.1,M,,*62
$GPGGA,065630.200,3815.2942,N,14050.6390,E,1,10,0.91,147.8,M,37.1,M,,*60
$GPGGA,065630.400,3815.2942,N,14050.6390,E,1,10,0.91,147.8,M,37.1,M,,*66
$GPGGA,065630.600,3815.2942,N,14050.6390,E,1,10,0.91,147.8,M,37.1,M,,*64
$GPGGA,065630.800,3815.2942,N,14050.6390,E,1,10,0.91,147.8,M,37.1,M,,*6A
$GPGGA,065631.000,3815.2942,N,14050.6390,E,1,10,0.91,147.8,M,37.1,M,,*63
$GPGGA,065631.200,3815.2942,N,14050.6390,E,1,10,0.91,147.8,M,37.1,M,,*61
$GPGGA,065631.400,3815.2942,N,14050.6390,E,1,10,0.91,147.8,M,37.1,M,,*67
$GPGGA,065631.600,3815.2942,N,14050.6390,E,1,10,0.91,147.8,M,37.1,M,,*65
$GPGGA,065631.800,3815.2942,N,14050.6390,E,1,10,0.91,147.8,M,37.1,M,,*6B
$GPGGA,065632.000,3815.2942,N,14050.6390,E,1,10,0.91,147.8,M,37.1,M,,*60
$GPGGA,065632.200,3815.2942,N,14050.6390,E,1,10,0.91,147.8,M,37.1,M,,*62
$GPGGA,065632.400,3815.2942,N,14050.6390,E,1,10,0.91,147.8,M,37.1,M,,*64
$GPGGA,065632.600,3815.2942,N,14050.6390,E,1,10,0.91,147.8,M,37.1,M,,*66
$GPGGA,065632.800,3815.2942,N,14050.6390,E,1,10,0.91,147.8,M,37.1,M,,*68
$GPGGA,065633.000,3815.2942,N,14050.6390,E,1,10,0.91,147.8,M,37.1,M,,*61
$GPGGA,065633.200,3815.2942,N,14050.6390,E,1,10,0.91,147.8,M,37.1,M,,*63
$GPGGA,065633.400,3815.2942,N,14050.6390,E,1,10,0.91,147.8,M,37.1,M,,*65
$GPGGA,065633.600,3815.2942,N,14050.6390,E,1,10,0.91,147.8,M,37.1,M,,*67
$GPGGA,065633.800,3815.2942,N,14050.6390,E,1,9,1.04,147.8,M,37.1,M,,*5C
$GPGGA,065634.000,3815.2942,N,14050.6390,E,1,10,0.91,147.8,M,37.1,M,,*66
$GPGGA,065634.200,3815.2942,N,14050.6390,E,1,10,0.91,147.8,M,37.1,M,,*64
$GPGGA,065634.400,3815.2942,N,14050.6390,E,1,10,0.91,147.8,M,37.1,M,,*62
$GPGGA,065634.600,3815.2942,N,14050.6390,E,1,10,0.91,147.8,M,37.1,M,,*60
$GPGGA,065634.800,3815.2942,N,14050.6390,E,1,10,0.91,147.8,M,37.1,M,,*6E
$GPGGA,065635.000,3815.2942,N,14050.6390,E,1,10,0.91,147.8,M,37.1,M,,*67
$GPGGA,065635.200,3815.2942,N,14050.6390,E,1,10,1.04,147.8,M,37.1,M,,*68
$GPGGA,065635.400,3815.2942,N,14050.6390,E,1,9,1.04,147.8,M,37.1,M,,*56
$GPGGA,065635.600,3815.2942,N,14050.6390,E,1,9,1.04,147.8,M,37.1,M,,*54
$GPGGA,065635.800,3815.2942,N,14050.6390,E,1,9,1.04,147.8,M,37.1,M,,*5A
$GPGGA,065636.000,3815.2942,N,14050.6390,E,1,9,1.04,147.8,M,37.1,M,,*51
$GPGGA,065636.200,3815.2942,N,14050.6390,E,1,9,1.04,147.8,M,37.1,M,,*53
$GPGGA,065636.400,3815.2942,N,14050.6390,E,1,9,1.04,147.8,M,37.1,M,,*55
$GPGGA,065636.600,3815.2942,N,14050.6390,E,1,9,1.04,147.8,M,37.1,M,,*57
$GPGGA,065636.800,3815.2942,N,14050.6390,E,1,9,1.04,147.8,M,37.1,M,,*59
$GPGGA,065637.000,3815.2942,N,14050.6390,E,1,9,1.04,147.8,M,37.1,M,,*50
$GPGGA,065637.200,3815.2942,N,14050.6390,E,1,9,1.04,147.8,M,37.1,M,,*52
$GPGGA,065637.400,3815.2942,N,14050.6390,E,1,9,1.04,147.8,M,37.1,M,,*54
