$GPGGA,065353.400,3815.2946,N,14050.6393,E,1,9,1.04,146.5,M,37.1,M,,*58
$GPGGA,065353.400,3815.2946,N,14050.6393,E,1,9,1.04,146.5,M,37.1,M,,*58
$GPGGA,065353.400,3815.2946,N,14050.6393,E,1,9,1.04,146.5,M,37.1,M,,*58
$GPGGA,065353.400,3815.2946,N,14050.6393,E,1,9,1.04,146.5,M,37.1,M,,*58
$GPGGA,065353.400,3815.2946,N,14050.6393,E,1,9,1.04,146.5,M,37.1,M,,*58
$GPGGA,065353.400,3815.2946,N,14050.6393,E,1,9,1.04,146.5,M,37.1,M,,*58
$GPGGA,065353.400,3815.2946,N,14050.6393,E,1,9,1.04,146.5,M,37.1,M,,*58
$GPGGA,065353.400,3815.2946,N,14050.6393,E,1,9,1.04,146.5,M,37.1,M,,*58
$GPGGA,065353.400,3815.2946,N,14050.6393,E,1,9,1.04,146.5,M,37.1,M,,*58
$GPGGA,065353.400,3815.2946,N,14050.6393,E,1,9,1.04,146.5,M,37.1,M,,*58
$GPGGA,065353.400,3815.2946,N,14050.6393,E,1,9,1.04,146.5,M,37.1,M,,*58
$GPGGA,065353.400,3815.2946,N,14050.6393,E,1,9,1.04,146.5,M,37.1,M,,*58
$GPGGA,065353.400,3815.2946,N,14050.6393,E,1,9,1.04,146.5,M,37.1,M,,*58
$GPGGA,065353.400,3815.2946,N,14050.6393,E,1,9,1.04,146.5,M,37.1,M,,*58
$GPGGA,065353.400,3815.2946,N,14050.6393,E,1,9,1.04,146.5,M,37.1,M,,*58
$GPGGA,065353.400,3815.2946,N,14050.6393,E,1,9,1.04,146.5,M,37.1,M,,*58
$GPGGA,065353.400,3815.2946,N,14050.6393,E,1,9,1.04,146.5,M,37.1,M,,*58
$GPGGA,065353.400,3815.2946,N,14050.6393,E,1,9,1.04,146.5,M,37.1,M,,*58
$GPGGA,065353.400,3815.2946,N,14050.6393,E,1,9,1.04,146.5,M,37.1,M,,*58
$GPGGA,065353.400,3815.2946,N,14050.6393,E,1,9,1.04,146.5,M,37.1,M,,*58
$GPGGA,065353.400,3815.2946,N,14050.6393,E,1,9,1.04,146.5,M,37.1,M,,*58
$GPGGA,065353.400,3815.2946,N,14050.6393,E,1,9,1.04,146.5,M,37.1,M,,*58
$GPGGA,065353.400,3815.2946,N,14050.6393,E,1,9,1.04,146.5,M,37.1,M,,*58
$GPGGA,065353.400,3815.2946,N,14050.6393,E,1,9,1.04,146.5,M,37.1,M,,*58
$GPGGA,065353.400,3815.2946,N,14050.6393,E,1,9,1.04,146.5,M,37.1,M,,*58
$GPGGA,065353.400,3815.2946,N,14050.6393,E,1,9,1.04,146.5,M,37.1,M,,*58
$GPGGA,065353.400,3815.2946,N,14050.6393,E,1,9,1.04,146.5,M,37.1,M,,*58
$GPGGA,065353.400,3815.2946,N,14050.6393,E,1,9,1.04,146.5,M,37.1,M,,*58
$GPGGA,065353.400,3815.2946,N,14050.6393,E,1,9,1.04,146.5,M,37.1,M,,*58
$GPGGA,065353.400,3815.2946,N,14050.6393,E,1,9,1.04,146.5,M,37.1,M,,*58
$GPGGA,065353.400,3815.2946,N,14050.6393,E,1,9,1.04,146.5,M,37.1,M,,*58
$GPGGA,065353.400,3815.2946,N,14050.6393,E,1,9,1.04,146.5,M,37.1,M,,*58
$GPGGA,065353.400,3815.2946,N,14050.6393,E,1,9,1.04,146.5,M,37.1,M,,*58
$GPGGA,065353.400,3815.2946,N,14050.6393,E,1,9,1.04,146.5,M,37.1,M,,*58
$GPGGA,065353.400,3815.2946,N,14050.6393,E,1,9,1.04,146.5,M,37.1,M,,*58
$GPGGA,065353.400,3815.2946,N,14050.6393,E,1,9,1.04,146.5,M,37.1,M,,*58
$GPGGA,065353.400,3815.2946,N,14050.6393,E,1,9,1.04,146.5,M,37.1,M,,*58
$GPGGA,065353.400,3815.2946,N,14050.6393,E,1,9,1.04,146.5,M,37.1,M,,*58
$GPGGA,065353.400,3815.2946,N,14050.6393,E,1,9,1.04,146.5,M,37.1,M,,*58
$GPGGA,065353.400,3815.2946,N,14050.6393,E,1,9,1.04,146.5,M,37.1,M,,*58
$GPGGA,065353.400,3815.2946,N,14050.6393,E,1,9,1.04,146.5,M,37.1,M,,*58
$GPGGA,065353.400,3815.2946,N,14050.6393,E,1,9,1.04,146.5,M,37.1,M,,*58
$GPGGA,065353.400,3815.2946,N,14050.6393,E,1,9,1.04,146.5,M,37.1,M,,*58
$GPGGA,065353.400,3815.2946,N,14050.6393,E,1,9,1.04,146.5,M,37.1,M,,*58
$GPGGA,065353.400,3815.2946,N,14050.6393,E,1,9,1.04,146.5,M,37.1,M,,*58
$GPGGA,065353.400,3815.2946,N,14050.6393,E,1,9,1.04,146.5,M,37.1,M,,*58
$GPGGA,065353.400,3815.2946,N,14050.6393,E,1,9,1.04,146.5,M,37.1,M,,*58
$GPGGA,065353.400,3815.2946,N,14050.6393,E,1,9,1.04,146.5,M,37.1,M,,*58
$GPGGA,065353.400,3815.2946,N,14050.6393,E,1,9,1.04,146.5,M,37.1,M,,*58
$GPGGA,065353.400,3815.2946,N,14050.6393,E,1,9,1.04,146.5,M,37.1,M,,*58
$GPGGA,065353.400,3815.2946,N,14050.6393,E,1,9,1.04,146.5,M,37.1,M,,*58
$GPGGA,065353.400,3815.2946,N,14050.6393,E,1,9,1.04,146.5,M,37.1,M,,*58
$GPGGA,065353.400,3815.2946,N,14050.6393,E,1,9,1.04,146.5,M,37.1,M,,*58
$GPGGA,065353.400,3815.2946,N,14050.6393,E,1,9,1.04,146.5,M,37.1,M,,*58
$GPGGA,065353.400,3815.2946,N,14050.6393,E,1,9,1.04,146.5,M,37.1,M,,*58
$GPGGA,065353.400,3815.2946,N,14050.6393,E,1,9,1.04,146.5,M,37.1,M,,*58
$GPGGA,065353.400,3815.2946,N,14050.6393,E,1,9,1.04,146.5,M,37.1,M,,*58
$GPGGA,065353.400,3815.2946,N,14050.6393,E,1,9,1.04,146.5,M,37.1,M,,*58
$GPGGA,065353.400,3815.2946,N,14050.6393,E,1,9,1.04,146.5,M,37.1,M,,*58
$GPGGA,065353.400,3815.2946,N,14050.6393,E,1,9,1.04,146.5,M,37.1,M,,*58
$GPGGA,065353.400,3815.2946,N,14050.6393,E,1,9,1.04,146.5,M,37.1,M,,*58
$GPGGA,065353.400,3815.2946,N,14050.6393,E,1,9,1.04,146.5,M,37.1,M,,*58
$GPGGA,065353.400,3815.2946,N,14050.6393,E,1,9,1.04,146.5,M,37.1,M,,*58
$GPGGA,065353.400,3815.2946,N,14050.6393,E,1,9,1.04,146.5,M,37.1,M,,*58
$GPGGA,065353.400,3815.2946,N,14050.6393,E,1,9,1.04,146.5,M,37.1,M,,*58
$GPGGA,065353.400,3815.2946,N,14050.6393,E,1,9,1.04,146.5,M,37.1,M,,*58
$GPGGA,065353.400,3815.2946,N,14050.6393,E,1,9,1.04,146.5,M,37.1,M,,*58
$GPGGA,065353.400,3815.2946,N,14050.6393,E,1,9,1.04,146.5,M,37.1,M,,*58
$GPGGA,065353.400,3815.2946,N,14050.6393,E,1,9,1.04,146.5,M,37.1,M,,*58
$GPGGA,065353.400,3815.2946,N,14050.6393,E,1,9,1.04,146.5,M,37.1,M,,*58
$GPGGA,065353.400,3815.2946,N,14050.6393,E,1,9,1.04,146.5,M,37.1,M,,*58
$GPGGA,065353.400,3815.2946,N,14050.6393,E,1,9,1.04,146.5,M,37.1,M,,*58
$GPGGA,065353.400,3815.2946,N,14050.6393,E,1,9,1.04,146.5,M,37.1,M,,*58
$GPGGA,065353.400,3815.2946,N,14050.6393,E,1,9,1.04,146.5,M,37.1,M,,*58
$GPGGA,065353.400,3815.2946,N,14050.6393,E,1,9,1.04,146.5,M,37.1,M,,*58
$GPGGA,065353.400,3815.2946,N,14050.6393,E,1,9,1.04,146.5,M,37.1,M,,*58
$GPGGA,065353.400,3815.2946,N,14050.6393,E,1,9,1.04,146.5,M,37.1,M,,*58
$GPGGA,065353.400,3815.2946,N,14050.6393,E,1,9,1.04,146.5,M,37.1,M,,*58
$GPGGA,065353.400,3815.2946,N,14050.6393,E,1,9,1.04,146.5,M,37.1,M,,*58
$GPGGA,065353.400,3815.2946,N,14050.6393,E,1,9,1.04,146.5,M,37.1,M,,*58
$GPGGA,065353.400,3815.2946,N,14050.6393,E,1,9,1.04,146.5,M,37.1,M,,*58
$GPGGA,065353.400,3815.2946,N,14050.6393,E,1,9,1.04,146.5,M,37.1,M,,*58
$GPGGA,065353.400,3815.2946,N,14050.6393,E,1,9,1.04,146.5,M,37.1,M,,*58
$GPGGA,065353.400,3815.2946,N,14050.6393,E,1,9,1.04,146.5,M,37.1,M,,*58
$GPGGA,065353.400,3815.2946,N,14050.6393,E,1,9,1.04,146.5,M,37.1,M,,*58
$GPGGA,065353.400,3815.2946,N,14050.6393,E,1,9,1.04,146.5,M,37.1,M,,*58
$GPGGA,065353.400,3815.2946,N,14050.6393,E,1,9,1.04,146.5,M,37.1,M,,*58
$GPGGA,065353.400,3815.2946,N,14050.6393,E,1,9,1.04,146.5,M,37.1,M,,*58
$GPGGA,065353.400,3815.2946,N,14050.6393,E,1,9,1.04,146.5,M,37.1,M,,*58
$GPGGA,065353.400,3815.2946,N,14050.6393,E,1,9,1.04,146.5,M,37.1,M,,*58
$GPGGA,065353.400,3815.2946,N,14050.6393,E,1,9,1.04,146.5,M,37.1,M,,*58
$GPGGA,065353.400,3815.2946,N,14050.6393,E,1,9,1.04,146.5,M,37.1,M,,*58
$GPGGA,065353.400,3815.2946,N,14050.6393,E,1,9,1.04,146.5,M,37.1,M,,*58
$GPGGA,065353.400,3815.2946,N,14050.6393,E,1,9,1.04,146.5,M,37.1,M,,*58
$GPGGA,065353.400,3815.2946,N,14050.6393,E,1,9,1.04,146.5,M,37.1,M,,*58
$GPGGA,065353.400,3815.2946,N,14050.6393,E,1,9,1.04,146.5,M,37.1,M,,*58
$GPGGA,065353.400,3815.2946,N,14050.6393,E,1,9,1.04,146.5,M,37.1,M,,*58
$GPGGA,065353.400,3815.2946,N,14050.6393,E,1,9,1.04,146.5,M,37.1,M,,*58
$GPGGA,065353.400,3815.2946,N,14050.6393,E,1,9,1.04,146.5,M,37.1,M,,*58
$GPGGA,065353.400,3815.2946,N,14050.6393,E,1,9,1.04,146.5,M,37.1,M,,*58
$GPGGA,065353.400,3815.2946,N,14050.6393,E,1,9,1.04,146.5,M,37.1,M,,*58
$GPGGA,065353.400,3815.2946,N,14050.6393,E,1,9,1.04,146.5,M,37.1,M,,*58
$GPGGA,065353.400,3815.2946,N,14050.6393,E,1,9,1.04,146.5,M,37.1,M,,*58
$GPGGA,065353.400,3815.2946,N,14050.6393,E,1,9,1.04,146.5,M,37.1,M,,*58
$GPGGA,065353.400,3815.2946,N,14050.6393,E,1,9,1.04,146.5,M,37.1,M,,*58
$GPGGA,065353.400,3815.2946,N,14050.6393,E,1,9,1.04,146.5,M,37.1,M,,*58
$GPGGA,065353.400,3815.2946,N,14050.6393,E,1,9,1.04,146.5,M,37.1,M,,*58
$GPGGA,065353.400,3815.2946,N,14050.6393,E,1,9,1.04,146.5,M,37.1,M,,*58
$GPGGA,065353.400,3815.2946,N,14050.6393,E,1,9,1.04,146.5,M,37.1,M,,*58
$GPGGA,065353.400,3815.2946,N,14050.6393,E,1,9,1.04,146.5,M,37.1,M,,*58
$GPGGA,065353.400,3815.2946,N,14050.6393,E,1,9,1.04,146.5,M,37.1,M,,*58
$GPGGA,065353.400,3815.2946,N,14050.6393,E,1,9,1.04,146.5,M,37.1,M,,*58
$GPGGA,065353.400,3815.2946,N,14050.6393,E,1,9,1.04,146.5,M,37.1,M,,*58
$GPGGA,065353.400,3815.2946,N,14050.6393,E,1,9,1.04,146.5,M,37.1,M,,*58
$GPGGA,065353.400,3815.2946,N,14050.6393,E,1,9,1.04,146.5,M,37.1,M,,*58
$GPGGA,065353.400,3815.2946,N,14050.6393,E,1,9,1.04,146.5,M,37.1,M,,*58
$GPGGA,065353.400,3815.2946,N,14050.6393,E,1,9,1.04,146.5,M,37.1,M,,*58
$GPGGA,065353.400,3815.2946,N,14050.6393,E,1,9,1.04,146.5,M,37.1,M,,*58
$GPGGA,065353.400,3815.2946,N,14050.6393,E,1,9,1.04,146.5,M,37.1,M,,*58
$GPGGA,065353.400,3815.2946,N,14050.6393,E,1,9,1.04,146.5,M,37.1,M,,*58
$GPGGA,065353.400,3815.2946,N,14050.6393,E,1,9,1.04,146.5,M,37.1,M,,*58
$GPGGA,065353.400,3815.2946,N,14050.6393,E,1,9,1.04,146.5,M,37.1,M,,*58
$GPGGA,065353.400,3815.2946,N,14050.6393,E,1,9,1.04,146.5,M,37.1,M,,*58
$GPGGA,065353.400,3815.2946,N,14050.6393,E,1,9,1.04,146.5,M,37.1,M,,*58
$GPGGA,065353.400,3815.2946,N,14050.6393,E,1,9,1.04,146.5,M,37.1,M,,*58
$GPGGA,065353.400,3815.2946,N,14050.6393,E,1,9,1.04,146.5,M,37.1,M,,*58
$GPGGA,065353.400,3815.2946,N,14050.6393,E,1,9,1.04,146.5,M,37.1,M,,*58
$GPGGA,065353.400,3815.2946,N,14050.6393,E,1,9,1.04,146.5,M,37.1,M,,*58
$GPGGA,065353.400,3815.2946,N,14050.6393,E,1,9,1.04,146.5,M,37.1,M,,*58
$GPGGA,065353.400,3815.2946,N,14050.6393,E,1,9,1.04,146.5,M,37.1,M,,*58
$GPGGA,065353.400,3815.2946,N,14050.6393,E,1,9,1.04,146.5,M,37.1,M,,*58
$GPGGA,065353.400,3815.2946,N,14050.6393,E,1,9,1.04,146.5,M,37.1,M,,*58
$GPGGA,065353.400,3815.2946,N,14050.6393,E,1,9,1.04,146.5,M,37.1,M,,*58
$GPGGA,065353.400,3815.2946,N,14050.6393,E,1,9,1.04,146.5,M,37.1,M,,*58
$GPGGA,065353.400,3815.2946,N,14050.6393,E,1,9,1.04,146.5,M,37.1,M,,*58
$GPGGA,065353.400,3815.2946,N,14050.6393,E,1,9,1.04,146.5,M,37.1,M,,*58
$GPGGA,065353.400,3815.2946,N,14050.6393,E,1,9,1.04,146.5,M,37.1,M,,*58
$GPGGA,065353.400,3815.2946,N,14050.6393,E,1,9,1.04,146.5,M,37.1,M,,*58
$GPGGA,065353.400,3815.2946,N,14050.6393,E,1,9,1.04,146.5,M,37.1,M,,*58
$GPGGA,065353.400,3815.2946,N,14050.6393,E,1,9,1.04,146.5,M,37.1,M,,*58
$GPGGA,065353.400,3815.2946,N,14050.6393,E,1,9,1.04,146.5,M,37.1,M,,*58
$GPGGA,065353.400,3815.2946,N,14050.6393,E,1,9,1.04,146.5,M,37.1,M,,*58
$GPGGA,065353.400,3815.2946,N,14050.6393,E,1,9,1.04,146.5,M,37.1,M,,*58
$GPGGA,065353.400,3815.2946,N,14050.6393,E,1,9,1.04,146.5,M,37.1,M,,*58
$GPGGA,065353.400,3815.2946,N,14050.6393,E,1,9,1.04,146.5,M,37.1,M,,*58
$GPGGA,065353.400,3815.2946,N,14050.6393,E,1,9,1.04,146.5,M,37.1,M,,*58
$GPGGA,065353.400,3815.2946,N,14050.6393,E,1,9,1.04,146.5,M,37.1,M,,*58
$GPGGA,065353.400,3815.2946,N,14050.6393,E,1,9,1.04,146.5,M,37.1,M,,*58
$GPGGA,065353.400,3815.2946,N,14050.6393,E,1,9,1.04,146.5,M,37.1,M,,*58
$GPGGA,065353.400,3815.2946,N,14050.6393,E,1,9,1.04,146.5,M,37.1,M,,*58
$GPGGA,065353.400,3815.2946,N,14050.6393,E,1,9,1.04,146.5,M,37.1,M,,*58
$GPGGA,065353.400,3815.2946,N,14050.6393,E,1,9,1.04,146.5,M,37.1,M,,*58
$GPGGA,065353.400,3815.2946,N,14050.6393,E,1,9,1.04,146.5,M,37.1,M,,*58
$GPGGA,065353.400,3815.2946,N,14050.6393,E,1,9,1.04,146.5,M,37.1,M,,*58
$GPGGA,065353.400,3815.2946,N,14050.6393,E,1,9,1.04,146.5,M,37.1,M,,*58
$GPGGA,065353.400,3815.2946,N,14050.6393,E,1,9,1.04,146.5,M,37.1,M,,*58
$GPGGA,065353.400,3815.2946,N,14050.6393,E,1,9,1.04,146.5,M,37.1,M,,*58
$GPGGA,065353.400,3815.2946,N,14050.6393,E,1,9,1.04,146.5,M,37.1,M,,*58
$GPGGA,065353.400,3815.2946,N,14050.6393,E,1,9,1.04,146.5,M,37.1,M,,*58
$GPGGA,065353.400,3815.2946,N,14050.6393,E,1,9,1.04,146.5,M,37.1,M,,*58
$GPGGA,065353.400,3815.2946,N,14050.6393,E,1,9,1.04,146.5,M,37.1,M,,*58
$GPGGA,065353.400,3815.2946,N,14050.6393,E,1,9,1.04,146.5,M,37.1,M,,*58
$GPGGA,065353.400,3815.2946,N,14050.6393,E,1,9,1.04,146.5,M,37.1,M,,*58
$GPGGA,065353.400,3815.2946,N,14050.6393,E,1,9,1.04,146.5,M,37.1,M,,*58
$GPGGA,065353.400,3815.2946,N,14050.6393,E,1,9,1.04,146.5,M,37.1,M,,*58
$GPGGA,065353.400,3815.2946,N,14050.6393,E,1,9,1.04,146.5,M,37.1,M,,*58
$GPGGA,065353.400,3815.2946,N,14050.6393,E,1,9,1.04,146.5,M,37.1,M,,*58
$GPGGA,065353.400,3815.2946,N,14050.6393,E,1,9,1.04,146.5,M,37.1,M,,*58
$GPGGA,065353.400,3815.2946,N,14050.6393,E,1,9,1.04,146.5,M,37.1,M,,*58
$GPGGA,065353.400,3815.2946,N,14050.6393,E,1,9,1.04,146.5,M,37.1,M,,*58
$GPGGA,065353.400,3815.2946,N,14050.6393,E,1,9,1.04,146.5,M,37.1,M,,*58
$GPGGA,065353.400,3815.2946,N,14050.6393,E,1,9,1.04,146.5,M,37.1,M,,*58
$GPGGA,065353.400,3815.2946,N,14050.6393,E,1,9,1.04,146.5,M,37.1,M,,*58
$GPGGA,065353.400,3815.2946,N,14050.6393,E,1,9,1.04,146.5,M,37.1,M,,*58
$GPGGA,065353.400,3815.2946,N,14050.6393,E,1,9,1.04,146.5,M,37.1,M,,*58
$GPGGA,065353.400,3815.2946,N,14050.6393,E,1,9,1.04,146.5,M,37.1,M,,*58
$GPGGA,065353.400,3815.2946,N,14050.6393,E,1,9,1.04,146.5,M,37.1,M,,*58
$GPGGA,065353.400,3815.2946,N,14050.6393,E,1,9,1.04,146.5,M,37.1,M,,*58
$GPGGA,065353.400,3815.2946,N,14050.6393,E,1,9,1.04,146.5,M,37.1,M,,*58
$GPGGA,065353.400,3815.2946,N,14050.6393,E,1,9,1.04,146.5,M,37.1,M,,*58
$GPGGA,065353.400,3815.2946,N,14050.6393,E,1,9,1.04,146.5,M,37.1,M,,*58
$GPGGA,065353.400,3815.2946,N,14050.6393,E,1,9,1.04,146.5,M,37.1,M,,*58
$GPGGA,065353.400,3815.2946,N,14050.6393,E,1,9,1.04,146.5,M,37.1,M,,*58
$GPGGA,065353.400,3815.2946,N,14050.6393,E,1,9,1.04,146.5,M,37.1,M,,*58
$GPGGA,065353.400,3815.2946,N,14050.6393,E,1,9,1.04,146.5,M,37.1,M,,*58
$GPGGA,065353.400,3815.2946,N,14050.6393,E,1,9,1.04,146.5,M,37.1,M,,*58
$GPGGA,065353.400,3815.2946,N,14050.6393,E,1,9,1.04,146.5,M,37.1,M,,*58
$GPGGA,065353.400,3815.2946,N,14050.6393,E,1,9,1.04,146.5,M,37.1,M,,*58
$GPGGA,065353.400,3815.2946,N,14050.6393,E,1,9,1.04,146.5,M,37.1,M,,*58
$GPGGA,065353.400,3815.2946,N,14050.6393,E,1,9,1.04,146.5,M,37.1,M,,*58
$GPGGA,065353.400,3815.2946,N,14050.6393,E,1,9,1.04,146.5,M,37.1,M,,*58
$GPGGA,065353.400,3815.2946,N,14050.6393,E,1,9,1.04,146.5,M,37.1,M,,*58
$GPGGA,065353.400,3815.2946,N,14050.6393,E,1,9,1.04,146.5,M,37.1,M,,*58
$GPGGA,065353.400,3815.2946,N,14050.6393,E,1,9,1.04,146.5,M,37.1,M,,*58
$GPGGA,065353.400,3815.2946,N,14050.6393,E,1,9,1.04,146.5,M,37.1,M,,*58
$GPGGA,065353.400,3815.2946,N,14050.6393,E,1,9,1.04,146.5,M,37.1,M,,*58
$GPGGA,065353.400,3815.2946,N,14050.6393,E,1,9,1.04,146.5,M,37.1,M,,*58
$GPGGA,065353.400,3815.2946,N,14050.6393,E,1,9,1.04,146.5,M,37.1,M,,*58
$GPGGA,065353.400,3815.2946,N,14050.6393,E,1,9,1.04,146.5,M,37.1,M,,*58
$GPGGA,065353.400,3815.2946,N,14050.6393,E,1,9,1.04,146.5,M,37.1,M,,*58
$GPGGA,065353.400,3815.2946,N,14050.6393,E,1,9,1.04,146.5,M,37.1,M,,*58
$GPGGA,065353.400,3815.2946,N,14050.6393,E,1,9,1.04,146.5,M,37.1,M,,*58
$GPGGA,065353.400,3815.2946,N,14050.6393,E,1,9,1.04,146.5,M,37.1,M,,*58
$GPGGA,065353.400,3815.2946,N,14050.6393,E,1,9,1.04,146.5,M,37.1,M,,*58
$GPGGA,065353.400,3815.2946,N,14050.6393,E,1,9,1.04,146.5,M,37.1,M,,*58
$GPGGA,065353.400,3815.2946,N,14050.6393,E,1,9,1.04,146.5,M,37.1,M,,*58
$GPGGA,065353.400,3815.2946,N,14050.6393,E,1,9,1.04,146.5,M,37.1,M,,*58
$GPGGA,065353.400,3815.2946,N,14050.6393,E,1,9,1.04,146.5,M,37.1,M,,*58
$GPGGA,065353.400,3815.2946,N,14050.6393,E,1,9,1.04,146.5,M,37.1,M,,*58
$GPGGA,065353.400,3815.2946,N,14050.6393,E,1,9,1.04,146.5,M,37.1,M,,*58
$GPGGA,065353.400,3815.2946,N,14050.6393,E,1,9,1.04,146.5,M,37.1,M,,*58
$GPGGA,065353.400,3815.2946,N,14050.6393,E,1,9,1.04,146.5,M,37.1,M,,*58
$GPGGA,065353.400,3815.2946,N,14050.6393,E,1,9,1.04,146.5,M,37.1,M,,*58
$GPGGA,065353.400,3815.2946,N,14050.6393,E,1,9,1.04,146.5,M,37.1,M,,*58
$GPGGA,065353.400,3815.2946,N,14050.6393,E,1,9,1.04,146.5,M,37.1,M,,*58
$GPGGA,065353.400,3815.2946,N,14050.6393,E,1,9,1.04,146.5,M,37.1,M,,*58
$GPGGA,065353.400,3815.2946,N,14050.6393,E,1,9,1.04,146.5,M,37.1,M,,*58
$GPGGA,065353.400,3815.2946,N,14050.6393,E,1,9,1.04,146.5,M,37.1,M,,*58
$GPGGA,065353.400,3815.2946,N,14050.6393,E,1,9,1.04,146.5,M,37.1,M,,*58
$GPGGA,065353.400,3815.2946,N,14050.6393,E,1,9,1.04,146.5,M,37.1,M,,*58
$GPGGA,065353.400,3815.2946,N,14050.6393,E,1,9,1.04,146.5,M,37.1,M,,*58
$GPGGA,065353.400,3815.2946,N,14050.6393,E,1,9,1.04,146.5,M,37.1,M,,*58
$GPGGA,065353.400,3815.2946,N,14050.6393,E,1,9,1.04,146.5,M,37.1,M,,*58
$GPGGA,065353.400,3815.2946,N,14050.6393,E,1,9,1.04,146.5,M,37.1,M,,*58
$GPGGA,065353.400,3815.2946,N,14050.6393,E,1,9,1.04,146.5,M,37.1,M,,*58
$GPGGA,065353.400,3815.2946,N,14050.6393,E,1,9,1.04,146.5,M,37.1,M,,*58
$GPGGA,065353.400,3815.2946,N,14050.6393,E,1,9,1.04,146.5,M,37.1,M,,*58
$GPGGA,065353.400,3815.2946,N,14050.6393,E,1,9,1.04,146.5,M,37.1,M,,*58
$GPGGA,065353.400,3815.2946,N,14050.6393,E,1,9,1.04,146.5,M,37.1,M,,*58
$GPGGA,065353.400,3815.2946,N,14050.6393,E,1,9,1.04,146.5,M,37.1,M,,*58
$GPGGA,065353.400,3815.2946,N,14050.6393,E,1,9,1.04,146.5,M,37.1,M,,*58
$GPGGA,065353.400,3815.2946,N,14050.6393,E,1,9,1.04,146.5,M,37.1,M,,*58
$GPGGA,065353.400,3815.2946,N,14050.6393,E,1,9,1.04,146.5,M,37.1,M,,*58
$GPGGA,065353.400,3815.2946,N,14050.6393,E,1,9,1.04,146.5,M,37.1,M,,*58
$GPGGA,065353.400,3815.2946,N,14050.6393,E,1,9,1.04,146.5,M,37.1,M,,*58
$GPGGA,065353.400,3815.2946,N,14050.6393,E,1,9,1.04,146.5,M,37.1,M,,*58
$GPGGA,065353.400,3815.2946,N,14050.6393,E,1,9,1.04,146.5,M,37.1,M,,*58
$GPGGA,065353.400,3815.2946,N,14050.6393,E,1,9,1.04,146.5,M,37.1,M,,*58
$GPGGA,065353.400,3815.2946,N,14050.6393,E,1,9,1.04,146.5,M,37.1,M,,*58
$GPGGA,065353.400,3815.2946,N,14050.6393,E,1,9,1.04,146.5,M,37.1,M,,*58
$GPGGA,065353.400,3815.2946,N,14050.6393,E,1,9,1.04,146.5,M,37.1,M,,*58
$GPGGA,065353.400,3815.2946,N,14050.6393,E,1,9,1.04,146.5,M,37.1,M,,*58
$GPGGA,065353.400,3815.2946,N,14050.6393,E,1,9,1.04,146.5,M,37.1,M,,*58
$GPGGA,065353.400,3815.2946,N,14050.6393,E,1,9,1.04,146.5,M,37.1,M,,*58
$GPGGA,065353.400,3815.2946,N,14050.6393,E,1,9,1.04,146.5,M,37.1,M,,*58
$GPGGA,065353.400,3815.2946,N,14050.6393,E,1,9,1.04,146.5,M,37.1,M,,*58
$GPGGA,065353.400,3815.2946,N,14050.6393,E,1,9,1.04,146.5,M,37.1,M,,*58
$GPGGA,065353.400,3815.2946,N,14050.6393,E,1,9,1.04,146.5,M,37.1,M,,*58
$GPGGA,065353.400,3815.2946,N,14050.6393,E,1,9,1.04,146.5,M,37.1,M,,*58
$GPGGA,065353.400,3815.2946,N,14050.6393,E,1,9,1.04,146.5,M,37.1,M,,*58
$GPGGA,065353.400,3815.2946,N,14050.6393,E,1,9,1.04,146.5,M,37.1,M,,*58
$GPGGA,065353.400,3815.2946,N,14050.6393,E,1,9,1.04,146.5,M,37.1,M,,*58
$GPGGA,065353.400,3815.2946,N,14050.6393,E,1,9,1.04,146.5,M,37.1,M,,*58
$GPGGA,065353.400,3815.2946,N,14050.6393,E,1,9,1.04,146.5,M,37.1,M,,*58
$GPGGA,065353.400,3815.2946,N,14050.6393,E,1,9,1.04,146.5,M,37.1,M,,*58
$GPGGA,065353.400,3815.2946,N,14050.6393,E,1,9,1.04,146.5,M,37.1,M,,*58
$GPGGA,065353.400,3815.2946,N,14050.6393,E,1,9,1.04,146.5,M,37.1,M,,*58
$GPGGA,065353.400,3815.2946,N,14050.6393,E,1,9,1.04,146.5,M,37.1,M,,*58
$GPGGA,065353.400,3815.2946,N,14050.6393,E,1,9,1.04,146.5,M,37.1,M,,*58
$GPGGA,065353.400,3815.2946,N,14050.6393,E,1,9,1.04,146.5,M,37.1,M,,*58
$GPGGA,065353.400,3815.2946,N,14050.6393,E,1,9,1.04,146.5,M,37.1,M,,*58
$GPGGA,065353.400,3815.2946,N,14050.6393,E,1,9,1.04,146.5,M,37.1,M,,*58
$GPGGA,065353.400,3815.2946,N,14050.6393,E,1,9,1.04,146.5,M,37.1,M,,*58
$GPGGA,065353.400,3815.2946,N,14050.6393,E,1,9,1.04,146.5,M,37.1,M,,*58
$GPGGA,065353.400,3815.2946,N,14050.6393,E,1,9,1.04,146.5,M,37.1,M,,*58
$GPGGA,065353.400,3815.2946,N,14050.6393,E,1,9,1.04,146.5,M,37.1,M,,*58
$GPGGA,065353.400,3815.2946,N,14050.6393,E,1,9,1.04,146.5,M,37.1,M,,*58
$GPGGA,065353.400,3815.2946,N,14050.6393,E,1,9,1.04,146.5,M,37.1,M,,*58
$GPGGA,065353.400,3815.2946,N,14050.6393,E,1,9,1.04,146.5,M,37.1,M,,*58
$GPGGA,065353.400,3815.2946,N,14050.6393,E,1,9,1.04,146.5,M,37.1,M,,*58
$GPGGA,065353.400,3815.2946,N,14050.6393,E,1,9,1.04,146.5,M,37.1,M,,*58
$GPGGA,065353.400,3815.2946,N,14050.6393,E,1,9,1.04,146.5,M,37.1,M,,*58
$GPGGA,065353.400,3815.2946,N,14050.6393,E,1,9,1.04,146.5,M,37.1,M,,*58
$GPGGA,065353.400,3815.2946,N,14050.6393,E,1,9,1.04,146.5,M,37.1,M,,*58
$GPGGA,065353.400,3815.2946,N,14050.6393,E,1,9,1.04,146.5,M,37.1,M,,*58
$GPGGA,065353.400,3815.2946,N,14050.6393,E,1,9,1.04,146.5,M,37.1,M,,*58
$GPGGA,065353.400,3815.2946,N,14050.6393,E,1,9,1.04,146.5,M,37.1,M,,*58
$GPGGA,065353.400,3815.2946,N,14050.6393,E,1,9,1.04,146.5,M,37.1,M,,*58
$GPGGA,065353.400,3815.2946,N,14050.6393,E,1,9,1.04,146.5,M,37.1,M,,*58
$GPGGA,065353.400,3815.2946,N,14050.6393,E,1,9,1.04,146.5,M,37.1,M,,*58
$GPGGA,065353.400,3815.2946,N,14050.6393,E,1,9,1.04,146.5,M,37.1,M,,*58
$GPGGA,065353.400,3815.2946,N,14050.6393,E,1,9,1.04,146.5,M,37.1,M,,*58
$GPGGA,065353.400,3815.2946,N,14050.6393,E,1,9,1.04,146.5,M,37.1,M,,*58
$GPGGA,065353.400,3815.2946,N,14050.6393,E,1,9,1.04,146.5,M,37.1,M,,*58
$GPGGA,065353.400,3815.2946,N,14050.6393,E,1,9,1.04,146.5,M,37.1,M,,*58
$GPGGA,065353.400,3815.2946,N,14050.6393,E,1,9,1.04,146.5,M,37.1,M,,*58
$GPGGA,065353.400,3815.2946,N,14050.6393,E,1,9,1.04,146.5,M,37.1,M,,*58
$GPGGA,065353.400,3815.2946,N,14050.6393,E,1,9,1.04,146.5,M,37.1,M,,*58
$GPGGA,065353.400,3815.2946,N,14050.6393,E,1,9,1.04,146.5,M,37.1,M,,*58
$GPGGA,065353.400,3815.2946,N,14050.6393,E,1,9,1.04,146.5,M,37.1,M,,*58
$GPGGA,065353.400,3815.2946,N,14050.6393,E,1,9,1.04,146.5,M,37.1,M,,*58
$GPGGA,065353.400,3815.2946,N,14050.6393,E,1,9,1.04,146.5,M,37.1,M,,*58
$GPGGA,065353.400,3815.2946,N,14050.6393,E,1,9,1.04,146.5,M,37.1,M,,*58
$GPGGA,065353.400,3815.2946,N,14050.6393,E,1,9,1.04,146.5,M,37.1,M,,*58
$GPGGA,065353.400,3815.2946,N,14050.6393,E,1,9,1.04,146.5,M,37.1,M,,*58
$GPGGA,065353.400,3815.2946,N,14050.6393,E,1,9,1.04,146.5,M,37.1,M,,*58
$GPGGA,065353.400,3815.2946,N,14050.6393,E,1,9,1.04,146.5,M,37.1,M,,*58
$GPGGA,065353.400,3815.2946,N,14050.6393,E,1,9,1.04,146.5,M,37.1,M,,*58
$GPGGA,065353.400,3815.2946,N,14050.6393,E,1,9,1.04,146.5,M,37.1,M,,*58
$GPGGA,065353.400,3815.2946,N,14050.6393,E,1,9,1.04,146.5,M,37.1,M,,*58
$GPGGA,065353.400,3815.2946,N,14050.6393,E,1,9,1.04,146.5,M,37.1,M,,*58
$GPGGA,065353.400,3815.2946,N,14050.6393,E,1,9,1.04,146.5,M,37.1,M,,*58
$GPGGA,065353.400,3815.2946,N,14050.6393,E,1,9,1.04,146.5,M,37.1,M,,*58
$GPGGA,065353.400,3815.2946,N,14050.6393,E,1,9,1.04,146.5,M,37.1,M,,*58
$GPGGA,065353.400,3815.2946,N,14050.6393,E,1,9,1.04,146.5,M,37.1,M,,*58
$GPGGA,065353.400,3815.2946,N,14050.6393,E,1,9,1.04,146.5,M,37.1,M,,*58
$GPGGA,065353.400,3815.2946,N,14050.6393,E,1,9,1.04,146.5,M,37.1,M,,*58
$GPGGA,065353.400,3815.2946,N,14050.6393,E,1,9,1.04,146.5,M,37.1,M,,*58
$GPGGA,065353.400,3815.2946,N,14050.6393,E,1,9,1.04,146.5,M,37.1,M,,*58
$GPGGA,065353.400,3815.2946,N,14050.6393,E,1,9,1.04,146.5,M,37.1,M,,*58
$GPGGA,065353.400,3815.2946,N,14050.6393,E,1,9,1.04,146.5,M,37.1,M,,*58
$GPGGA,065353.400,3815.2946,N,14050.6393,E,1,9,1.04,146.5,M,37.1,M,,*58
$GPGGA,065353.400,3815.2946,N,14050.6393,E,1,9,1.04,146.5,M,37.1,M,,*58
$GPGGA,065353.400,3815.2946,N,14050.6393,E,1,9,1.04,146.5,M,37.1,M,,*58
$GPGGA,065353.400,3815.2946,N,14050.6393,E,1,9,1.04,146.5,M,37.1,M,,*58
$GPGGA,065353.400,3815.2946,N,14050.6393,E,1,9,1.04,146.5,M,37.1,M,,*58
$GPGGA,065353.400,3815.2946,N,14050.6393,E,1,9,1.04,146.5,M,37.1,M,,*58
$GPGGA,065353.400,3815.2946,N,14050.6393,E,1,9,1.04,146.5,M,37.1,M,,*58
$GPGGA,065353.400,3815.2946,N,14050.6393,E,1,9,1.04,146.5,M,37.1,M,,*58
$GPGGA,065353.400,3815.2946,N,14050.6393,E,1,9,1.04,146.5,M,37.1,M,,*58
$GPGGA,065353.400,3815.2946,N,14050.6393,E,1,9,1.04,146.5,M,37.1,M,,*58
$GPGGA,065353.400,3815.2946,N,14050.6393,E,1,9,1.04,146.5,M,37.1,M,,*58
$GPGGA,065353.400,3815.2946,N,14050.6393,E,1,9,1.04,146.5,M,37.1,M,,*58
$GPGGA,065353.400,3815.2946,N,14050.6393,E,1,9,1.04,146.5,M,37.1,M,,*58
$GPGGA,065353.400,3815.2946,N,14050.6393,E,1,9,1.04,146.5,M,37.1,M,,*58
$GPGGA,065353.400,3815.2946,N,14050.6393,E,1,9,1.04,146.5,M,37.1,M,,*58
$GPGGA,065353.400,3815.2946,N,14050.6393,E,1,9,1.04,146.5,M,37.1,M,,*58
$GPGGA,065353.400,3815.2946,N,14050.6393,E,1,9,1.04,146.5,M,37.1,M,,*58
$GPGGA,065353.400,3815.2946,N,14050.6393,E,1,9,1.04,146.5,M,37.1,M,,*58
$GPGGA,065353.400,3815.2946,N,14050.6393,E,1,9,1.04,146.5,M,37.1,M,,*58
$GPGGA,065353.400,3815.2946,N,14050.6393,E,1,9,1.04,146.5,M,37.1,M,,*58
$GPGGA,065353.400,3815.2946,N,14050.6393,E,1,9,1.04,146.5,M,37.1,M,,*58
$GPGGA,065353.400,3815.2946,N,14050.6393,E,1,9,1.04,146.5,M,37.1,M,,*58
$GPGGA,065353.400,3815.2946,N,14050.6393,E,1,9,1.04,146.5,M,37.1,M,,*58
$GPGGA,065353.400,3815.2946,N,14050.6393,E,1,9,1.04,146.5,M,37.1,M,,*58
$GPGGA,065353.400,3815.2946,N,14050.6393,E,1,9,1.04,146.5,M,37.1,M,,*58
$GPGGA,065353.400,3815.2946,N,14050.6393,E,1,9,1.04,146.5,M,37.1,M,,*58
$GPGGA,065353.400,3815.2946,N,14050.6393,E,1,9,1.04,146.5,M,37.1,M,,*58
$GPGGA,065353.400,3815.2946,N,14050.6393,E,1,9,1.04,146.5,M,37.1,M,,*58
$GPGGA,065353.400,3815.2946,N,14050.6393,E,1,9,1.04,146.5,M,37.1,M,,*58
$GPGGA,065353.400,3815.2946,N,14050.6393,E,1,9,1.04,146.5,M,37.1,M,,*58
$GPGGA,065353.400,3815.2946,N,14050.6393,E,1,9,1.04,146.5,M,37.1,M,,*58
$GPGGA,065353.400,3815.2946,N,14050.6393,E,1,9,1.04,146.5,M,37.1,M,,*58
$GPGGA,065353.400,3815.2946,N,14050.6393,E,1,9,1.04,146.5,M,37.1,M,,*58
$GPGGA,065353.400,3815.2946,N,14050.6393,E,1,9,1.04,146.5,M,37.1,M,,*58
$GPGGA,065353.400,3815.2946,N,14050.6393,E,1,9,1.04,146.5,M,37.1,M,,*58
$GPGGA,065353.400,3815.2946,N,14050.6393,E,1,9,1.04,146.5,M,37.1,M,,*58
$GPGGA,065353.400,3815.2946,N,14050.6393,E,1,9,1.04,146.5,M,37.1,M,,*58
$GPGGA,065353.400,3815.2946,N,14050.6393,E,1,9,1.04,146.5,M,37.1,M,,*58
$GPGGA,065353.400,3815.2946,N,14050.6393,E,1,9,1.04,146.5,M,37.1,M,,*58
$GPGGA,065353.400,3815.2946,N,14050.6393,E,1,9,1.04,146.5,M,37.1,M,,*58
$GPGGA,065353.400,3815.2946,N,14050.6393,E,1,9,1.04,146.5,M,37.1,M,,*58
$GPGGA,065353.400,3815.2946,N,14050.6393,E,1,9,1.04,146.5,M,37.1,M,,*58
$GPGGA,065353.400,3815.2946,N,14050.6393,E,1,9,1.04,146.5,M,37.1,M,,*58
$GPGGA,065353.400,3815.2946,N,14050.6393,E,1,9,1.04,146.5,M,37.1,M,,*58
$GPGGA,065353.400,3815.2946,N,14050.6393,E,1,9,1.04,146.5,M,37.1,M,,*58
$GPGGA,065353.400,3815.2946,N,14050.6393,E,1,9,1.04,146.5,M,37.1,M,,*58
$GPGGA,065353.400,3815.2946,N,14050.6393,E,1,9,1.04,146.5,M,37.1,M,,*58
$GPGGA,065353.400,3815.2946,N,14050.6393,E,1,9,1.04,146.5,M,37.1,M,,*58
$GPGGA,065353.400,3815.2946,N,14050.6393,E,1,9,1.04,146.5,M,37.1,M,,*58
$GPGGA,065353.400,3815.2946,N,14050.6393,E,1,9,1.04,146.5,M,37.1,M,,*58
$GPGGA,065353.400,3815.2946,N,14050.6393,E,1,9,1.04,146.5,M,37.1,M,,*58
$GPGGA,065353.400,3815.2946,N,14050.6393,E,1,9,1.04,146.5,M,37.1,M,,*58
$GPGGA,065353.400,3815.2946,N,14050.6393,E,1,9,1.04,146.5,M,37.1,M,,*58
$GPGGA,065353.400,3815.2946,N,14050.6393,E,1,9,1.04,146.5,M,37.1,M,,*58
$GPGGA,065353.400,3815.2946,N,14050.6393,E,1,9,1.04,146.5,M,37.1,M,,*58
$GPGGA,065353.400,3815.2946,N,14050.6393,E,1,9,1.04,146.5,M,37.1,M,,*58
$GPGGA,065353.400,3815.2946,N,14050.6393,E,1,9,1.04,146.5,M,37.1,M,,*58
$GPGGA,065353.400,3815.2946,N,14050.6393,E,1,9,1.04,146.5,M,37.1,M,,*58
$GPGGA,065353.400,3815.2946,N,14050.6393,E,1,9,1.04,146.5,M,37.1,M,,*58
$GPGGA,065353.400,3815.2946,N,14050.6393,E,1,9,1.04,146.5,M,37.1,M,,*58
$GPGGA,065353.400,3815.2946,N,14050.6393,E,1,9,1.04,146.5,M,37.1,M,,*58
$GPGGA,065353.400,3815.2946,N,14050.6393,E,1,9,1.04,146.5,M,37.1,M,,*58
$GPGGA,065353.400,3815.2946,N,14050.6393,E,1,9,1.04,146.5,M,37.1,M,,*58
$GPGGA,065353.400,3815.2946,N,14050.6393,E,1,9,1.04,146.5,M,37.1,M,,*58
$GPGGA,065353.400,3815.2946,N,14050.6393,E,1,9,1.04,146.5,M,37.1,M,,*58
$GPGGA,065353.400,3815.2946,N,14050.6393,E,1,9,1.04,146.5,M,37.1,M,,*58
$GPGGA,065353.400,3815.2946,N,14050.6393,E,1,9,1.04,146.5,M,37.1,M,,*58
$GPGGA,065353.400,3815.2946,N,14050.6393,E,1,9,1.04,146.5,M,37.1,M,,*58
$GPGGA,065353.400,3815.2946,N,14050.6393,E,1,9,1.04,146.5,M,37.1,M,,*58
$GPGGA,065353.400,3815.2946,N,14050.6393,E,1,9,1.04,146.5,M,37.1,M,,*58
$GPGGA,065353.400,3815.2946,N,14050.6393,E,1,9,1.04,146.5,M,37.1,M,,*58
$GPGGA,065353.400,3815.2946,N,14050.6393,E,1,9,1.04,146.5,M,37.1,M,,*58
$GPGGA,065353.400,3815.2946,N,14050.6393,E,1,9,1.04,146.5,M,37.1,M,,*58
$GPGGA,065353.400,3815.2946,N,14050.6393,E,1,9,1.04,146.5,M,37.1,M,,*58
$GPGGA,065353.400,3815.2946,N,14050.6393,E,1,9,1.04,146.5,M,37.1,M,,*58
$GPGGA,065353.400,3815.2946,N,14050.6393,E,1,9,1.04,146.5,M,37.1,M,,*58
$GPGGA,065353.400,3815.2946,N,14050.6393,E,1,9,1.04,146.5,M,37.1,M,,*58
$GPGGA,065353.400,3815.2946,N,14050.6393,E,1,9,1.04,146.5,M,37.1,M,,*58
$GPGGA,065353.400,3815.2946,N,14050.6393,E,1,9,1.04,146.5,M,37.1,M,,*58
$GPGGA,065353.400,3815.2946,N,14050.6393,E,1,9,1.04,146.5,M,37.1,M,,*58
$GPGGA,065353.400,3815.2946,N,14050.6393,E,1,9,1.04,146.5,M,37.1,M,,*58
$GPGGA,065353.400,3815.2946,N,14050.6393,E,1,9,1.04,146.5,M,37.1,M,,*58
$GPGGA,065353.400,3815.2946,N,14050.6393,E,1,9,1.04,146.5,M,37.1,M,,*58
$GPGGA,065353.400,3815.2946,N,14050.6393,E,1,9,1.04,146.5,M,37.1,M,,*58
$GPGGA,065353.400,3815.2946,N,14050.6393,E,1,9,1.04,146.5,M,37.1,M,,*58
$GPGGA,065353.400,3815.2946,N,14050.6393,E,1,9,1.04,146.5,M,37.1,M,,*58
$GPGGA,065353.400,3815.2946,N,14050.6393,E,1,9,1.04,146.5,M,37.1,M,,*58
$GPGGA,065353.400,3815.2946,N,14050.6393,E,1,9,1.04,146.5,M,37.1,M,,*58
$GPGGA,065353.400,3815.2946,N,14050.6393,E,1,9,1.04,146.5,M,37.1,M,,*58
$GPGGA,065353.400,3815.2946,N,14050.6393,E,1,9,1.04,146.5,M,37.1,M,,*58
$GPGGA,065353.400,3815.2946,N,14050.6393,E,1,9,1.04,146.5,M,37.1,M,,*58
$GPGGA,065353.400,3815.2946,N,14050.6393,E,1,9,1.04,146.5,M,37.1,M,,*58
$GPGGA,065353.400,3815.2946,N,14050.6393,E,1,9,1.04,146.5,M,37.1,M,,*58
$GPGGA,065353.400,3815.2946,N,14050.6393,E,1,9,1.04,146.5,M,37.1,M,,*58
$GPGGA,065353.400,3815.2946,N,14050.6393,E,1,9,1.04,146.5,M,37.1,M,,*58
$GPGGA,065353.400,3815.2946,N,14050.6393,E,1,9,1.04,146.5,M,37.1,M,,*58
$GPGGA,065353.400,3815.2946,N,14050.6393,E,1,9,1.04,146.5,M,37.1,M,,*58
$GPGGA,065353.400,3815.2946,N,14050.6393,E,1,9,1.04,146.5,M,37.1,M,,*58
$GPGGA,065353.400,3815.2946,N,14050.6393,E,1,9,1.04,146.5,M,37.1,M,,*58
$GPGGA,065353.400,3815.2946,N,14050.6393,E,1,9,1.04,146.5,M,37.1,M,,*58
$GPGGA,065353.400,3815.2946,N,14050.6393,E,1,9,1.04,146.5,M,37.1,M,,*58
$GPGGA,065353.400,3815.2946,N,14050.6393,E,1,9,1.04,146.5,M,37.1,M,,*58
$GPGGA,065353.400,3815.2946,N,14050.6393,E,1,9,1.04,146.5,M,37.1,M,,*58
$GPGGA,065353.400,3815.2946,N,14050.6393,E,1,9,1.04,146.5,M,37.1,M,,*58
$GPGGA,065353.400,3815.2946,N,14050.6393,E,1,9,1.04,146.5,M,37.1,M,,*58
$GPGGA,065353.400,3815.2946,N,14050.6393,E,1,9,1.04,146.5,M,37.1,M,,*58
$GPGGA,065353.400,3815.2946,N,14050.6393,E,1,9,1.04,146.5,M,37.1,M,,*58
$GPGGA,065353.400,3815.2946,N,14050.6393,E,1,9,1.04,146.5,M,37.1,M,,*58
$GPGGA,065353.400,3815.2946,N,14050.6393,E,1,9,1.04,146.5,M,37.1,M,,*58
$GPGGA,065353.400,3815.2946,N,14050.6393,E,1,9,1.04,146.5,M,37.1,M,,*58
$GPGGA,065353.400,3815.2946,N,14050.6393,E,1,9,1.04,146.5,M,37.1,M,,*58
$GPGGA,065353.400,3815.2946,N,14050.6393,E,1,9,1.04,146.5,M,37.1,M,,*58
$GPGGA,065353.400,3815.2946,N,14050.6393,E,1,9,1.04,146.5,M,37.1,M,,*58
$GPGGA,065353.400,3815.2946,N,14050.6393,E,1,9,1.04,146.5,M,37.1,M,,*58
$GPGGA,065353.400,3815.2946,N,14050.6393,E,1,9,1.04,146.5,M,37.1,M,,*58
$GPGGA,065353.400,3815.2946,N,14050.6393,E,1,9,1.04,146.5,M,37.1,M,,*58
$GPGGA,065353.400,3815.2946,N,14050.6393,E,1,9,1.04,146.5,M,37.1,M,,*58
$GPGGA,065353.400,3815.2946,N,14050.6393,E,1,9,1.04,146.5,M,37.1,M,,*58
$GPGGA,065353.400,3815.2946,N,14050.6393,E,1,9,1.04,146.5,M,37.1,M,,*58
$GPGGA,065353.400,3815.2946,N,14050.6393,E,1,9,1.04,146.5,M,37.1,M,,*58
$GPGGA,065353.400,3815.2946,N,14050.6393,E,1,9,1.04,146.5,M,37.1,M,,*58
$GPGGA,065353.400,3815.2946,N,14050.6393,E,1,9,1.04,146.5,M,37.1,M,,*58
$GPGGA,065353.400,3815.2946,N,14050.6393,E,1,9,1.04,146.5,M,37.1,M,,*58
$GPGGA,065353.400,3815.2946,N,14050.6393,E,1,9,1.04,146.5,M,37.1,M,,*58
$GPGGA,065353.400,3815.2946,N,14050.6393,E,1,9,1.04,146.5,M,37.1,M,,*58
$GPGGA,065353.400,3815.2946,N,14050.6393,E,1,9,1.04,146.5,M,37.1,M,,*58
$GPGGA,065353.400,3815.2946,N,14050.6393,E,1,9,1.04,146.5,M,37.1,M,,*58
$GPGGA,065353.400,3815.2946,N,14050.6393,E,1,9,1.04,146.5,M,37.1,M,,*58
$GPGGA,065353.400,3815.2946,N,14050.6393,E,1,9,1.04,146.5,M,37.1,M,,*58
$GPGGA,065353.400,3815.2946,N,14050.6393,E,1,9,1.04,146.5,M,37.1,M,,*58
$GPGGA,065353.400,3815.2946,N,14050.6393,E,1,9,1.04,146.5,M,37.1,M,,*58
$GPGGA,065353.400,3815.2946,N,14050.6393,E,1,9,1.04,146.5,M,37.1,M,,*58
$GPGGA,065353.400,3815.2946,N,14050.6393,E,1,9,1.04,146.5,M,37.1,M,,*58
$GPGGA,065353.400,3815.2946,N,14050.6393,E,1,9,1.04,146.5,M,37.1,M,,*58
$GPGGA,065353.400,3815.2946,N,14050.6393,E,1,9,1.04,146.5,M,37.1,M,,*58
$GPGGA,065353.400,3815.2946,N,14050.6393,E,1,9,1.04,146.5,M,37.1,M,,*58
$GPGGA,065353.400,3815.2946,N,14050.6393,E,1,9,1.04,146.5,M,37.1,M,,*58
$GPGGA,065353.400,3815.2946,N,14050.6393,E,1,9,1.04,146.5,M,37.1,M,,*58
$GPGGA,065353.400,3815.2946,N,14050.6393,E,1,9,1.04,146.5,M,37.1,M,,*58
$GPGGA,065353.400,3815.2946,N,14050.6393,E,1,9,1.04,146.5,M,37.1,M,,*58
$GPGGA,065353.400,3815.2946,N,14050.6393,E,1,9,1.04,146.5,M,37.1,M,,*58
$GPGGA,065353.400,3815.2946,N,14050.6393,E,1,9,1.04,146.5,M,37.1,M,,*58
$GPGGA,065353.400,3815.2946,N,14050.6393,E,1,9,1.04,146.5,M,37.1,M,,*58
$GPGGA,065353.400,3815.2946,N,14050.6393,E,1,9,1.04,146.5,M,37.1,M,,*58
$GPGGA,065353.400,3815.2946,N,14050.6393,E,1,9,1.04,146.5,M,37.1,M,,*58
$GPGGA,065353.400,3815.2946,N,14050.6393,E,1,9,1.04,146.5,M,37.1,M,,*58
$GPGGA,065353.400,3815.2946,N,14050.6393,E,1,9,1.04,146.5,M,37.1,M,,*58
$GPGGA,065353.400,3815.2946,N,14050.6393,E,1,9,1.04,146.5,M,37.1,M,,*58
$GPGGA,065353.400,3815.2946,N,14050.6393,E,1,9,1.04,146.5,M,37.1,M,,*58
$GPGGA,065353.400,3815.2946,N,14050.6393,E,1,9,1.04,146.5,M,37.1,M,,*58
$GPGGA,065353.400,3815.2946,N,14050.6393,E,1,9,1.04,146.5,M,37.1,M,,*58
$GPGGA,065353.400,3815.2946,N,14050.6393,E,1,9,1.04,146.5,M,37.1,M,,*58
$GPGGA,065353.400,3815.2946,N,14050.6393,E,1,9,1.04,146.5,M,37.1,M,,*58
$GPGGA,065353.400,3815.2946,N,14050.6393,E,1,9,1.04,146.5,M,37.1,M,,*58
$GPGGA,065353.400,3815.2946,N,14050.6393,E,1,9,1.04,146.5,M,37.1,M,,*58
$GPGGA,065353.400,3815.2946,N,14050.6393,E,1,9,1.04,146.5,M,37.1,M,,*58
$GPGGA,065353.400,3815.2946,N,14050.6393,E,1,9,1.04,146.5,M,37.1,M,,*58
$GPGGA,065353.400,3815.2946,N,14050.6393,E,1,9,1.04,146.5,M,37.1,M,,*58
$GPGGA,065353.400,3815.2946,N,14050.6393,E,1,9,1.04,146.5,M,37.1,M,,*58
$GPGGA,065353.400,3815.2946,N,14050.6393,E,1,9,1.04,146.5,M,37.1,M,,*58
$GPGGA,065353.400,3815.2946,N,14050.6393,E,1,9,1.04,146.5,M,37.1,M,,*58
$GPGGA,065353.400,3815.2946,N,14050.6393,E,1,9,1.04,146.5,M,37.1,M,,*58
$GPGGA,065353.400,3815.2946,N,14050.6393,E,1,9,1.04,146.5,M,37.1,M,,*58
$GPGGA,065353.400,3815.2946,N,14050.6393,E,1,9,1.04,146.5,M,37.1,M,,*58
$GPGGA,065353.400,3815.2946,N,14050.6393,E,1,9,1.04,146.5,M,37.1,M,,*58
$GPGGA,065353.400,3815.2946,N,14050.6393,E,1,9,1.04,146.5,M,37.1,M,,*58
$GPGGA,065353.400,3815.2946,N,14050.6393,E,1,9,1.04,146.5,M,37.1,M,,*58
$GPGGA,065353.400,3815.2946,N,14050.6393,E,1,9,1.04,146.5,M,37.1,M,,*58
$GPGGA,065353.400,3815.2946,N,14050.6393,E,1,9,1.04,146.5,M,37.1,M,,*58
$GPGGA,065353.400,3815.2946,N,14050.6393,E,1,9,1.04,146.5,M,37.1,M,,*58
$GPGGA,065353.400,3815.2946,N,14050.6393,E,1,9,1.04,146.5,M,37.1,M,,*58
$GPGGA,065353.400,3815.2946,N,14050.6393,E,1,9,1.04,146.5,M,37.1,M,,*58
$GPGGA,065353.400,3815.2946,N,14050.6393,E,1,9,1.04,146.5,M,37.1,M,,*58
$GPGGA,065353.400,3815.2946,N,14050.6393,E,1,9,1.04,146.5,M,37.1,M,,*58
$GPGGA,065353.400,3815.2946,N,14050.6393,E,1,9,1.04,146.5,M,37.1,M,,*58
$GPGGA,065353.400,3815.2946,N,14050.6393,E,1,9,1.04,146.5,M,37.1,M,,*58
$GPGGA,065353.400,3815.2946,N,14050.6393,E,1,9,1.04,146.5,M,37.1,M,,*58
$GPGGA,065353.400,3815.2946,N,14050.6393,E,1,9,1.04,146.5,M,37.1,M,,*58
$GPGGA,065353.400,3815.2946,N,14050.6393,E,1,9,1.04,146.5,M,37.1,M,,*58
$GPGGA,065353.400,3815.2946,N,14050.6393,E,1,9,1.04,146.5,M,37.1,M,,*58
$GPGGA,065353.400,3815.2946,N,14050.6393,E,1,9,1.04,146.5,M,37.1,M,,*58
$GPGGA,065353.400,3815.2946,N,14050.6393,E,1,9,1.04,146.5,M,37.1,M,,*58
$GPGGA,065353.400,3815.2946,N,14050.6393,E,1,9,1.04,146.5,M,37.1,M,,*58
$GPGGA,065353.400,3815.2946,N,14050.6393,E,1,9,1.04,146.5,M,37.1,M,,*58
$GPGGA,065353.400,3815.2946,N,14050.6393,E,1,9,1.04,146.5,M,37.1,M,,*58
$GPGGA,065353.400,3815.2946,N,14050.6393,E,1,9,1.04,146.5,M,37.1,M,,*58
$GPGGA,065353.400,3815.2946,N,14050.6393,E,1,9,1.04,146.5,M,37.1,M,,*58
$GPGGA,065353.400,3815.2946,N,14050.6393,E,1,9,1.04,146.5,M,37.1,M,,*58
$GPGGA,065353.400,3815.2946,N,14050.6393,E,1,9,1.04,146.5,M,37.1,M,,*58
$GPGGA,065353.400,3815.2946,N,14050.6393,E,1,9,1.04,146.5,M,37.1,M,,*58
$GPGGA,065353.400,3815.2946,N,14050.6393,E,1,9,1.04,146.5,M,37.1,M,,*58
$GPGGA,065353.400,3815.2946,N,14050.6393,E,1,9,1.04,146.5,M,37.1,M,,*58
$GPGGA,065353.400,3815.2946,N,14050.6393,E,1,9,1.04,146.5,M,37.1,M,,*58
$GPGGA,065353.400,3815.2946,N,14050.6393,E,1,9,1.04,146.5,M,37.1,M,,*58
$GPGGA,065353.400,3815.2946,N,14050.6393,E,1,9,1.04,146.5,M,37.1,M,,*58
$GPGGA,065353.400,3815.2946,N,14050.6393,E,1,9,1.04,146.5,M,37.1,M,,*58
$GPGGA,065353.400,3815.2946,N,14050.6393,E,1,9,1.04,146.5,M,37.1,M,,*58
$GPGGA,065353.400,3815.2946,N,14050.6393,E,1,9,1.04,146.5,M,37.1,M,,*58
$GPGGA,065353.400,3815.2946,N,14050.6393,E,1,9,1.04,146.5,M,37.1,M,,*58
$GPGGA,065353.400,3815.2946,N,14050.6393,E,1,9,1.04,146.5,M,37.1,M,,*58
$GPGGA,065353.400,3815.2946,N,14050.6393,E,1,9,1.04,146.5,M,37.1,M,,*58
$GPGGA,065353.400,3815.2946,N,14050.6393,E,1,9,1.04,146.5,M,37.1,M,,*58
$GPGGA,065353.400,3815.2946,N,14050.6393,E,1,9,1.04,146.5,M,37.1,M,,*58
$GPGGA,065353.400,3815.2946,N,14050.6393,E,1,9,1.04,146.5,M,37.1,M,,*58
$GPGGA,065353.400,3815.2946,N,14050.6393,E,1,9,1.04,146.5,M,37.1,M,,*58
$GPGGA,065353.400,3815.2946,N,14050.6393,E,1,9,1.04,146.5,M,37.1,M,,*58
$GPGGA,065353.400,3815.2946,N,14050.6393,E,1,9,1.04,146.5,M,37.1,M,,*58
$GPGGA,065353.400,3815.2946,N,14050.6393,E,1,9,1.04,146.5,M,37.1,M,,*58
$GPGGA,065353.400,3815.2946,N,14050.6393,E,1,9,1.04,146.5,M,37.1,M,,*58
$GPGGA,065353.400,3815.2946,N,14050.6393,E,1,9,1.04,146.5,M,37.1,M,,*58
$GPGGA,065353.400,3815.2946,N,14050.6393,E,1,9,1.04,146.5,M,37.1,M,,*58
$GPGGA,065353.400,3815.2946,N,14050.6393,E,1,9,1.04,146.5,M,37.1,M,,*58
$GPGGA,065353.400,3815.2946,N,14050.6393,E,1,9,1.04,146.5,M,37.1,M,,*58
$GPGGA,065353.400,3815.2946,N,14050.6393,E,1,9,1.04,146.5,M,37.1,M,,*58
$GPGGA,065353.400,3815.2946,N,14050.6393,E,1,9,1.04,146.5,M,37.1,M,,*58
$GPGGA,065353.400,3815.2946,N,14050.6393,E,1,9,1.04,146.5,M,37.1,M,,*58
$GPGGA,065353.400,3815.2946,N,14050.6393,E,1,9,1.04,146.5,M,37.1,M,,*58
$GPGGA,065353.400,3815.2946,N,14050.6393,E,1,9,1.04,146.5,M,37.1,M,,*58
$GPGGA,065353.400,3815.2946,N,14050.6393,E,1,9,1.04,146.5,M,37.1,M,,*58
$GPGGA,065353.400,3815.2946,N,14050.6393,E,1,9,1.04,146.5,M,37.1,M,,*58
$GPGGA,065353.400,3815.2946,N,14050.6393,E,1,9,1.04,146.5,M,37.1,M,,*58
$GPGGA,065353.400,3815.2946,N,14050.6393,E,1,9,1.04,146.5,M,37.1,M,,*58
$GPGGA,065353.400,3815.2946,N,14050.6393,E,1,9,1.04,146.5,M,37.1,M,,*58
$GPGGA,065353.400,3815.2946,N,14050.6393,E,1,9,1.04,146.5,M,37.1,M,,*58
$GPGGA,065353.400,3815.2946,N,14050.6393,E,1,9,1.04,146.5,M,37.1,M,,*58
$GPGGA,065353.400,3815.2946,N,14050.6393,E,1,9,1.04,146.5,M,37.1,M,,*58
$GPGGA,065353.400,3815.2946,N,14050.6393,E,1,9,1.04,146.5,M,37.1,M,,*58
$GPGGA,065353.400,3815.2946,N,14050.6393,E,1,9,1.04,146.5,M,37.1,M,,*58
$GPGGA,065353.400,3815.2946,N,14050.6393,E,1,9,1.04,146.5,M,37.1,M,,*58
$GPGGA,065353.400,3815.2946,N,14050.6393,E,1,9,1.04,146.5,M,37.1,M,,*58
$GPGGA,065353.400,3815.2946,N,14050.6393,E,1,9,1.04,146.5,M,37.1,M,,*58
$GPGGA,065353.400,3815.2946,N,14050.6393,E,1,9,1.04,146.5,M,37.1,M,,*58
$GPGGA,065353.400,3815.2946,N,14050.6393,E,1,9,1.04,146.5,M,37.1,M,,*58
$GPGGA,065353.400,3815.2946,N,14050.6393,E,1,9,1.04,146.5,M,37.1,M,,*58
$GPGGA,065353.400,3815.2946,N,14050.6393,E,1,9,1.04,146.5,M,37.1,M,,*58
$GPGGA,065353.400,3815.2946,N,14050.6393,E,1,9,1.04,146.5,M,37.1,M,,*58
$GPGGA,065353.400,3815.2946,N,14050.6393,E,1,9,1.04,146.5,M,37.1,M,,*58
$GPGGA,065353.400,3815.2946,N,14050.6393,E,1,9,1.04,146.5,M,37.1,M,,*58
$GPGGA,065353.400,3815.2946,N,14050.6393,E,1,9,1.04,146.5,M,37.1,M,,*58
$GPGGA,065353.400,3815.2946,N,14050.6393,E,1,9,1.04,146.5,M,37.1,M,,*58
$GPGGA,065353.400,3815.2946,N,14050.6393,E,1,9,1.04,146.5,M,37.1,M,,*58
$GPGGA,065353.400,3815.2946,N,14050.6393,E,1,9,1.04,146.5,M,37.1,M,,*58
$GPGGA,065353.400,3815.2946,N,14050.6393,E,1,9,1.04,146.5,M,37.1,M,,*58
$GPGGA,065353.400,3815.2946,N,14050.6393,E,1,9,1.04,146.5,M,37.1,M,,*58
$GPGGA,065353.400,3815.2946,N,14050.6393,E,1,9,1.04,146.5,M,37.1,M,,*58
$GPGGA,065353.400,3815.2946,N,14050.6393,E,1,9,1.04,146.5,M,37.1,M,,*58
$GPGGA,065353.400,3815.2946,N,14050.6393,E,1,9,1.04,146.5,M,37.1,M,,*58
$GPGGA,065353.400,3815.2946,N,14050.6393,E,1,9,1.04,146.5,M,37.1,M,,*58
$GPGGA,065353.400,3815.2946,N,14050.6393,E,1,9,1.04,146.5,M,37.1,M,,*58
$GPGGA,065353.400,3815.2946,N,14050.6393,E,1,9,1.04,146.5,M,37.1,M,,*58
$GPGGA,065353.400,3815.2946,N,14050.6393,E,1,9,1.04,146.5,M,37.1,M,,*58
$GPGGA,065353.400,3815.2946,N,14050.6393,E,1,9,1.04,146.5,M,37.1,M,,*58
$GPGGA,065353.400,3815.2946,N,14050.6393,E,1,9,1.04,146.5,M,37.1,M,,*58
$GPGGA,065353.400,3815.2946,N,14050.6393,E,1,9,1.04,146.5,M,37.1,M,,*58
$GPGGA,065353.400,3815.2946,N,14050.6393,E,1,9,1.04,146.5,M,37.1,M,,*58
$GPGGA,065353.400,3815.2946,N,14050.6393,E,1,9,1.04,146.5,M,37.1,M,,*58
$GPGGA,065353.400,3815.2946,N,14050.6393,E,1,9,1.04,146.5,M,37.1,M,,*58
$GPGGA,065353.400,3815.2946,N,14050.6393,E,1,9,1.04,146.5,M,37.1,M,,*58
$GPGGA,065353.400,3815.2946,N,14050.6393,E,1,9,1.04,146.5,M,37.1,M,,*58
$GPGGA,065353.400,3815.2946,N,14050.6393,E,1,9,1.04,146.5,M,37.1,M,,*58
$GPGGA,065353.400,3815.2946,N,14050.6393,E,1,9,1.04,146.5,M,37.1,M,,*58
$GPGGA,065353.400,3815.2946,N,14050.6393,E,1,9,1.04,146.5,M,37.1,M,,*58
$GPGGA,065353.400,3815.2946,N,14050.6393,E,1,9,1.04,146.5,M,37.1,M,,*58
$GPGGA,065353.400,3815.2946,N,14050.6393,E,1,9,1.04,146.5,M,37.1,M,,*58
$GPGGA,065353.400,3815.2946,N,14050.6393,E,1,9,1.04,146.5,M,37.1,M,,*58
$GPGGA,065353.400,3815.2946,N,14050.6393,E,1,9,1.04,146.5,M,37.1,M,,*58
$GPGGA,065353.400,3815.2946,N,14050.6393,E,1,9,1.04,146.5,M,37.1,M,,*58
$GPGGA,065353.400,3815.2946,N,14050.6393,E,1,9,1.04,146.5,M,37.1,M,,*58
$GPGGA,065353.400,3815.2946,N,14050.6393,E,1,9,1.04,146.5,M,37.1,M,,*58
$GPGGA,065353.400,3815.2946,N,14050.6393,E,1,9,1.04,146.5,M,37.1,M,,*58
$GPGGA,065353.400,3815.2946,N,14050.6393,E,1,9,1.04,146.5,M,37.1,M,,*58
$GPGGA,065353.400,3815.2946,N,14050.6393,E,1,9,1.04,146.5,M,37.1,M,,*58
$GPGGA,065353.400,3815.2946,N,14050.6393,E,1,9,1.04,146.5,M,37.1,M,,*58
$GPGGA,065353.400,3815.2946,N,14050.6393,E,1,9,1.04,146.5,M,37.1,M,,*58
$GPGGA,065353.400,3815.2946,N,14050.6393,E,1,9,1.04,146.5,M,37.1,M,,*58
$GPGGA,065353.400,3815.2946,N,14050.6393,E,1,9,1.04,146.5,M,37.1,M,,*58
$GPGGA,065353.400,3815.2946,N,14050.6393,E,1,9,1.04,146.5,M,37.1,M,,*58
$GPGGA,065353.400,3815.2946,N,14050.6393,E,1,9,1.04,146.5,M,37.1,M,,*58
$GPGGA,065353.400,3815.2946,N,14050.6393,E,1,9,1.04,146.5,M,37.1,M,,*58
$GPGGA,065353.400,3815.2946,N,14050.6393,E,1,9,1.04,146.5,M,37.1,M,,*58
$GPGGA,065353.400,3815.2946,N,14050.6393,E,1,9,1.04,146.5,M,37.1,M,,*58
$GPGGA,065353.400,3815.2946,N,14050.6393,E,1,9,1.04,146.5,M,37.1,M,,*58
$GPGGA,065353.400,3815.2946,N,14050.6393,E,1,9,1.04,146.5,M,37.1,M,,*58
$GPGGA,065353.400,3815.2946,N,14050.6393,E,1,9,1.04,146.5,M,37.1,M,,*58
$GPGGA,065353.400,3815.2946,N,14050.6393,E,1,9,1.04,146.5,M,37.1,M,,*58
$GPGGA,065353.400,3815.2946,N,14050.6393,E,1,9,1.04,146.5,M,37.1,M,,*58
$GPGGA,065353.400,3815.2946,N,14050.6393,E,1,9,1.04,146.5,M,37.1,M,,*58
$GPGGA,065353.400,3815.2946,N,14050.6393,E,1,9,1.04,146.5,M,37.1,M,,*58
$GPGGA,065353.400,3815.2946,N,14050.6393,E,1,9,1.04,146.5,M,37.1,M,,*58
$GPGGA,065353.400,3815.2946,N,14050.6393,E,1,9,1.04,146.5,M,37.1,M,,*58
$GPGGA,065353.400,3815.2946,N,14050.6393,E,1,9,1.04,146.5,M,37.1,M,,*58
$GPGGA,065353.400,3815.2946,N,14050.6393,E,1,9,1.04,146.5,M,37.1,M,,*58
$GPGGA,065353.400,3815.2946,N,14050.6393,E,1,9,1.04,146.5,M,37.1,M,,*58
$GPGGA,065353.400,3815.2946,N,14050.6393,E,1,9,1.04,146.5,M,37.1,M,,*58
$GPGGA,065353.400,3815.2946,N,14050.6393,E,1,9,1.04,146.5,M,37.1,M,,*58
$GPGGA,065353.400,3815.2946,N,14050.6393,E,1,9,1.04,146.5,M,37.1,M,,*58
$GPGGA,065353.400,3815.2946,N,14050.6393,E,1,9,1.04,146.5,M,37.1,M,,*58
$GPGGA,065353.400,3815.2946,N,14050.6393,E,1,9,1.04,146.5,M,37.1,M,,*58
$GPGGA,065353.400,3815.2946,N,14050.6393,E,1,9,1.04,146.5,M,37.1,M,,*58
$GPGGA,065353.400,3815.2946,N,14050.6393,E,1,9,1.04,146.5,M,37.1,M,,*58
$GPGGA,065353.400,3815.2946,N,14050.6393,E,1,9,1.04,146.5,M,37.1,M,,*58
$GPGGA,065353.400,3815.2946,N,14050.6393,E,1,9,1.04,146.5,M,37.1,M,,*58
$GPGGA,065353.400,3815.2946,N,14050.6393,E,1,9,1.04,146.5,M,37.1,M,,*58
$GPGGA,065353.400,3815.2946,N,14050.6393,E,1,9,1.04,146.5,M,37.1,M,,*58
$GPGGA,065353.400,3815.2946,N,14050.6393,E,1,9,1.04,146.5,M,37.1,M,,*58
$GPGGA,065353.400,3815.2946,N,14050.6393,E,1,9,1.04,146.5,M,37.1,M,,*58
$GPGGA,065353.400,3815.2946,N,14050.6393,E,1,9,1.04,146.5,M,37.1,M,,*58
$GPGGA,065353.400,3815.2946,N,14050.6393,E,1,9,1.04,146.5,M,37.1,M,,*58
$GPGGA,065353.400,3815.2946,N,14050.6393,E,1,9,1.04,146.5,M,37.1,M,,*58
$GPGGA,065353.400,3815.2946,N,14050.6393,E,1,9,1.04,146.5,M,37.1,M,,*58
$GPGGA,065353.400,3815.2946,N,14050.6393,E,1,9,1.04,146.5,M,37.1,M,,*58
$GPGGA,065353.400,3815.2946,N,14050.6393,E,1,9,1.04,146.5,M,37.1,M,,*58
$GPGGA,065353.400,3815.2946,N,14050.6393,E,1,9,1.04,146.5,M,37.1,M,,*58
$GPGGA,065353.400,3815.2946,N,14050.6393,E,1,9,1.04,146.5,M,37.1,M,,*58
$GPGGA,065353.400,3815.2946,N,14050.6393,E,1,9,1.04,146.5,M,37.1,M,,*58
$GPGGA,065353.400,3815.2946,N,14050.6393,E,1,9,1.04,146.5,M,37.1,M,,*58
$GPGGA,065353.400,3815.2946,N,14050.6393,E,1,9,1.04,146.5,M,37.1,M,,*58
$GPGGA,065353.400,3815.2946,N,14050.6393,E,1,9,1.04,146.5,M,37.1,M,,*58
$GPGGA,065353.400,3815.2946,N,14050.6393,E,1,9,1.04,146.5,M,37.1,M,,*58
$GPGGA,065353.400,3815.2946,N,14050.6393,E,1,9,1.04,146.5,M,37.1,M,,*58
$GPGGA,065353.400,3815.2946,N,14050.6393,E,1,9,1.04,146.5,M,37.1,M,,*58
$GPGGA,065353.400,3815.2946,N,14050.6393,E,1,9,1.04,146.5,M,37.1,M,,*58
$GPGGA,065353.400,3815.2946,N,14050.6393,E,1,9,1.04,146.5,M,37.1,M,,*58
$GPGGA,065353.400,3815.2946,N,14050.6393,E,1,9,1.04,146.5,M,37.1,M,,*58
$GPGGA,065353.400,3815.2946,N,14050.6393,E,1,9,1.04,146.5,M,37.1,M,,*58
$GPGGA,065353.400,3815.2946,N,14050.6393,E,1,9,1.04,146.5,M,37.1,M,,*58
$GPGGA,065353.400,3815.2946,N,14050.6393,E,1,9,1.04,146.5,M,37.1,M,,*58
$GPGGA,065353.400,3815.2946,N,14050.6393,E,1,9,1.04,146.5,M,37.1,M,,*58
$GPGGA,065353.400,3815.2946,N,14050.6393,E,1,9,1.04,146.5,M,37.1,M,,*58
$GPGGA,065353.400,3815.2946,N,14050.6393,E,1,9,1.04,146.5,M,37.1,M,,*58
$GPGGA,065353.400,3815.2946,N,14050.6393,E,1,9,1.04,146.5,M,37.1,M,,*58
$GPGGA,065353.400,3815.2946,N,14050.6393,E,1,9,1.04,146.5,M,37.1,M,,*58
$GPGGA,065353.400,3815.2946,N,14050.6393,E,1,9,1.04,146.5,M,37.1,M,,*58
$GPGGA,065353.400,3815.2946,N,14050.6393,E,1,9,1.04,146.5,M,37.1,M,,*58
$GPGGA,065353.400,3815.2946,N,14050.6393,E,1,9,1.04,146.5,M,37.1,M,,*58
$GPGGA,065353.400,3815.2946,N,14050.6393,E,1,9,1.04,146.5,M,37.1,M,,*58
$GPGGA,065353.400,3815.2946,N,14050.6393,E,1,9,1.04,146.5,M,37.1,M,,*58
$GPGGA,065353.400,3815.2946,N,14050.6393,E,1,9,1.04,146.5,M,37.1,M,,*58
$GPGGA,065353.400,3815.2946,N,14050.6393,E,1,9,1.04,146.5,M,37.1,M,,*58
$GPGGA,065353.400,3815.2946,N,14050.6393,E,1,9,1.04,146.5,M,37.1,M,,*58
$GPGGA,065353.400,3815.2946,N,14050.6393,E,1,9,1.04,146.5,M,37.1,M,,*58
$GPGGA,065353.400,3815.2946,N,14050.6393,E,1,9,1.04,146.5,M,37.1,M,,*58
$GPGGA,065353.400,3815.2946,N,14050.6393,E,1,9,1.04,146.5,M,37.1,M,,*58
$GPGGA,065353.400,3815.2946,N,14050.6393,E,1,9,1.04,146.5,M,37.1,M,,*58
$GPGGA,065353.400,3815.2946,N,14050.6393,E,1,9,1.04,146.5,M,37.1,M,,*58
$GPGGA,065353.400,3815.2946,N,14050.6393,E,1,9,1.04,146.5,M,37.1,M,,*58
$GPGGA,065353.400,3815.2946,N,14050.6393,E,1,9,1.04,146.5,M,37.1,M,,*58
$GPGGA,065353.400,3815.2946,N,14050.6393,E,1,9,1.04,146.5,M,37.1,M,,*58
$GPGGA,065353.400,3815.2946,N,14050.6393,E,1,9,1.04,146.5,M,37.1,M,,*58
$GPGGA,065353.400,3815.2946,N,14050.6393,E,1,9,1.04,146.5,M,37.1,M,,*58
$GPGGA,065353.400,3815.2946,N,14050.6393,E,1,9,1.04,146.5,M,37.1,M,,*58
$GPGGA,065353.400,3815.2946,N,14050.6393,E,1,9,1.04,146.5,M,37.1,M,,*58
$GPGGA,065353.400,3815.2946,N,14050.6393,E,1,9,1.04,146.5,M,37.1,M,,*58
$GPGGA,065353.400,3815.2946,N,14050.6393,E,1,9,1.04,146.5,M,37.1,M,,*58
$GPGGA,065353.400,3815.2946,N,14050.6393,E,1,9,1.04,146.5,M,37.1,M,,*58
$GPGGA,065353.400,3815.2946,N,14050.6393,E,1,9,1.04,146.5,M,37.1,M,,*58
$GPGGA,065353.400,3815.2946,N,14050.6393,E,1,9,1.04,146.5,M,37.1,M,,*58
$GPGGA,065353.400,3815.2946,N,14050.6393,E,1,9,1.04,146.5,M,37.1,M,,*58
$GPGGA,065353.400,3815.2946,N,14050.6393,E,1,9,1.04,146.5,M,37.1,M,,*58
$GPGGA,065353.400,3815.2946,N,14050.6393,E,1,9,1.04,146.5,M,37.1,M,,*58
$GPGGA,065353.400,3815.2946,N,14050.6393,E,1,9,1.04,146.5,M,37.1,M,,*58
$GPGGA,065353.400,3815.2946,N,14050.6393,E,1,9,1.04,146.5,M,37.1,M,,*58
$GPGGA,065353.400,3815.2946,N,14050.6393,E,1,9,1.04,146.5,M,37.1,M,,*58
$GPGGA,065353.400,3815.2946,N,14050.6393,E,1,9,1.04,146.5,M,37.1,M,,*58
$GPGGA,065353.400,3815.2946,N,14050.6393,E,1,9,1.04,146.5,M,37.1,M,,*58
$GPGGA,065353.400,3815.2946,N,14050.6393,E,1,9,1.04,146.5,M,37.1,M,,*58
$GPGGA,065353.400,3815.2946,N,14050.6393,E,1,9,1.04,146.5,M,37.1,M,,*58
$GPGGA,065353.400,3815.2946,N,14050.6393,E,1,9,1.04,146.5,M,37.1,M,,*58
$GPGGA,065353.400,3815.2946,N,14050.6393,E,1,9,1.04,146.5,M,37.1,M,,*58
$GPGGA,065353.400,3815.2946,N,14050.6393,E,1,9,1.04,146.5,M,37.1,M,,*58
$GPGGA,065353.400,3815.2946,N,14050.6393,E,1,9,1.04,146.5,M,37.1,M,,*58
$GPGGA,065353.400,3815.2946,N,14050.6393,E,1,9,1.04,146.5,M,37.1,M,,*58
$GPGGA,065353.400,3815.2946,N,14050.6393,E,1,9,1.04,146.5,M,37.1,M,,*58
$GPGGA,065353.400,3815.2946,N,14050.6393,E,1,9,1.04,146.5,M,37.1,M,,*58
$GPGGA,065353.400,3815.2946,N,14050.6393,E,1,9,1.04,146.5,M,37.1,M,,*58
$GPGGA,065353.400,3815.2946,N,14050.6393,E,1,9,1.04,146.5,M,37.1,M,,*58
$GPGGA,065353.400,3815.2946,N,14050.6393,E,1,9,1.04,146.5,M,37.1,M,,*58
$GPGGA,065353.400,3815.2946,N,14050.6393,E,1,9,1.04,146.5,M,37.1,M,,*58
$GPGGA,065353.400,3815.2946,N,14050.6393,E,1,9,1.04,146.5,M,37.1,M,,*58
$GPGGA,065353.400,3815.2946,N,14050.6393,E,1,9,1.04,146.5,M,37.1,M,,*58
$GPGGA,065353.400,3815.2946,N,14050.6393,E,1,9,1.04,146.5,M,37.1,M,,*58
$GPGGA,065353.400,3815.2946,N,14050.6393,E,1,9,1.04,146.5,M,37.1,M,,*58
$GPGGA,065353.400,3815.2946,N,14050.6393,E,1,9,1.04,146.5,M,37.1,M,,*58
$GPGGA,065353.400,3815.2946,N,14050.6393,E,1,9,1.04,146.5,M,37.1,M,,*58
$GPGGA,065353.400,3815.2946,N,14050.6393,E,1,9,1.04,146.5,M,37.1,M,,*58
$GPGGA,065353.400,3815.2946,N,14050.6393,E,1,9,1.04,146.5,M,37.1,M,,*58
$GPGGA,065353.400,3815.2946,N,14050.6393,E,1,9,1.04,146.5,M,37.1,M,,*58
$GPGGA,065353.400,3815.2946,N,14050.6393,E,1,9,1.04,146.5,M,37.1,M,,*58
$GPGGA,065353.400,3815.2946,N,14050.6393,E,1,9,1.04,146.5,M,37.1,M,,*58
$GPGGA,065353.400,3815.2946,N,14050.6393,E,1,9,1.04,146.5,M,37.1,M,,*58
$GPGGA,065353.400,3815.2946,N,14050.6393,E,1,9,1.04,146.5,M,37.1,M,,*58
$GPGGA,065353.400,3815.2946,N,14050.6393,E,1,9,1.04,146.5,M,37.1,M,,*58
$GPGGA,065353.400,3815.2946,N,14050.6393,E,1,9,1.04,146.5,M,37.1,M,,*58
$GPGGA,065353.400,3815.2946,N,14050.6393,E,1,9,1.04,146.5,M,37.1,M,,*58
$GPGGA,065353.400,3815.2946,N,14050.6393,E,1,9,1.04,146.5,M,37.1,M,,*58
$GPGGA,065353.400,3815.2946,N,14050.6393,E,1,9,1.04,146.5,M,37.1,M,,*58
$GPGGA,065353.400,3815.2946,N,14050.6393,E,1,9,1.04,146.5,M,37.1,M,,*58
$GPGGA,065353.400,3815.2946,N,14050.6393,E,1,9,1.04,146.5,M,37.1,M,,*58
$GPGGA,065353.400,3815.2946,N,14050.6393,E,1,9,1.04,146.5,M,37.1,M,,*58
$GPGGA,065353.400,3815.2946,N,14050.6393,E,1,9,1.04,146.5,M,37.1,M,,*58
$GPGGA,065353.400,3815.2946,N,14050.6393,E,1,9,1.04,146.5,M,37.1,M,,*58
$GPGGA,065353.400,3815.2946,N,14050.6393,E,1,9,1.04,146.5,M,37.1,M,,*58
$GPGGA,065353.400,3815.2946,N,14050.6393,E,1,9,1.04,146.5,M,37.1,M,,*58
$GPGGA,065353.400,3815.2946,N,14050.6393,E,1,9,1.04,146.5,M,37.1,M,,*58
$GPGGA,065353.400,3815.2946,N,14050.6393,E,1,9,1.04,146.5,M,37.1,M,,*58
$GPGGA,065353.400,3815.2946,N,14050.6393,E,1,9,1.04,146.5,M,37.1,M,,*58
$GPGGA,065353.400,3815.2946,N,14050.6393,E,1,9,1.04,146.5,M,37.1,M,,*58
$GPGGA,065353.400,3815.2946,N,14050.6393,E,1,9,1.04,146.5,M,37.1,M,,*58
$GPGGA,065353.400,3815.2946,N,14050.6393,E,1,9,1.04,146.5,M,37.1,M,,*58
$GPGGA,065353.400,3815.2946,N,14050.6393,E,1,9,1.04,146.5,M,37.1,M,,*58
$GPGGA,065353.400,3815.2946,N,14050.6393,E,1,9,1.04,146.5,M,37.1,M,,*58
$GPGGA,065353.400,3815.2946,N,14050.6393,E,1,9,1.04,146.5,M,37.1,M,,*58
$GPGGA,065353.400,3815.2946,N,14050.6393,E,1,9,1.04,146.5,M,37.1,M,,*58
$GPGGA,065353.400,3815.2946,N,14050.6393,E,1,9,1.04,146.5,M,37.1,M,,*58
$GPGGA,065353.400,3815.2946,N,14050.6393,E,1,9,1.04,146.5,M,37.1,M,,*58
$GPGGA,065353.400,3815.2946,N,14050.6393,E,1,9,1.04,146.5,M,37.1,M,,*58
$GPGGA,065353.400,3815.2946,N,14050.6393,E,1,9,1.04,146.5,M,37.1,M,,*58
$GPGGA,065353.400,3815.2946,N,14050.6393,E,1,9,1.04,146.5,M,37.1,M,,*58
$GPGGA,065353.400,3815.2946,N,14050.6393,E,1,9,1.04,146.5,M,37.1,M,,*58
$GPGGA,065353.400,3815.2946,N,14050.6393,E,1,9,1.04,146.5,M,37.1,M,,*58
$GPGGA,065353.400,3815.2946,N,14050.6393,E,1,9,1.04,146.5,M,37.1,M,,*58
$GPGGA,065353.400,3815.2946,N,14050.6393,E,1,9,1.04,146.5,M,37.1,M,,*58
$GPGGA,065353.400,3815.2946,N,14050.6393,E,1,9,1.04,146.5,M,37.1,M,,*58
$GPGGA,065353.400,3815.2946,N,14050.6393,E,1,9,1.04,146.5,M,37.1,M,,*58
$GPGGA,065353.400,3815.2946,N,14050.6393,E,1,9,1.04,146.5,M,37.1,M,,*58
$GPGGA,065353.400,3815.2946,N,14050.6393,E,1,9,1.04,146.5,M,37.1,M,,*58
$GPGGA,065353.400,3815.2946,N,14050.6393,E,1,9,1.04,146.5,M,37.1,M,,*58
$GPGGA,065353.400,3815.2946,N,14050.6393,E,1,9,1.04,146.5,M,37.1,M,,*58
$GPGGA,065353.400,3815.2946,N,14050.6393,E,1,9,1.04,146.5,M,37.1,M,,*58
$GPGGA,065353.400,3815.2946,N,14050.6393,E,1,9,1.04,146.5,M,37.1,M,,*58
$GPGGA,065353.400,3815.2946,N,14050.6393,E,1,9,1.04,146.5,M,37.1,M,,*58
$GPGGA,065353.400,3815.2946,N,14050.6393,E,1,9,1.04,146.5,M,37.1,M,,*58
$GPGGA,065353.400,3815.2946,N,14050.6393,E,1,9,1.04,146.5,M,37.1,M,,*58
$GPGGA,065353.400,3815.2946,N,14050.6393,E,1,9,1.04,146.5,M,37.1,M,,*58
$GPGGA,065353.400,3815.2946,N,14050.6393,E,1,9,1.04,146.5,M,37.1,M,,*58
$GPGGA,065353.400,3815.2946,N,14050.6393,E,1,9,1.04,146.5,M,37.1,M,,*58
$GPGGA,065353.400,3815.2946,N,14050.6393,E,1,9,1.04,146.5,M,37.1,M,,*58
$GPGGA,065353.400,3815.2946,N,14050.6393,E,1,9,1.04,146.5,M,37.1,M,,*58
$GPGGA,065353.400,3815.2946,N,14050.6393,E,1,9,1.04,146.5,M,37.1,M,,*58
$GPGGA,065353.400,3815.2946,N,14050.6393,E,1,9,1.04,146.5,M,37.1,M,,*58
$GPGGA,065353.400,3815.2946,N,14050.6393,E,1,9,1.04,146.5,M,37.1,M,,*58
$GPGGA,065353.400,3815.2946,N,14050.6393,E,1,9,1.04,146.5,M,37.1,M,,*58
$GPGGA,065353.400,3815.2946,N,14050.6393,E,1,9,1.04,146.5,M,37.1,M,,*58
$GPGGA,065353.400,3815.2946,N,14050.6393,E,1,9,1.04,146.5,M,37.1,M,,*58
$GPGGA,065353.400,3815.2946,N,14050.6393,E,1,9,1.04,146.5,M,37.1,M,,*58
$GPGGA,065353.400,3815.2946,N,14050.6393,E,1,9,1.04,146.5,M,37.1,M,,*58
$GPGGA,065353.400,3815.2946,N,14050.6393,E,1,9,1.04,146.5,M,37.1,M,,*58
$GPGGA,065353.400,3815.2946,N,14050.6393,E,1,9,1.04,146.5,M,37.1,M,,*58
$GPGGA,065353.400,3815.2946,N,14050.6393,E,1,9,1.04,146.5,M,37.1,M,,*58
$GPGGA,065353.400,3815.2946,N,14050.6393,E,1,9,1.04,146.5,M,37.1,M,,*58
$GPGGA,065353.400,3815.2946,N,14050.6393,E,1,9,1.04,146.5,M,37.1,M,,*58
$GPGGA,065353.400,3815.2946,N,14050.6393,E,1,9,1.04,146.5,M,37.1,M,,*58
$GPGGA,065353.400,3815.2946,N,14050.6393,E,1,9,1.04,146.5,M,37.1,M,,*58
$GPGGA,065353.400,3815.2946,N,14050.6393,E,1,9,1.04,146.5,M,37.1,M,,*58
$GPGGA,065353.400,3815.2946,N,14050.6393,E,1,9,1.04,146.5,M,37.1,M,,*58
$GPGGA,065353.400,3815.2946,N,14050.6393,E,1,9,1.04,146.5,M,37.1,M,,*58
$GPGGA,065353.400,3815.2946,N,14050.6393,E,1,9,1.04,146.5,M,37.1,M,,*58
$GPGGA,065353.400,3815.2946,N,14050.6393,E,1,9,1.04,146.5,M,37.1,M,,*58
$GPGGA,065353.400,3815.2946,N,14050.6393,E,1,9,1.04,146.5,M,37.1,M,,*58
$GPGGA,065353.400,3815.2946,N,14050.6393,E,1,9,1.04,146.5,M,37.1,M,,*58
$GPGGA,065353.400,3815.2946,N,14050.6393,E,1,9,1.04,146.5,M,37.1,M,,*58
$GPGGA,065353.400,3815.2946,N,14050.6393,E,1,9,1.04,146.5,M,37.1,M,,*58
$GPGGA,065353.400,3815.2946,N,14050.6393,E,1,9,1.04,146.5,M,37.1,M,,*58
$GPGGA,065353.400,3815.2946,N,14050.6393,E,1,9,1.04,146.5,M,37.1,M,,*58
$GPGGA,065353.400,3815.2946,N,14050.6393,E,1,9,1.04,146.5,M,37.1,M,,*58
$GPGGA,065353.400,3815.2946,N,14050.6393,E,1,9,1.04,146.5,M,37.1,M,,*58
$GPGGA,065353.400,3815.2946,N,14050.6393,E,1,9,1.04,146.5,M,37.1,M,,*58
$GPGGA,065353.400,3815.2946,N,14050.6393,E,1,9,1.04,146.5,M,37.1,M,,*58
$GPGGA,065353.400,3815.2946,N,14050.6393,E,1,9,1.04,146.5,M,37.1,M,,*58
$GPGGA,065353.400,3815.2946,N,14050.6393,E,1,9,1.04,146.5,M,37.1,M,,*58
$GPGGA,065353.400,3815.2946,N,14050.6393,E,1,9,1.04,146.5,M,37.1,M,,*58
$GPGGA,065353.400,3815.2946,N,14050.6393,E,1,9,1.04,146.5,M,37.1,M,,*58
$GPGGA,065353.400,3815.2946,N,14050.6393,E,1,9,1.04,146.5,M,37.1,M,,*58
$GPGGA,065353.400,3815.2946,N,14050.6393,E,1,9,1.04,146.5,M,37.1,M,,*58
$GPGGA,065353.400,3815.2946,N,14050.6393,E,1,9,1.04,146.5,M,37.1,M,,*58
$GPGGA,065353.400,3815.2946,N,14050.6393,E,1,9,1.04,146.5,M,37.1,M,,*58
$GPGGA,065353.400,3815.2946,N,14050.6393,E,1,9,1.04,146.5,M,37.1,M,,*58
$GPGGA,065353.400,3815.2946,N,14050.6393,E,1,9,1.04,146.5,M,37.1,M,,*58
$GPGGA,065353.400,3815.2946,N,14050.6393,E,1,9,1.04,146.5,M,37.1,M,,*58
$GPGGA,065353.400,3815.2946,N,14050.6393,E,1,9,1.04,146.5,M,37.1,M,,*58
$GPGGA,065353.400,3815.2946,N,14050.6393,E,1,9,1.04,146.5,M,37.1,M,,*58
$GPGGA,065353.400,3815.2946,N,14050.6393,E,1,9,1.04,146.5,M,37.1,M,,*58
$GPGGA,065353.400,3815.2946,N,14050.6393,E,1,9,1.04,146.5,M,37.1,M,,*58
$GPGGA,065353.400,3815.2946,N,14050.6393,E,1,9,1.04,146.5,M,37.1,M,,*58
$GPGGA,065353.400,3815.2946,N,14050.6393,E,1,9,1.04,146.5,M,37.1,M,,*58
$GPGGA,065353.400,3815.2946,N,14050.6393,E,1,9,1.04,146.5,M,37.1,M,,*58
$GPGGA,065353.400,3815.2946,N,14050.6393,E,1,9,1.04,146.5,M,37.1,M,,*58
$GPGGA,065353.400,3815.2946,N,14050.6393,E,1,9,1.04,146.5,M,37.1,M,,*58
$GPGGA,065353.400,3815.2946,N,14050.6393,E,1,9,1.04,146.5,M,37.1,M,,*58
$GPGGA,065353.400,3815.2946,N,14050.6393,E,1,9,1.04,146.5,M,37.1,M,,*58
$GPGGA,065353.400,3815.2946,N,14050.6393,E,1,9,1.04,146.5,M,37.1,M,,*58
$GPGGA,065353.400,3815.2946,N,14050.6393,E,1,9,1.04,146.5,M,37.1,M,,*58
$GPGGA,065353.400,3815.2946,N,14050.6393,E,1,9,1.04,146.5,M,37.1,M,,*58
$GPGGA,065353.400,3815.2946,N,14050.6393,E,1,9,1.04,146.5,M,37.1,M,,*58
$GPGGA,065353.400,3815.2946,N,14050.6393,E,1,9,1.04,146.5,M,37.1,M,,*58
$GPGGA,065353.400,3815.2946,N,14050.6393,E,1,9,1.04,146.5,M,37.1,M,,*58
$GPGGA,065353.400,3815.2946,N,14050.6393,E,1,9,1.04,146.5,M,37.1,M,,*58
$GPGGA,065353.400,3815.2946,N,14050.6393,E,1,9,1.04,146.5,M,37.1,M,,*58
$GPGGA,065353.400,3815.2946,N,14050.6393,E,1,9,1.04,146.5,M,37.1,M,,*58
$GPGGA,065353.400,3815.2946,N,14050.6393,E,1,9,1.04,146.5,M,37.1,M,,*58
$GPGGA,065353.400,3815.2946,N,14050.6393,E,1,9,1.04,146.5,M,37.1,M,,*58
$GPGGA,065353.400,3815.2946,N,14050.6393,E,1,9,1.04,146.5,M,37.1,M,,*58
$GPGGA,065353.400,3815.2946,N,14050.6393,E,1,9,1.04,146.5,M,37.1,M,,*58
$GPGGA,065353.400,3815.2946,N,14050.6393,E,1,9,1.04,146.5,M,37.1,M,,*58
$GPGGA,065353.400,3815.2946,N,14050.6393,E,1,9,1.04,146.5,M,37.1,M,,*58
$GPGGA,065353.400,3815.2946,N,14050.6393,E,1,9,1.04,146.5,M,37.1,M,,*58
$GPGGA,065353.400,3815.2946,N,14050.6393,E,1,9,1.04,146.5,M,37.1,M,,*58
$GPGGA,065353.400,3815.2946,N,14050.6393,E,1,9,1.04,146.5,M,37.1,M,,*58
$GPGGA,065353.400,3815.2946,N,14050.6393,E,1,9,1.04,146.5,M,37.1,M,,*58
$GPGGA,065353.400,3815.2946,N,14050.6393,E,1,9,1.04,146.5,M,37.1,M,,*58
