$GPGGA,052709.35,3439.59921244,N,13744.63757474,E,4,08,1.2,10.800,M,38.489,M,1.4,0141*7E
$GPGGA,052709.40,3439.59921396,N,13744.63757543,E,4,08,1.2,10.799,M,38.489,M,1.4,0141*78
$GPGGA,052709.45,3439.59921546,N,13744.63757469,E,4,08,1.2,10.798,M,38.489,M,1.5,0141*7F
$GPGGA,052709.50,3439.59921731,N,13744.63757359,E,4,08,1.2,10.800,M,38.489,M,1.5,0141*73
$GPGGA,052709.55,3439.59921794,N,13744.63757292,E,4,08,1.2,10.802,M,38.489,M,1.5,0141*7D
$GPGGA,052709.60,3439.59921842,N,13744.63757361,E,4,08,1.2,10.798,M,38.489,M,1.6,0141*7D
$GPGGA,052709.65,3439.59921981,N,13744.63757304,E,4,08,1.2,10.803,M,38.489,M,1.6,0141*78
$GPGGA,052709.70,3439.59921749,N,13744.63757372,E,4,08,1.2,10.797,M,38.489,M,1.7,0141*74
$GPGGA,052709.75,3439.59921876,N,13744.63757331,E,4,08,1.2,10.797,M,38.489,M,0.8,0141*7B
$GPGGA,052709.80,3439.59922031,N,13744.63757581,E,4,08,1.2,10.801,M,38.489,M,0.8,0141*74
$GPGGA,052709.85,3439.59922186,N,13744.63757679,E,4,08,1.2,10.803,M,38.489,M,0.9,0141*7B
$GPGGA,052709.90,3439.59922096,N,13744.63758044,E,4,08,1.2,10.806,M,38.489,M,0.9,0141*7D
$GPGGA,052709.95,3439.59922135,N,13744.63758001,E,4,08,1.2,10.798,M,38.489,M,0.9,0141*79
$GPGGA,052710.00,3439.59922179,N,13744.63757977,E,4,08,1.2,10.799,M,38.489,M,1.0,0141*7B
$GPGGA,052710.05,3439.59922094,N,13744.63758071,E,4,08,1.2,10.800,M,38.489,M,1.0,0141*73
$GPGGA,052710.10,3439.59922039,N,13744.63758177,E,4,08,1.2,10.803,M,38.489,M,1.1,0141*75
$GPGGA,052710.15,3439.59921992,N,13744.63758311,E,4,08,1.2,10.800,M,38.489,M,1.1,0141*7A
$GPGGA,052710.20,3439.59921999,N,13744.63758551,E,4,08,1.2,10.794,M,38.489,M,1.2,0141*74
$GPGGA,052710.25,3439.59922138,N,13744.63758794,E,4,08,1.2,10.798,M,38.489,M,1.3,0141*77
$GPGGA,052710.30,3439.59922049,N,13744.63758800,E,4,08,1.2,10.800,M,38.489,M,1.3,0141*78
$GPGGA,052710.35,3439.59922072,N,13744.63759094,E,4,08,1.2,10.802,M,38.489,M,1.4,0141*74
$GPGGA,052710.40,3439.59922246,N,13744.63759291,E,4,08,1.2,10.799,M,38.489,M,1.4,0141*79
$GPGGA,052710.45,3439.59922236,N,13744.63759483,E,4,08,1.2,10.797,M,38.489,M,1.5,0141*71
$GPGGA,052710.50,3439.59922199,N,13744.63759461,E,4,08,1.2,10.799,M,38.489,M,1.5,0141*71
$GPGGA,052710.55,3439.59922320,N,13744.63759698,E,4,08,1.2,10.800,M,38.489,M,1.5,0141*7F
$GPGGA,052710.60,3439.59922440,N,13744.63759772,E,4,08,1.2,10.799,M,38.489,M,1.6,0141*71
$GPGGA,052710.65,3439.59922522,N,13744.63759915,E,4,08,1.2,10.800,M,38.489,M,1.6,0141*71
$GPGGA,052710.70,3439.59922529,N,13744.63759970,E,4,08,1.2,10.799,M,38.489,M,1.7,0141*73
$GPGGA,052710.75,3439.59922516,N,13744.63760105,E,4,08,1.2,10.799,M,38.489,M,1.8,0141*75
$GPGGA,052710.80,3439.59922510,N,13744.63760087,E,4,08,1.2,10.803,M,38.489,M,1.8,0141*7E
$GPGGA,052710.85,3439.59922665,N,13744.63760306,E,4,08,1.2,10.801,M,38.489,M,1.9,0141*73
$GPGGA,052710.90,3439.59922520,N,13744.63760485,E,4,08,1.2,10.800,M,38.489,M,1.9,0141*78
$GPGGA,052710.95,3439.59922361,N,13744.63760638,E,4,08,1.2,10.799,M,38.489,M,2.0,0141*7F
$GPGGA,052711.00,3439.59922425,N,13744.63760326,E,4,08,1.2,10.805,M,38.489,M,1.0,0141*76
$GPGGA,052711.05,3439.59922472,N,13744.63760275,E,4,08,1.2,10.804,M,38.489,M,1.0,0141*77
$GPGGA,052711.10,3439.59922712,N,13744.63760130,E,4,08,1.2,10.803,M,38.489,M,1.1,0141*72
$GPGGA,052711.15,3439.59922989,N,13744.63759998,E,4,08,1.2,10.806,M,38.489,M,1.1,0141*7E
$GPGGA,052711.20,3439.59923381,N,13744.63759720,E,4,08,1.2,10.805,M,38.489,M,1.2,0141*76
$GPGGA,052711.25,3439.59923705,N,13744.63759332,E,4,08,1.2,10.803,M,38.489,M,1.3,0141*7B
$GPGGA,052711.30,3439.59923898,N,13744.63758751,E,4,08,1.2,10.799,M,38.489,M,1.3,0141*78
$GPGGA,052711.35,3439.59924020,N,13744.63758287,E,4,08,1.2,10.800,M,38.489,M,1.4,0141*77
$GPGGA,052711.40,3439.59923977,N,13744.63757429,E,4,08,1.2,10.805,M,38.489,M,1.4,0141*71
$GPGGA,052711.45,3439.59924017,N,13744.63756504,E,4,08,1.2,10.808,M,38.489,M,1.5,0141*7F
$GPGGA,052711.50,3439.59924104,N,13744.63755768,E,4,08,1.2,10.809,M,38.489,M,1.5,0141*72
$GPGGA,052711.55,3439.59924108,N,13744.63755218,E,4,08,1.2,10.810,M,38.489,M,1.5,0141*71
$GPGGA,052711.60,3439.59924336,N,13744.63754605,E,4,08,1.2,10.813,M,38.489,M,1.6,0141*71
$GPGGA,052711.65,3439.59924482,N,13744.63753854,E,4,08,1.2,10.818,M,38.489,M,1.6,0141*7A
$GPGGA,052711.70,3439.59924459,N,13744.63752875,E,4,08,1.2,10.819,M,38.489,M,1.7,0141*7A
$GPGGA,052711.75,3439.59924687,N,13744.63752061,E,4,08,1.2,10.815,M,38.489,M,1.8,0141*70
$GPGGA,052711.80,3439.59924950,N,13744.63751586,E,4,08,1.2,10.811,M,38.489,M,1.8,0141*74
$GPGGA,052711.85,3439.59925150,N,13744.63751196,E,4,08,1.2,10.811,M,38.489,M,1.9,0141*7C
$GPGGA,052711.90,3439.59925426,N,13744.63750404,E,4,08,1.2,10.818,M,38.489,M,1.9,0141*7A
$GPGGA,052711.95,3439.59925833,N,13744.63749621,E,4,08,1.2,10.818,M,38.489,M,2.0,0141*70
$GPGGA,052712.00,3439.59926269,N,13744.63748609,E,4,08,1.2,10.816,M,38.489,M,2.0,0141*7C
$GPGGA,052712.05,3439.59926706,N,13744.63747875,E,4,08,1.2,10.812,M,38.489,M,2.0,0141*7B
$GPGGA,052712.10,3439.59927029,N,13744.63747644,E,4,08,1.2,10.813,M,38.489,M,2.1,0141*78
$GPGGA,052712.15,3439.59927334,N,13744.63747435,E,4,08,1.2,10.807,M,38.489,M,2.2,0141*70
$GPGGA,052712.20,3439.59927873,N,13744.63747262,E,4,08,1.2,10.804,M,38.489,M,2.2,0141*79
$GPGGA,052712.25,3439.59928558,N,13744.63746778,E,4,08,1.2,10.806,M,38.489,M,2.3,0141*7B
$GPGGA,052712.30,3439.59929215,N,13744.63746823,E,4,08,1.2,10.802,M,38.489,M,2.3,0141*75
$GPGGA,052712.35,3439.59929576,N,13744.63747012,E,4,08,1.2,10.797,M,38.489,M,2.3,0141*7A
$GPGGA,052712.40,3439.59929844,N,13744.63746740,E,4,08,1.2,10.800,M,38.489,M,2.4,0141*73
$GPGGA,052712.45,3439.59930613,N,13744.63746456,E,4,08,1.2,10.798,M,38.489,M,2.5,0141*79
$GPGGA,052712.50,3439.59931521,N,13744.63746188,E,4,08,1.2,10.800,M,38.489,M,2.5,0141*76
$GPGGA,052712.55,3439.59932437,N,13744.63745800,E,4,08,1.2,10.795,M,38.489,M,2.5,0141*7F
$GPGGA,052712.60,3439.59933173,N,13744.63745343,E,4,08,1.2,10.790,M,38.489,M,2.6,0141*77
$GPGGA,052712.65,3439.59934036,N,13744.63744542,E,4,08,1.2,10.792,M,38.489,M,2.7,0141*70
$GPGGA,052712.70,3439.59934629,N,13744.63743841,E,4,08,1.2,10.790,M,38.489,M,2.7,0141*77
$GPGGA,052712.75,3439.59934846,N,13744.63742765,E,4,08,1.2,10.794,M,38.489,M,2.8,0141*76
$GPGGA,052712.80,3439.59935660,N,13744.63742135,E,4,08,1.2,10.789,M,38.489,M,2.8,0141*78
$GPGGA,052712.85,3439.59936620,N,13744.63740822,E,4,08,1.2,10.793,M,38.489,M,2.8,0141*7C
$GPGGA,052712.90,3439.59937094,N,13744.63739789,E,4,08,1.2,10.780,M,38.489,M,2.9,0141*73
$GPGGA,052712.95,3439.59937759,N,13744.63738773,E,4,08,1.2,10.768,M,38.489,M,2.0,0141*7B
$GPGGA,052713.00,3439.59938265,N,13744.63737722,E,4,08,1.2,10.771,M,38.489,M,2.0,0141*70
$GPGGA,052713.05,3439.59938474,N,13744.63736331,E,4,08,1.2,10.770,M,38.489,M,2.0,0141*75
$GPGGA,052713.10,3439.59938607,N,13744.63735277,E,4,08,1.2,10.769,M,38.489,M,2.1,0141*7E
$GPGGA,052713.15,3439.59938865,N,13744.63734157,E,4,08,1.2,10.762,M,38.489,M,2.2,0141*79
$GPGGA,052713.20,3439.59939586,N,13744.63733236,E,4,08,1.2,10.769,M,38.489,M,2.2,0141*76
$GPGGA,052713.25,3439.59939994,N,13744.63732557,E,4,08,1.2,10.767,M,38.489,M,2.3,0141*72
$GPGGA,052713.30,3439.59940395,N,13744.63731767,E,4,08,1.2,10.768,M,38.489,M,2.3,0141*7E
$GPGGA,052713.35,3439.59940855,N,13744.63730608,E,4,08,1.2,10.769,M,38.489,M,2.3,0141*74
$GPGGA,052713.40,3439.59941263,N,13744.63729421,E,4,08,1.2,10.764,M,38.489,M,2.4,0141*73
$GPGGA,052713.45,3439.59941376,N,13744.63727470,E,4,08,1.2,10.766,M,38.489,M,2.5,0141*7A
$GPGGA,052713.50,3439.59941420,N,13744.63725332,E,4,08,1.2,10.766,M,38.489,M,2.5,0141*79
$GPGGA,052713.55,3439.59940915,N,13744.63723759,E,4,08,1.2,10.759,M,38.489,M,1.5,0141*76
$GPGGA,052713.60,3439.59940581,N,13744.63722187,E,4,08,1.2,10.755,M,38.489,M,1.6,0141*7A
$GPGGA,052713.65,3439.59940152,N,13744.63721008,E,4,08,1.2,10.756,M,38.489,M,1.6,0141*73
$GPGGA,052713.70,3439.59939753,N,13744.63719700,E,4,08,1.2,10.752,M,38.489,M,1.7,0141*7F
$GPGGA,052713.75,3439.59939373,N,13744.63718308,E,4,08,1.2,10.753,M,38.489,M,0.8,0141*7E
$GPGGA,052713.80,3439.59938877,N,13744.63717017,E,4,08,1.2,10.753,M,38.489,M,0.8,0141*78
$GPGGA,052713.85,3439.59938739,N,13744.63715973,E,4,08,1.2,10.753,M,38.489,M,0.9,0141*70
$GPGGA,052713.90,3439.59938556,N,13744.63714924,E,4,08,1.2,10.755,M,38.489,M,0.9,0141*7A
$GPGGA,052713.95,3439.59938604,N,13744.63713782,E,4,08,1.2,10.756,M,38.489,M,0.9,0141*7D
$GPGGA,052714.00,3439.59938844,N,13744.63711831,E,4,08,1.2,10.752,M,38.489,M,1.0,0141*75
$GPGGA,052714.05,3439.59938948,N,13744.63710151,E,4,08,1.2,10.753,M,38.489,M,1.0,0141*72
$GPGGA,052714.10,3439.59939320,N,13744.63708729,E,4,08,1.2,10.751,M,38.489,M,1.1,0141*70
$GPGGA,052714.15,3439.59939858,N,13744.63707055,E,4,08,1.2,10.746,M,38.489,M,1.1,0141*74
$GPGGA,052714.20,3439.59940631,N,13744.63705519,E,4,08,1.2,10.739,M,38.489,M,1.2,0141*79
$GPGGA,052714.25,3439.59941389,N,13744.63704153,E,4,08,1.2,10.735,M,38.489,M,1.3,0141*7D
$GPGGA,052714.30,3439.59942095,N,13744.63702636,E,4,08,1.2,10.732,M,38.489,M,1.3,0141*71
$GPGGA,052714.35,3439.59943010,N,13744.63701039,E,4,08,1.2,10.725,M,38.489,M,1.4,0141*73
$GPGGA,052714.40,3439.59943806,N,13744.63699361,E,4,08,1.2,10.717,M,38.489,M,1.4,0141*71
$GPGGA,052714.45,3439.59944744,N,13744.63697915,E,4,08,1.2,10.709,M,38.489,M,1.5,0141*73
$GPGGA,052714.50,3439.59945289,N,13744.63695853,E,4,08,1.2,10.709,M,38.489,M,1.5,0141*73
$GPGGA,052714.55,3439.59946141,N,13744.63694435,E,4,08,1.2,10.712,M,38.489,M,1.5,0141*75
$GPGGA,052714.60,3439.59946723,N,13744.63692463,E,4,08,1.2,10.719,M,38.489,M,1.6,0141*7C
$GPGGA,052714.65,3439.59947563,N,13744.63690656,E,4,08,1.2,10.727,M,38.489,M,1.6,0141*75
$GPGGA,052714.70,3439.59948453,N,13744.63689047,E,4,08,1.2,10.721,M,38.489,M,1.7,0141*75
$GPGGA,052714.75,3439.59949263,N,13744.63687283,E,4,08,1.2,10.721,M,38.489,M,1.8,0141*7F
$GPGGA,052714.80,3439.59950145,N,13744.63685932,E,4,08,1.2,10.715,M,38.489,M,1.8,0141*7E
$GPGGA,052714.85,3439.59950617,N,13744.63683858,E,4,08,1.2,10.718,M,38.489,M,1.9,0141*7C
$GPGGA,052714.90,3439.59951290,N,13744.63681934,E,4,08,1.2,10.713,M,38.489,M,1.9,0141*70
$GPGGA,052714.95,3439.59951972,N,13744.63679897,E,4,08,1.2,10.714,M,38.489,M,2.0,0141*70
$GPGGA,052715.00,3439.59952723,N,13744.63677959,E,4,08,1.2,10.709,M,38.489,M,2.0,0141*75
$GPGGA,052715.05,3439.59953289,N,13744.63676045,E,4,08,1.2,10.702,M,38.489,M,2.0,0141*7A
$GPGGA,052715.10,3439.59953624,N,13744.63674240,E,4,08,1.2,10.699,M,38.489,M,2.1,0141*7A
$GPGGA,052715.15,3439.59954004,N,13744.63672517,E,4,08,1.2,10.713,M,38.489,M,2.2,0141*7F
$GPGGA,052715.20,3439.59954499,N,13744.63670497,E,4,08,1.2,10.718,M,38.489,M,2.2,0141*79
$GPGGA,052715.25,3439.59954905,N,13744.63668574,E,4,08,1.2,10.723,M,38.489,M,2.3,0141*78
$GPGGA,052715.30,3439.59955332,N,13744.63667379,E,4,08,1.2,10.723,M,38.489,M,2.3,0141*77
$GPGGA,052715.35,3439.59955799,N,13744.63666117,E,4,08,1.2,10.726,M,38.489,M,2.3,0141*79
$GPGGA,052715.40,3439.59956269,N,13744.63665120,E,4,08,1.2,10.734,M,38.489,M,2.4,0141*71
$GPGGA,052715.45,3439.59956741,N,13744.63663806,E,4,08,1.2,10.737,M,38.489,M,2.5,0141*72
$GPGGA,052715.50,3439.59957361,N,13744.63662621,E,4,08,1.2,10.729,M,38.489,M,2.5,0141*74
$GPGGA,052715.55,3439.59958120,N,13744.63661204,E,4,08,1.2,10.727,M,38.489,M,2.5,0141*77
$GPGGA,052715.60,3439.59958752,N,13744.63660036,E,4,08,1.2,10.723,M,38.489,M,2.6,0141*77
$GPGGA,052715.65,3439.59959488,N,13744.63659009,E,4,08,1.2,10.720,M,38.489,M,2.7,0141*73
$GPGGA,052715.70,3439.59960230,N,13744.63657681,E,4,08,1.2,10.720,M,38.489,M,2.7,0141*70
$GPGGA,052715.75,3439.59961204,N,13744.63656837,E,4,08,1.2,10.713,M,38.489,M,2.8,0141*7E
$GPGGA,052715.80,3439.59962121,N,13744.63655836,E,4,08,1.2,10.701,M,38.489,M,2.8,0141*72
$GPGGA,052715.85,3439.59962884,N,13744.63655056,E,4,08,1.2,10.688,M,38.489,M,2.8,0141*7F
$GPGGA,052715.90,3439.59963879,N,13744.63654107,E,4,08,1.2,10.676,M,38.489,M,2.9,0141*7C
$GPGGA,052715.95,3439.59965176,N,13744.63652633,E,4,08,1.2,10.670,M,38.489,M,3.0,0141*71
$GPGGA,052716.00,3439.59965960,N,13744.63651100,E,4,08,1.2,10.681,M,38.489,M,3.0,0141*7B
$GPGGA,052716.05,3439.59966681,N,13744.63649967,E,4,08,1.2,10.674,M,38.489,M,3.0,0141*77
$GPGGA,052716.10,3439.59966998,N,13744.63649043,E,4,08,1.2,10.683,M,38.489,M,3.1,0141*72
$GPGGA,052716.15,3439.59967757,N,13744.63648977,E,4,08,1.2,10.671,M,38.489,M,3.2,0141*7A
$GPGGA,052716.20,3439.59967769,N,13744.63647785,E,4,08,1.2,10.675,M,38.489,M,3.2,0141*79
$GPGGA,052716.25,3439.59968245,N,13744.63646872,E,4,08,1.2,10.672,M,38.489,M,3.3,0141*78
$GPGGA,052716.30,3439.59968741,N,13744.63645343,E,4,08,1.2,10.679,M,38.489,M,3.3,0141*7C
$GPGGA,052716.35,3439.59969150,N,13744.63643968,E,4,08,1.2,10.671,M,38.489,M,3.3,0141*73
$GPGGA,052716.40,3439.59969578,N,13744.63642210,E,4,08,1.2,10.665,M,38.489,M,3.4,0141*78
$GPGGA,052716.45,3439.59970500,N,13744.63640972,E,4,08,1.2,10.652,M,38.489,M,3.5,0141*72
$GPGGA,052716.50,3439.59970813,N,13744.63638958,E,4,08,1.2,10.666,M,38.489,M,3.5,0141*79
$GPGGA,052716.55,3439.59971530,N,13744.63637423,E,4,08,1.2,10.663,M,38.489,M,3.5,0141*7A
$GPGGA,052716.60,3439.59972255,N,13744.63635704,E,4,08,1.2,10.655,M,38.489,M,3.6,0141*79
$GPGGA,052716.65,3439.59972862,N,13744.63633643,E,4,08,1.2,10.654,M,38.489,M,3.7,0141*76
$GPGGA,052716.70,3439.59973396,N,13744.63631647,E,4,08,1.2,10.655,M,38.489,M,0.7,0141*77
$GPGGA,052716.75,3439.59974277,N,13744.63630312,E,4,08,1.2,10.682,M,38.489,M,0.8,0141*7A
$GPGGA,052716.80,3439.59974867,N,13744.63628746,E,4,08,1.2,10.664,M,38.489,M,0.8,0141*7F
$GPGGA,052716.85,3439.59975313,N,13744.63627130,E,4,08,1.2,10.663,M,38.489,M,0.9,0141*7D
$GPGGA,052716.90,3439.59976325,N,13744.63626268,E,4,08,1.2,10.660,M,38.489,M,0.9,0141*73
$GPGGA,052716.95,3439.59977087,N,13744.63625114,E,4,08,1.2,10.649,M,38.489,M,0.9,0141*7C
$GPGGA,052717.00,3439.59978086,N,13744.63624323,E,4,08,1.2,10.648,M,38.489,M,1.0,0141*71
$GPGGA,052717.05,3439.59978867,N,13744.63623501,E,4,08,1.2,10.649,M,38.489,M,1.0,0141*73
$GPGGA,052717.10,3439.59979686,N,13744.63622266,E,4,08,1.2,10.648,M,38.489,M,1.1,0141*70
$GPGGA,052717.15,3439.59981097,N,13744.63620554,E,4,08,1.2,10.636,M,38.489,M,1.1,0141*79
$GPGGA,052717.20,3439.59982661,N,13744.63618962,E,4,08,1.2,10.631,M,38.489,M,1.2,0141*75
$GPGGA,052717.25,3439.59983980,N,13744.63617778,E,4,08,1.2,10.627,M,38.489,M,1.3,0141*7D
$GPGGA,052717.30,3439.59985442,N,13744.63616433,E,4,08,1.2,10.623,M,38.489,M,1.3,0141*75
$GPGGA,052717.35,3439.59986689,N,13744.63614723,E,4,08,1.2,10.625,M,38.489,M,1.4,0141*77
$GPGGA,052717.40,3439.59988143,N,13744.63613370,E,4,08,1.2,10.610,M,38.489,M,1.4,0141*79
$GPGGA,052717.45,3439.59989495,N,13744.63611837,E,4,08,1.2,10.600,M,38.489,M,1.5,0141*79
$GPGGA,052717.50,3439.59991094,N,13744.63610631,E,4,08,1.2,10.609,M,38.489,M,1.5,0141*71
$GPGGA,052717.55,3439.59992586,N,13744.63609802,E,4,08,1.2,10.597,M,38.489,M,1.5,0141*73
$GPGGA,052717.60,3439.59993822,N,13744.63608634,E,4,08,1.2,10.603,M,38.489,M,1.6,0141*70
$GPGGA,052717.65,3439.59994522,N,13744.63607234,E,4,08,1.2,10.614,M,38.489,M,1.6,0141*72
$GPGGA,052717.70,3439.59995390,N,13744.63605919,E,4,08,1.2,10.620,M,38.489,M,1.7,0141*78
$GPGGA,052717.75,3439.59996735,N,13744.63605009,E,4,08,1.2,10.608,M,38.489,M,1.8,0141*78
$GPGGA,052717.80,3439.59997902,N,13744.63603759,E,4,08,1.2,10.605,M,38.489,M,0.8,0141*71
$GPGGA,052717.85,3439.59998820,N,13744.63601840,E,4,08,1.2,10.616,M,38.489,M,0.9,0141*7C
$GPGGA,052717.90,3439.60000149,N,13744.63600098,E,4,08,1.2,10.612,M,38.489,M,0.9,0141*74
$GPGGA,052717.95,3439.60001246,N,13744.63598287,E,4,08,1.2,10.608,M,38.489,M,0.9,0141*79
$GPGGA,052718.00,3439.60002361,N,13744.63596464,E,4,08,1.2,10.599,M,38.489,M,1.0,0141*7B
$GPGGA,052718.05,3439.60003158,N,13744.63594432,E,4,08,1.2,10.596,M,38.489,M,1.0,0141*79
$GPGGA,052718.10,3439.60003999,N,13744.63592654,E,4,08,1.2,10.587,M,38.489,M,1.1,0141*7D
$GPGGA,052718.15,3439.60004591,N,13744.63590611,E,4,08,1.2,10.586,M,38.489,M,1.1,0141*79
$GPGGA,052718.20,3439.60005261,N,13744.63588741,E,4,08,1.2,10.580,M,38.489,M,1.2,0141*7E
$GPGGA,052718.25,3439.60005767,N,13744.63587091,E,4,08,1.2,10.579,M,38.489,M,1.3,0141*7A
$GPGGA,052718.30,3439.60006655,N,13744.63585573,E,4,08,1.2,10.583,M,38.489,M,1.3,0141*73
$GPGGA,052718.35,3439.60007155,N,13744.63584255,E,4,08,1.2,10.591,M,38.489,M,1.4,0141*76
$GPGGA,052718.40,3439.60007838,N,13744.63582883,E,4,08,1.2,10.600,M,38.489,M,1.4,0141*7A
$GPGGA,052718.45,3439.60008306,N,13744.63581551,E,4,08,1.2,10.577,M,38.489,M,1.5,0141*75
$GPGGA,052718.50,3439.60008899,N,13744.63580353,E,4,08,1.2,10.576,M,38.489,M,1.5,0141*78
$GPGGA,052718.55,3439.60009676,N,13744.63578928,E,4,08,1.2,10.574,M,38.489,M,1.5,0141*70
$GPGGA,052718.60,3439.60010706,N,13744.63577651,E,4,08,1.2,10.576,M,38.489,M,1.6,0141*77
$GPGGA,052718.65,3439.60011712,N,13744.63576073,E,4,08,1.2,10.579,M,38.489,M,1.6,0141*7E
$GPGGA,052718.70,3439.60012895,N,13744.63574748,E,4,08,1.2,10.578,M,38.489,M,1.7,0141*74
$GPGGA,052718.75,3439.60014174,N,13744.63573597,E,4,08,1.2,10.568,M,38.489,M,1.8,0141*78
$GPGGA,052718.80,3439.60015461,N,13744.63572166,E,4,08,1.2,10.572,M,38.489,M,0.8,0141*73
$GPGGA,052718.85,3439.60016875,N,13744.63570818,E,4,08,1.2,10.564,M,38.489,M,0.9,0141*78
$GPGGA,052718.90,3439.60018114,N,13744.63569620,E,4,08,1.2,10.554,M,38.489,M,0.9,0141*72
$GPGGA,052718.95,3439.60019422,N,13744.63568284,E,4,08,1.2,10.551,M,38.489,M,0.9,0141*78
$GPGGA,052719.00,3439.60020360,N,13744.63567164,E,4,08,1.2,10.544,M,38.489,M,1.0,0141*70
$GPGGA,052719.05,3439.60021311,N,13744.63565925,E,4,08,1.2,10.547,M,38.489,M,1.0,0141*7E
$GPGGA,052719.10,3439.60022264,N,13744.63564600,E,4,08,1.2,10.555,M,38.489,M,1.1,0141*71
$GPGGA,052719.15,3439.60022998,N,13744.63563281,E,4,08,1.2,10.549,M,38.489,M,1.1,0141*7B
$GPGGA,052719.20,3439.60023934,N,13744.63562161,E,4,08,1.2,10.544,M,38.489,M,1.2,0141*78
$GPGGA,052719.25,3439.60024823,N,13744.63560964,E,4,08,1.2,10.546,M,38.489,M,1.3,0141*71
$GPGGA,052719.30,3439.60025709,N,13744.63559447,E,4,08,1.2,10.556,M,38.489,M,1.3,0141*74
$GPGGA,052719.35,3439.60026634,N,13744.63557792,E,4,08,1.2,10.557,M,38.489,M,1.4,0141*7E
$GPGGA,052719.40,3439.60027446,N,13744.63556108,E,4,08,1.2,10.547,M,38.489,M,1.4,0141*7F
$GPGGA,052719.45,3439.60028159,N,13744.63554375,E,4,08,1.2,10.543,M,38.489,M,1.5,0141*71
$GPGGA,052719.50,3439.60028769,N,13744.63552680,E,4,08,1.2,10.541,M,38.489,M,1.5,0141*7B
$GPGGA,052719.55,3439.60029035,N,13744.63551154,E,4,08,1.2,10.533,M,38.489,M,1.5,0141*79
$GPGGA,052719.60,3439.60029344,N,13744.63549429,E,4,08,1.2,10.531,M,38.489,M,1.6,0141*7D
$GPGGA,052719.65,3439.60029809,N,13744.63547674,E,4,08,1.2,10.529,M,38.489,M,1.6,0141*77
$GPGGA,052719.70,3439.60030111,N,13744.63545787,E,4,08,1.2,10.531,M,38.489,M,0.7,0141*7D
$GPGGA,052719.75,3439.60030485,N,13744.63544284,E,4,08,1.2,10.542,M,38.489,M,0.8,0141*7C
$GPGGA,052719.80,3439.60030783,N,13744.63542670,E,4,08,1.2,10.543,M,38.489,M,0.8,0141*7B
$GPGGA,052719.85,3439.60031252,N,13744.63541631,E,4,08,1.2,10.549,M,38.489,M,0.9,0141*7B
$GPGGA,052719.90,3439.60031885,N,13744.63540601,E,4,08,1.2,10.531,M,38.489,M,0.9,0141*72
$GPGGA,052719.95,3439.60032254,N,13744.63539450,E,4,08,1.2,10.528,M,38.489,M,0.9,0141*72
$GPGGA,052720.00,3439.60032656,N,13744.63538493,E,4,08,1.2,10.521,M,38.489,M,1.0,0141*7D
$GPGGA,052720.05,3439.60033003,N,13744.63537327,E,4,08,1.2,10.525,M,38.489,M,1.0,0141*7C
$GPGGA,052720.10,3439.60033304,N,13744.63536300,E,4,08,1.2,10.529,M,38.489,M,1.1,0141*75
$GPGGA,052720.15,3439.60033961,N,13744.63535031,E,4,08,1.2,10.532,M,38.489,M,1.1,0141*71
$GPGGA,052720.20,3439.60035243,N,13744.63533735,E,4,08,1.2,10.527,M,38.489,M,1.2,0141*78
$GPGGA,052720.25,3439.60036173,N,13744.63532638,E,4,08,1.2,10.525,M,38.489,M,1.3,0141*70
$GPGGA,052720.30,3439.60037537,N,13744.63531342,E,4,08,1.2,10.514,M,38.489,M,1.3,0141*78
$GPGGA,052720.35,3439.60038807,N,13744.63530221,E,4,08,1.2,10.510,M,38.489,M,1.4,0141*7A
$GPGGA,052720.40,3439.60039826,N,13744.63529202,E,4,08,1.2,10.518,M,38.489,M,1.4,0141*7B
$GPGGA,052720.45,3439.60041013,N,13744.63528330,E,4,08,1.2,10.510,M,38.489,M,1.5,0141*77
$GPGGA,052720.50,3439.60042224,N,13744.63527305,E,4,08,1.2,10.502,M,38.489,M,1.5,0141*7C
$GPGGA,052720.55,3439.60043289,N,13744.63526634,E,4,08,1.2,10.490,M,38.489,M,1.5,0141*73
$GPGGA,052720.60,3439.60044190,N,13744.63525394,E,4,08,1.2,10.491,M,38.489,M,1.6,0141*77
$GPGGA,052720.65,3439.60045332,N,13744.63523978,E,4,08,1.2,10.492,M,38.489,M,1.6,0141*74
$GPGGA,052720.70,3439.60046844,N,13744.63523299,E,4,08,1.2,10.488,M,38.489,M,1.7,0141*77
$GPGGA,052720.75,3439.60048176,N,13744.63521906,E,4,08,1.2,10.494,M,38.489,M,1.8,0141*79
$GPGGA,052720.80,3439.60049350,N,13744.63520791,E,4,08,1.2,10.507,M,38.489,M,1.8,0141*7E
$GPGGA,052720.85,3439.60050493,N,13744.63519382,E,4,08,1.2,10.516,M,38.489,M,1.9,0141*76
$GPGGA,052720.90,3439.60051142,N,13744.63517821,E,4,08,1.2,10.510,M,38.489,M,1.9,0141*70
$GPGGA,052720.95,3439.60052515,N,13744.63516857,E,4,08,1.2,10.510,M,38.489,M,0.9,0141*71
$GPGGA,052721.00,3439.60053435,N,13744.63515534,E,4,08,1.2,10.500,M,38.489,M,1.0,0141*7C
$GPGGA,052721.05,3439.60054085,N,13744.63514205,E,4,08,1.2,10.497,M,38.489,M,1.0,0141*7A
$GPGGA,052721.10,3439.60054675,N,13744.63512649,E,4,08,1.2,10.492,M,38.489,M,1.1,0141*79
$GPGGA,052721.15,3439.60055398,N,13744.63510972,E,4,08,1.2,10.489,M,38.489,M,1.1,0141*74
$GPGGA,052721.20,3439.60056156,N,13744.63509126,E,4,08,1.2,10.485,M,38.489,M,1.2,0141*7F
$GPGGA,052721.25,3439.60056646,N,13744.63507399,E,4,08,1.2,10.474,M,38.489,M,1.3,0141*7B
$GPGGA,052721.30,3439.60057073,N,13744.63505697,E,4,08,1.2,10.468,M,38.489,M,1.3,0141*7A
$GPGGA,052721.35,3439.60057617,N,13744.63504060,E,4,08,1.2,10.461,M,38.489,M,1.4,0141*7A
$GPGGA,052721.40,3439.60058197,N,13744.63502338,E,4,08,1.2,10.451,M,38.489,M,1.4,0141*73
$GPGGA,052721.45,3439.60058909,N,13744.63500802,E,4,08,1.2,10.471,M,38.489,M,1.5,0141*7A
$GPGGA,052721.50,3439.60059595,N,13744.63499278,E,4,08,1.2,10.462,M,38.489,M,1.5,0141*72
$GPGGA,052721.55,3439.60060420,N,13744.63497820,E,4,08,1.2,10.469,M,38.489,M,1.5,0141*70
$GPGGA,052721.60,3439.60060841,N,13744.63496391,E,4,08,1.2,10.460,M,38.489,M,1.6,0141*77
$GPGGA,052721.65,3439.60061342,N,13744.63495002,E,4,08,1.2,10.463,M,38.489,M,1.6,0141*72
$GPGGA,052721.70,3439.60061845,N,13744.63493443,E,4,08,1.2,10.460,M,38.489,M,1.7,0141*7F
$GPGGA,052721.75,3439.60062806,N,13744.63491918,E,4,08,1.2,10.461,M,38.489,M,1.8,0141*71
$GPGGA,052721.80,3439.60063815,N,13744.63490304,E,4,08,1.2,10.455,M,38.489,M,1.8,0141*79
$GPGGA,052721.85,3439.60064693,N,13744.63488352,E,4,08,1.2,10.455,M,38.489,M,0.9,0141*71
$GPGGA,052721.90,3439.60065925,N,13744.63486760,E,4,08,1.2,10.448,M,38.489,M,0.9,0141*71
$GPGGA,052721.95,3439.60067057,N,13744.63485162,E,4,08,1.2,10.441,M,38.489,M,0.9,0141*74
$GPGGA,052722.00,3439.60068217,N,13744.63483446,E,4,08,1.2,10.438,M,38.489,M,1.0,0141*71
$GPGGA,052722.05,3439.60069306,N,13744.63481707,E,4,08,1.2,10.429,M,38.489,M,1.0,0141*70
$GPGGA,052722.10,3439.60070839,N,13744.63479848,E,4,08,1.2,10.414,M,38.489,M,1.1,0141*77
$GPGGA,052722.15,3439.60072360,N,13744.63477660,E,4,08,1.2,10.412,M,38.489,M,1.1,0141*7B
$GPGGA,052722.20,3439.60073669,N,13744.63476410,E,4,08,1.2,10.414,M,38.489,M,1.2,0141*71
$GPGGA,052722.25,3439.60074882,N,13744.63474890,E,4,08,1.2,10.413,M,38.489,M,1.3,0141*78
$GPGGA,052722.30,3439.60075921,N,13744.63472932,E,4,08,1.2,10.421,M,38.489,M,1.3,0141*7B
$GPGGA,052722.35,3439.60077047,N,13744.63471323,E,4,08,1.2,10.429,M,38.489,M,1.4,0141*73
$GPGGA,052722.40,3439.60078115,N,13744.63469805,E,4,08,1.2,10.435,M,38.489,M,1.4,0141*73
$GPGGA,052722.45,3439.60079153,N,13744.63467991,E,4,08,1.2,10.437,M,38.489,M,1.5,0141*74
$GPGGA,052722.50,3439.60080104,N,13744.63466439,E,4,08,1.2,10.425,M,38.489,M,1.5,0141*79
$GPGGA,052722.55,3439.60080900,N,13744.63464461,E,4,08,1.2,10.426,M,38.489,M,1.5,0141*7C
$GPGGA,052722.60,3439.60081450,N,13744.63462479,E,4,08,1.2,10.428,M,38.489,M,1.6,0141*71
$GPGGA,052722.65,3439.60082059,N,13744.63460444,E,4,08,1.2,10.433,M,38.489,M,1.6,0141*7C
$GPGGA,052722.70,3439.60082464,N,13744.63458485,E,4,08,1.2,10.425,M,38.489,M,1.7,0141*72
$GPGGA,052722.75,3439.60082900,N,13744.63456602,E,4,08,1.2,10.419,M,38.489,M,1.8,0141*7B
$GPGGA,052722.80,3439.60083127,N,13744.63454402,E,4,08,1.2,10.421,M,38.489,M,1.8,0141*76
$GPGGA,052722.85,3439.60083352,N,13744.63452827,E,4,08,1.2,10.411,M,38.489,M,1.9,0141*7C
$GPGGA,052722.90,3439.60083251,N,13744.63451124,E,4,08,1.2,10.413,M,38.489,M,0.9,0141*70
$GPGGA,052722.95,3439.60083524,N,13744.63449497,E,4,08,1.2,10.416,M,38.489,M,0.9,0141*71
$GPGGA,052723.00,3439.60083471,N,13744.63447944,E,4,08,1.2,10.422,M,38.489,M,1.0,0141*7F
$GPGGA,052723.05,3439.60083680,N,13744.63446276,E,4,08,1.2,10.428,M,38.489,M,1.0,0141*77
$GPGGA,052723.10,3439.60083930,N,13744.63444938,E,4,08,1.2,10.419,M,38.489,M,1.1,0141*77
$GPGGA,052723.15,3439.60084200,N,13744.63443814,E,4,08,1.2,10.414,M,38.489,M,1.1,0141*78
$GPGGA,052723.20,3439.60084788,N,13744.63442667,E,4,08,1.2,10.422,M,38.489,M,1.2,0141*76
$GPGGA,052723.25,3439.60085121,N,13744.63441264,E,4,08,1.2,10.423,M,38.489,M,1.3,0141*73
$GPGGA,052723.30,3439.60085492,N,13744.63439544,E,4,08,1.2,10.420,M,38.489,M,1.3,0141*73
$GPGGA,052723.35,3439.60085847,N,13744.63437768,E,4,08,1.2,10.419,M,38.489,M,1.4,0141*7D
$GPGGA,052723.40,3439.60086138,N,13744.63436095,E,4,08,1.2,10.423,M,38.489,M,1.4,0141*70
$GPGGA,052723.45,3439.60086518,N,13744.63434255,E,4,08,1.2,10.424,M,38.489,M,1.5,0141*79
$GPGGA,052723.50,3439.60087250,N,13744.63432314,E,4,08,1.2,10.421,M,38.489,M,1.5,0141*70
$GPGGA,052723.55,3439.60087940,N,13744.63430482,E,4,08,1.2,10.416,M,38.489,M,1.5,0141*71
$GPGGA,052723.60,3439.60088603,N,13744.63428531,E,4,08,1.2,10.412,M,38.489,M,1.6,0141*77
$GPGGA,052723.65,3439.60089264,N,13744.63426949,E,4,08,1.2,10.403,M,38.489,M,1.6,0141*7B
$GPGGA,052723.70,3439.60090365,N,13744.63425079,E,4,08,1.2,10.405,M,38.489,M,1.7,0141*79
$GPGGA,052723.75,3439.60091277,N,13744.63422948,E,4,08,1.2,10.418,M,38.489,M,1.8,0141*70
$GPGGA,052723.80,3439.60091473,N,13744.63421980,E,4,08,1.2,10.420,M,38.489,M,1.8,0141*74
$GPGGA,052723.85,3439.60092032,N,13744.63420874,E,4,08,1.2,10.411,M,38.489,M,1.9,0141*7B
$GPGGA,052723.90,3439.60092265,N,13744.63419741,E,4,08,1.2,10.413,M,38.489,M,0.9,0141*7F
$GPGGA,052723.95,3439.60092605,N,13744.63418651,E,4,08,1.2,10.420,M,38.489,M,0.9,0141*79
$GPGGA,052724.00,3439.60092672,N,13744.63417516,E,4,08,1.2,10.406,M,38.489,M,1.0,0141*71
$GPGGA,052724.05,3439.60092876,N,13744.63416400,E,4,08,1.2,10.412,M,38.489,M,1.0,0141*7C
$GPGGA,052724.10,3439.60093398,N,13744.63415268,E,4,08,1.2,10.416,M,38.489,M,1.1,0141*7C
$GPGGA,052724.15,3439.60093591,N,13744.63413910,E,4,08,1.2,10.416,M,38.489,M,1.1,0141*74
$GPGGA,052724.20,3439.60093474,N,13744.63412194,E,4,08,1.2,10.423,M,38.489,M,1.2,0141*78
$GPGGA,052724.25,3439.60093441,N,13744.63410674,E,4,08,1.2,10.416,M,38.489,M,1.3,0141*77
$GPGGA,052724.30,3439.60093869,N,13744.63409097,E,4,08,1.2,10.417,M,38.489,M,1.3,0141*77
$GPGGA,052724.35,3439.60093827,N,13744.63407574,E,4,08,1.2,10.420,M,38.489,M,1.4,0141*7D
$GPGGA,052724.40,3439.60093623,N,13744.63406070,E,4,08,1.2,10.421,M,38.489,M,1.4,0141*74
$GPGGA,052724.45,3439.60093321,N,13744.63404883,E,4,08,1.2,10.410,M,38.489,M,1.5,0141*73
$GPGGA,052724.50,3439.60092964,N,13744.63403276,E,4,08,1.2,10.407,M,38.489,M,1.5,0141*7C
$GPGGA,052724.55,3439.60092784,N,13744.63401606,E,4,08,1.2,10.404,M,38.489,M,1.5,0141*7B
$GPGGA,052724.60,3439.60092288,N,13744.63399992,E,4,08,1.2,10.403,M,38.489,M,1.6,0141*74
$GPGGA,052724.65,3439.60091922,N,13744.63398507,E,4,08,1.2,10.408,M,38.489,M,1.6,0141*73
$GPGGA,052724.70,3439.60091782,N,13744.63397463,E,4,08,1.2,10.399,M,38.489,M,1.7,0141*71
$GPGGA,052724.75,3439.60091609,N,13744.63396061,E,4,08,1.2,10.404,M,38.489,M,1.8,0141*7D
$GPGGA,052724.80,3439.60091375,N,13744.63395067,E,4,08,1.2,10.389,M,38.489,M,1.8,0141*7E
$GPGGA,052724.85,3439.60091096,N,13744.63393841,E,4,08,1.2,10.386,M,38.489,M,1.9,0141*71
$GPGGA,052724.90,3439.60091169,N,13744.63392555,E,4,08,1.2,10.386,M,38.489,M,1.9,0141*7D
$GPGGA,052724.95,3439.60091296,N,13744.63391222,E,4,08,1.2,10.390,M,38.489,M,0.9,0141*79
$GPGGA,052725.00,3439.60091141,N,13744.63390013,E,4,08,1.2,10.386,M,38.489,M,1.0,0141*73
$GPGGA,052725.05,3439.60090833,N,13744.63388537,E,4,08,1.2,10.386,M,38.489,M,1.0,0141*71
$GPGGA,052725.10,3439.60090875,N,13744.63386838,E,4,08,1.2,10.383,M,38.489,M,1.1,0141*7F
$GPGGA,052725.15,3439.60091011,N,13744.63385239,E,4,08,1.2,10.378,M,38.489,M,1.1,0141*7D
$GPGGA,052725.20,3439.60091182,N,13744.63383527,E,4,08,1.2,10.376,M,38.489,M,1.2,0141*73
$GPGGA,052725.25,3439.60091356,N,13744.63381602,E,4,08,1.2,10.368,M,38.489,M,1.3,0141*75
$GPGGA,052725.30,3439.60091597,N,13744.63380063,E,4,08,1.2,10.353,M,38.489,M,1.3,0141*72
$GPGGA,052725.35,3439.60091849,N,13744.63378290,E,4,08,1.2,10.351,M,38.489,M,1.4,0141*75
$GPGGA,052725.40,3439.60092095,N,13744.63376175,E,4,08,1.2,10.343,M,38.489,M,1.4,0141*78
$GPGGA,052725.45,3439.60092525,N,13744.63374462,E,4,08,1.2,10.331,M,38.489,M,1.5,0141*76
$GPGGA,052725.50,3439.60092867,N,13744.63373371,E,4,08,1.2,10.328,M,38.489,M,1.5,0141*73
$GPGGA,052725.55,3439.60093190,N,13744.63372120,E,4,08,1.2,10.339,M,38.489,M,1.5,0141*71
$GPGGA,052725.60,3439.60093310,N,13744.63370224,E,4,08,1.2,10.342,M,38.489,M,1.6,0141*77
$GPGGA,052725.65,3439.60093617,N,13744.63368795,E,4,08,1.2,10.340,M,38.489,M,1.6,0141*74
$GPGGA,052725.70,3439.60094136,N,13744.63366854,E,4,08,1.2,10.342,M,38.489,M,1.7,0141*7C
$GPGGA,052725.75,3439.60094608,N,13744.63365863,E,4,08,1.2,10.334,M,38.489,M,1.8,0141*7A
$GPGGA,052725.80,3439.60094973,N,13744.63364338,E,4,08,1.2,10.345,M,38.489,M,1.8,0141*71
$GPGGA,052725.85,3439.60095321,N,13744.63362883,E,4,08,1.2,10.344,M,38.489,M,1.9,0141*75
$GPGGA,052725.90,3439.60095551,N,13744.63361083,E,4,08,1.2,10.343,M,38.489,M,1.9,0141*7C
$GPGGA,052725.95,3439.60095440,N,13744.63359333,E,4,08,1.2,10.340,M,38.489,M,0.9,0141*79
$GPGGA,052726.00,3439.60095551,N,13744.63357570,E,4,08,1.2,10.340,M,38.489,M,1.0,0141*70
$GPGGA,052726.05,3439.60095639,N,13744.63355586,E,4,08,1.2,10.331,M,38.489,M,1.0,0141*75
$GPGGA,052726.10,3439.60095737,N,13744.63353565,E,4,08,1.2,10.330,M,38.489,M,1.1,0141*75
$GPGGA,052726.15,3439.60095767,N,13744.63351519,E,4,08,1.2,10.327,M,38.489,M,1.1,0141*7A
$GPGGA,052726.20,3439.60095723,N,13744.63349489,E,4,08,1.2,10.322,M,38.489,M,1.2,0141*7B
$GPGGA,052726.25,3439.60095580,N,13744.63347537,E,4,08,1.2,10.308,M,38.489,M,1.3,0141*76
$GPGGA,052726.30,3439.60095302,N,13744.63345719,E,4,08,1.2,10.305,M,38.489,M,1.3,0141*7F
$GPGGA,052726.35,3439.60095337,N,13744.63344497,E,4,08,1.2,10.321,M,38.489,M,1.4,0141*79
$GPGGA,052726.40,3439.60095380,N,13744.63342763,E,4,08,1.2,10.333,M,38.489,M,1.4,0141*7A
$GPGGA,052726.45,3439.60095596,N,13744.63341270,E,4,08,1.2,10.333,M,38.489,M,1.5,0141*7B
$GPGGA,052726.50,3439.60095627,N,13744.63339858,E,4,08,1.2,10.332,M,38.489,M,1.5,0141*78
$GPGGA,052726.55,3439.60095855,N,13744.63338506,E,4,08,1.2,10.323,M,38.489,M,1.5,0141*71
$GPGGA,052726.60,3439.60096092,N,13744.63337329,E,4,08,1.2,10.324,M,38.489,M,1.6,0141*77
$GPGGA,052726.65,3439.60096225,N,13744.63335932,E,4,08,1.2,10.329,M,38.489,M,1.6,0141*73
$GPGGA,052726.70,3439.60095752,N,13744.63334287,E,4,08,1.2,10.329,M,38.489,M,1.7,0141*74
$GPGGA,052726.75,3439.60096020,N,13744.63332392,E,4,08,1.2,10.334,M,38.489,M,1.8,0141*70
$GPGGA,052726.80,3439.60096518,N,13744.63330093,E,4,08,1.2,10.342,M,38.489,M,1.8,0141*75
$GPGGA,052726.85,3439.60096791,N,13744.63328246,E,4,08,1.2,10.340,M,38.489,M,1.9,0141*73
$GPGGA,052726.90,3439.60097095,N,13744.63326418,E,4,08,1.2,10.341,M,38.489,M,1.9,0141*77
$GPGGA,052726.95,3439.60097675,N,13744.63324741,E,4,08,1.2,10.336,M,38.489,M,2.0,0141*7D
$GPGGA,052727.00,3439.60097972,N,13744.63323351,E,4,08,1.2,10.332,M,38.489,M,2.0,0141*7E
$GPGGA,052727.05,3439.60098523,N,13744.63321572,E,4,08,1.2,10.344,M,38.489,M,2.0,0141*78
$GPGGA,052727.10,3439.60098939,N,13744.63319499,E,4,08,1.2,10.352,M,38.489,M,2.1,0141*72
$GPGGA,052727.15,3439.60099307,N,13744.63317740,E,4,08,1.2,10.353,M,38.489,M,2.2,0141*7A
$GPGGA,052727.20,3439.60099381,N,13744.63315971,E,4,08,1.2,10.355,M,38.489,M,2.2,0141*7A
$GPGGA,052727.25,3439.60099741,N,13744.63314175,E,4,08,1.2,10.359,M,38.489,M,2.3,0141*77
$GPGGA,052727.30,3439.60100331,N,13744.63312561,E,4,08,1.2,10.362,M,38.489,M,2.3,0141*7E
$GPGGA,052727.35,3439.60100727,N,13744.63311084,E,4,08,1.2,10.372,M,38.489,M,2.3,0141*74
$GPGGA,052727.40,3439.60101242,N,13744.63309824,E,4,08,1.2,10.379,M,38.489,M,2.4,0141*76
$GPGGA,052727.45,3439.60101670,N,13744.63308292,E,4,08,1.2,10.383,M,38.489,M,2.5,0141*74
$GPGGA,052727.50,3439.60102055,N,13744.63307311,E,4,08,1.2,10.379,M,38.489,M,2.5,0141*72
$GPGGA,052727.55,3439.60102604,N,13744.63306741,E,4,08,1.2,10.372,M,38.489,M,2.5,0141*7E
$GPGGA,052727.60,3439.60102928,N,13744.63305743,E,4,08,1.2,10.378,M,38.489,M,2.6,0141*71
$GPGGA,052727.65,3439.60103124,N,13744.63304263,E,4,08,1.2,10.382,M,38.489,M,2.7,0141*73
$GPGGA,052727.70,3439.60103229,N,13744.63302517,E,4,08,1.2,10.384,M,38.489,M,2.7,0141*7D
$GPGGA,052727.75,3439.60103446,N,13744.63300846,E,4,08,1.2,10.383,M,38.489,M,2.8,0141*74
$GPGGA,052727.80,3439.60103701,N,13744.63299167,E,4,08,1.2,10.378,M,38.489,M,2.8,0141*71
$GPGGA,052727.85,3439.60103758,N,13744.63297451,E,4,08,1.2,10.374,M,38.489,M,2.8,0141*7A
$GPGGA,052727.90,3439.60103709,N,13744.63295473,E,4,08,1.2,10.370,M,38.489,M,1.9,0141*7E
$GPGGA,052727.95,3439.60103470,N,13744.63294055,E,4,08,1.2,10.359,M,38.489,M,2.0,0141*76
$GPGGA,052728.00,3439.60103268,N,13744.63292297,E,4,08,1.2,10.352,M,38.489,M,2.0,0141*7B
$GPGGA,052728.05,3439.60103478,N,13744.63290810,E,4,08,1.2,10.336,M,38.489,M,2.0,0141*7C
$GPGGA,052728.10,3439.60103678,N,13744.63289333,E,4,08,1.2,10.363,M,38.489,M,2.1,0141*79
$GPGGA,052728.15,3439.60103886,N,13744.63288010,E,4,08,1.2,10.358,M,38.489,M,2.2,0141*7B
$GPGGA,052728.20,3439.60103976,N,13744.63286653,E,4,08,1.2,10.357,M,38.489,M,2.2,0141*73
$GPGGA,052728.25,3439.60104051,N,13744.63285537,E,4,08,1.2,10.351,M,38.489,M,2.3,0141*78
$GPGGA,052728.30,3439.60103910,N,13744.63284639,E,4,08,1.2,10.343,M,38.489,M,1.3,0141*7B
$GPGGA,052728.35,3439.60103731,N,13744.63283516,E,4,08,1.2,10.343,M,38.489,M,1.4,0141*7D
$GPGGA,052728.40,3439.60103993,N,13744.63282185,E,4,08,1.2,10.344,M,38.489,M,1.4,0141*71
$GPGGA,052728.45,3439.60103974,N,13744.63280570,E,4,08,1.2,10.344,M,38.489,M,1.5,0141*70
$GPGGA,052728.50,3439.60104229,N,13744.63278845,E,4,08,1.2,10.339,M,38.489,M,1.5,0141*76
$GPGGA,052728.55,3439.60104434,N,13744.63277332,E,4,08,1.2,10.333,M,38.489,M,1.5,0141*77
$GPGGA,052728.60,3439.60104698,N,13744.63275685,E,4,08,1.2,10.329,M,38.489,M,1.6,0141*76
$GPGGA,052728.65,3439.60105102,N,13744.63273731,E,4,08,1.2,10.324,M,38.489,M,1.6,0141*73
$GPGGA,052728.70,3439.60105484,N,13744.63272082,E,4,08,1.2,10.310,M,38.489,M,1.7,0141*74
$GPGGA,052728.75,3439.60106238,N,13744.63270249,E,4,08,1.2,10.306,M,38.489,M,1.8,0141*7C
$GPGGA,052728.80,3439.60106974,N,13744.63268468,E,4,08,1.2,10.298,M,38.489,M,1.8,0141*7F
$GPGGA,052728.85,3439.60107659,N,13744.63267201,E,4,08,1.2,10.314,M,38.489,M,1.9,0141*79
$GPGGA,052728.90,3439.60107815,N,13744.63265126,E,4,08,1.2,10.319,M,38.489,M,1.9,0141*72
$GPGGA,052728.95,3439.60107785,N,13744.63263812,E,4,08,1.2,10.305,M,38.489,M,2.0,0141*7E
$GPGGA,052729.00,3439.60108239,N,13744.63261929,E,4,08,1.2,10.304,M,38.489,M,2.0,0141*74
$GPGGA,052729.05,3439.60108245,N,13744.63260236,E,4,08,1.2,10.309,M,38.489,M,2.0,0141*73
$GPGGA,052729.10,3439.60108370,N,13744.63258975,E,4,08,1.2,10.306,M,38.489,M,2.1,0141*79
$GPGGA,052729.15,3439.60108563,N,13744.63257718,E,4,08,1.2,10.315,M,38.489,M,2.2,0141*73
$GPGGA,052729.20,3439.60108971,N,13744.63256306,E,4,08,1.2,10.322,M,38.489,M,2.2,0141*74
$GPGGA,052729.25,3439.60109268,N,13744.63254607,E,4,08,1.2,10.318,M,38.489,M,2.3,0141*7D
$GPGGA,052729.30,3439.60109280,N,13744.63252710,E,4,08,1.2,10.314,M,38.489,M,2.3,0141*72
$GPGGA,052729.35,3439.60109234,N,13744.63251063,E,4,08,1.2,10.309,M,38.489,M,2.3,0141*74
$GPGGA,052729.40,3439.60109087,N,13744.63249425,E,4,08,1.2,10.310,M,38.489,M,2.4,0141*7C
$GPGGA,052729.45,3439.60108421,N,13744.63247748,E,4,08,1.2,10.304,M,38.489,M,2.5,0141*72
$GPGGA,052729.50,3439.60107884,N,13744.63246283,E,4,08,1.2,10.300,M,38.489,M,2.5,0141*7D
$GPGGA,052729.55,3439.60107039,N,13744.63244700,E,4,08,1.2,10.293,M,38.489,M,2.5,0141*71
$GPGGA,052729.60,3439.60106037,N,13744.63243258,E,4,08,1.2,10.279,M,38.489,M,2.6,0141*70
$GPGGA,052729.65,3439.60105599,N,13744.63242278,E,4,08,1.2,10.263,M,38.489,M,2.7,0141*7E
$GPGGA,052729.70,3439.60105436,N,13744.63240903,E,4,08,1.2,10.288,M,38.489,M,2.7,0141*7E
$GPGGA,052729.75,3439.60105031,N,13744.63239728,E,4,08,1.2,10.283,M,38.489,M,2.8,0141*75
$GPGGA,052729.80,3439.60105090,N,13744.63238302,E,4,08,1.2,10.266,M,38.489,M,2.8,0141*72
$GPGGA,052729.85,3439.60104784,N,13744.63237264,E,4,08,1.2,10.272,M,38.489,M,2.8,0141*7F
$GPGGA,052729.90,3439.60104438,N,13744.63235773,E,4,08,1.2,10.269,M,38.489,M,2.9,0141*75
$GPGGA,052729.95,3439.60104227,N,13744.63234234,E,4,08,1.2,10.270,M,38.489,M,3.0,0141*7F
$GPGGA,052730.00,3439.60104377,N,13744.63232540,E,4,08,1.2,10.278,M,38.489,M,2.0,0141*74
$GPGGA,052730.05,3439.60104938,N,13744.63230322,E,4,08,1.2,10.273,M,38.489,M,2.0,0141*7B
$GPGGA,052730.10,3439.60105501,N,13744.63228335,E,4,08,1.2,10.277,M,38.489,M,2.1,0141*72
$GPGGA,052730.15,3439.60106238,N,13744.63226680,E,4,08,1.2,10.278,M,38.489,M,2.2,0141*70
$GPGGA,052730.20,3439.60107038,N,13744.63225009,E,4,08,1.2,10.270,M,38.489,M,2.2,0141*79
$GPGGA,052730.25,3439.60108045,N,13744.63223454,E,4,08,1.2,10.274,M,38.489,M,2.3,0141*76
$GPGGA,052730.30,3439.60108399,N,13744.63221432,E,4,08,1.2,10.271,M,38.489,M,2.3,0141*77
$GPGGA,052730.35,3439.60109077,N,13744.63219718,E,4,08,1.2,10.277,M,38.489,M,2.3,0141*76
$GPGGA,052730.40,3439.60109728,N,13744.63218174,E,4,08,1.2,10.289,M,38.489,M,2.4,0141*72
$GPGGA,052730.45,3439.60110243,N,13744.63216828,E,4,08,1.2,10.286,M,38.489,M,2.5,0141*77
$GPGGA,052730.50,3439.60110601,N,13744.63215153,E,4,08,1.2,10.286,M,38.489,M,1.5,0141*74
$GPGGA,052730.55,3439.60111270,N,13744.63213326,E,4,08,1.2,10.292,M,38.489,M,1.5,0141*71
$GPGGA,052730.60,3439.60111867,N,13744.63211522,E,4,08,1.2,10.294,M,38.489,M,1.6,0141*7E
$GPGGA,052730.65,3439.60112272,N,13744.63209942,E,4,08,1.2,10.291,M,38.489,M,1.6,0141*70
$GPGGA,052730.70,3439.60112550,N,13744.63208754,E,4,08,1.2,10.291,M,38.489,M,1.7,0141*7A
$GPGGA,052730.75,3439.60112551,N,13744.63207363,E,4,08,1.2,10.294,M,38.489,M,1.8,0141*7B
$GPGGA,052730.80,3439.60112917,N,13744.63205389,E,4,08,1.2,10.308,M,38.489,M,1.8,0141*7D
$GPGGA,052730.85,3439.60112924,N,13744.63203724,E,4,08,1.2,10.306,M,38.489,M,1.9,0141*72
$GPGGA,052730.90,3439.60112533,N,13744.63202078,E,4,08,1.2,10.289,M,38.489,M,0.9,0141*74
$GPGGA,052730.95,3439.60112250,N,13744.63200954,E,4,08,1.2,10.284,M,38.489,M,0.9,0141*7B
$GPGGA,052731.00,3439.60112012,N,13744.63199882,E,4,08,1.2,10.281,M,38.489,M,1.0,0141*76
$GPGGA,052731.05,3439.60111949,N,13744.63198899,E,4,08,1.2,10.286,M,38.489,M,1.0,0141*7B
$GPGGA,052731.10,3439.60112360,N,13744.63198170,E,4,08,1.2,10.292,M,38.489,M,1.1,0141*77
$GPGGA,052731.15,3439.60112639,N,13744.63197635,E,4,08,1.2,10.296,M,38.489,M,1.1,0141*76
$GPGGA,052731.20,3439.60112730,N,13744.63196909,E,4,08,1.2,10.302,M,38.489,M,1.2,0141*76
$GPGGA,052731.25,3439.60112668,N,13744.63196229,E,4,08,1.2,10.298,M,38.489,M,1.3,0141*75
$GPGGA,052731.30,3439.60112553,N,13744.63195474,E,4,08,1.2,10.297,M,38.489,M,1.3,0141*78
$GPGGA,052731.35,3439.60112535,N,13744.63194327,E,4,08,1.2,10.298,M,38.489,M,1.4,0141*75
$GPGGA,052731.40,3439.60112623,N,13744.63193290,E,4,08,1.2,10.293,M,38.489,M,1.4,0141*72
$GPGGA,052731.45,3439.60112695,N,13744.63191847,E,4,08,1.2,10.298,M,38.489,M,1.5,0141*72
$GPGGA,052731.50,3439.60112966,N,13744.63190345,E,4,08,1.2,10.295,M,38.489,M,1.5,0141*70
$GPGGA,052731.55,3439.60113312,N,13744.63188920,E,4,08,1.2,10.294,M,38.489,M,1.5,0141*7C
$GPGGA,052731.60,3439.60113564,N,13744.63187720,E,4,08,1.2,10.285,M,38.489,M,1.6,0141*7F
$GPGGA,052731.65,3439.60114225,N,13744.63186305,E,4,08,1.2,10.284,M,38.489,M,1.6,0141*7C
$GPGGA,052731.70,3439.60114981,N,13744.63185003,E,4,08,1.2,10.277,M,38.489,M,1.7,0141*76
$GPGGA,052731.75,3439.60115784,N,13744.63183518,E,4,08,1.2,10.270,M,38.489,M,1.8,0141*78
$GPGGA,052731.80,3439.60116626,N,13744.63181962,E,4,08,1.2,10.264,M,38.489,M,1.8,0141*7E
$GPGGA,052731.85,3439.60117154,N,13744.63180464,E,4,08,1.2,10.268,M,38.489,M,1.9,0141*7F
$GPGGA,052731.90,3439.60117462,N,13744.63179323,E,4,08,1.2,10.271,M,38.489,M,1.9,0141*71
$GPGGA,052731.95,3439.60117773,N,13744.63178285,E,4,08,1.2,10.273,M,38.489,M,2.0,0141*73
$GPGGA,052732.00,3439.60118180,N,13744.63176847,E,4,08,1.2,10.274,M,38.489,M,2.0,0141*74
$GPGGA,052732.05,3439.60118712,N,13744.63175328,E,4,08,1.2,10.267,M,38.489,M,2.0,0141*7F
$GPGGA,052732.10,3439.60119067,N,13744.63173967,E,4,08,1.2,10.263,M,38.489,M,2.1,0141*7D
$GPGGA,052732.15,3439.60119573,N,13744.63172675,E,4,08,1.2,10.261,M,38.489,M,1.1,0141*74
$GPGGA,052732.20,3439.60120151,N,13744.63171296,E,4,08,1.2,10.263,M,38.489,M,1.2,0141*77
$GPGGA,052732.25,3439.60120477,N,13744.63169566,E,4,08,1.2,10.269,M,38.489,M,1.3,0141*79
$GPGGA,052732.30,3439.60120848,N,13744.63167795,E,4,08,1.2,10.266,M,38.489,M,1.3,0141*72
$GPGGA,052732.35,3439.60120887,N,13744.63166029,E,4,08,1.2,10.264,M,38.489,M,1.4,0141*70
$GPGGA,052732.40,3439.60121020,N,13744.63164201,E,4,08,1.2,10.258,M,38.489,M,1.4,0141*73
$GPGGA,052732.45,3439.60121075,N,13744.63162261,E,4,08,1.2,10.253,M,38.489,M,1.5,0141*7C
$GPGGA,052732.50,3439.60121054,N,13744.63160405,E,4,08,1.2,10.248,M,38.489,M,1.5,0141*77
$GPGGA,052732.55,3439.60120890,N,13744.63158477,E,4,08,1.2,10.244,M,38.489,M,1.5,0141*71
$GPGGA,052732.60,3439.60120935,N,13744.63156652,E,4,08,1.2,10.254,M,38.489,M,1.6,0141*70
$GPGGA,052732.65,3439.60121016,N,13744.63154843,E,4,08,1.2,10.253,M,38.489,M,1.6,0141*77
$GPGGA,052732.70,3439.60121074,N,13744.63153087,E,4,08,1.2,10.256,M,38.489,M,1.7,0141*74
$GPGGA,052732.75,3439.60120996,N,13744.63151582,E,4,08,1.2,10.253,M,38.489,M,0.8,0141*7C
$GPGGA,052732.80,3439.60121109,N,13744.63150372,E,4,08,1.2,10.248,M,38.489,M,0.8,0141*7B
$GPGGA,052732.85,3439.60121450,N,13744.63149180,E,4,08,1.2,10.245,M,38.489,M,0.9,0141*7C
$GPGGA,052732.90,3439.60121618,N,13744.63147901,E,4,08,1.2,10.249,M,38.489,M,0.9,0141*75
$GPGGA,052732.95,3439.60121736,N,13744.63146689,E,4,08,1.2,10.252,M,38.489,M,0.9,0141*79
$GPGGA,052733.00,3439.60121841,N,13744.63145312,E,4,08,1.2,10.251,M,38.489,M,1.0,0141*74
$GPGGA,052733.05,3439.60122177,N,13744.63143742,E,4,08,1.2,10.246,M,38.489,M,1.0,0141*7F
$GPGGA,052733.10,3439.60122468,N,13744.63142241,E,4,08,1.2,10.243,M,38.489,M,1.1,0141*73
$GPGGA,052733.15,3439.60122870,N,13744.63140734,E,4,08,1.2,10.241,M,38.489,M,1.1,0141*74
$GPGGA,052733.20,3439.60123654,N,13744.63138983,E,4,08,1.2,10.239,M,38.489,M,1.2,0141*7A
$GPGGA,052733.25,3439.60124240,N,13744.63137686,E,4,08,1.2,10.229,M,38.489,M,1.3,0141*7C
$GPGGA,052733.30,3439.60124943,N,13744.63136022,E,4,08,1.2,10.222,M,38.489,M,1.3,0141*72
$GPGGA,052733.35,3439.60125729,N,13744.63134082,E,4,08,1.2,10.221,M,38.489,M,1.4,0141*78
$GPGGA,052733.40,3439.60126637,N,13744.63132847,E,4,08,1.2,10.211,M,38.489,M,1.4,0141*73
$GPGGA,052733.45,3439.60127531,N,13744.63131307,E,4,08,1.2,10.214,M,38.489,M,1.5,0141*7A
$GPGGA,052733.50,3439.60128041,N,13744.63129356,E,4,08,1.2,10.226,M,38.489,M,1.5,0141*7F
$GPGGA,052733.55,3439.60128326,N,13744.63127830,E,4,08,1.2,10.234,M,38.489,M,1.5,0141*7E
$GPGGA,052733.60,3439.60128689,N,13744.63126295,E,4,08,1.2,10.227,M,38.489,M,1.6,0141*7D
$GPGGA,052733.65,3439.60129035,N,13744.63124735,E,4,08,1.2,10.231,M,38.489,M,1.6,0141*72
$GPGGA,052733.70,3439.60129255,N,13744.63123459,E,4,08,1.2,10.227,M,38.489,M,1.7,0141*7A
$GPGGA,052733.75,3439.60129680,N,13744.63122430,E,4,08,1.2,10.219,M,38.489,M,1.8,0141*7F
$GPGGA,052733.80,3439.60129874,N,13744.63121105,E,4,08,1.2,10.221,M,38.489,M,1.8,0141*7B
$GPGGA,052733.85,3439.60130236,N,13744.63119935,E,4,08,1.2,10.226,M,38.489,M,1.9,0141*7C
$GPGGA,052733.90,3439.60130573,N,13744.63118629,E,4,08,1.2,10.231,M,38.489,M,1.9,0141*7B
$GPGGA,052733.95,3439.60130730,N,13744.63117428,E,4,08,1.2,10.225,M,38.489,M,2.0,0141*78
$GPGGA,052734.00,3439.60130491,N,13744.63115747,E,4,08,1.2,10.238,M,38.489,M,1.0,0141*7C
$GPGGA,052734.05,3439.60130634,N,13744.63114390,E,4,08,1.2,10.238,M,38.489,M,1.0,0141*7B
$GPGGA,052734.10,3439.60130779,N,13744.63112786,E,4,08,1.2,10.234,M,38.489,M,1.1,0141*7F
$GPGGA,052734.15,3439.60130461,N,13744.63110885,E,4,08,1.2,10.236,M,38.489,M,1.1,0141*7C
$GPGGA,052734.20,3439.60130302,N,13744.63109208,E,4,08,1.2,10.229,M,38.489,M,1.2,0141*72
$GPGGA,052734.25,3439.60130036,N,13744.63107717,E,4,08,1.2,10.223,M,38.489,M,1.3,0141*7D
$GPGGA,052734.30,3439.60130031,N,13744.63106412,E,4,08,1.2,10.224,M,38.489,M,1.3,0141*7E
$GPGGA,052734.35,3439.60129637,N,13744.63105041,E,4,08,1.2,10.227,M,38.489,M,1.4,0141*76
$GPGGA,052734.40,3439.60129446,N,13744.63103802,E,4,08,1.2,10.230,M,38.489,M,1.4,0141*7F
$GPGGA,052734.45,3439.60129397,N,13744.63102689,E,4,08,1.2,10.233,M,38.489,M,1.5,0141*7F
$GPGGA,052734.50,3439.60129467,N,13744.63101550,E,4,08,1.2,10.229,M,38.489,M,1.5,0141*7C
$GPGGA,052734.55,3439.60129960,N,13744.63100546,E,4,08,1.2,10.223,M,38.489,M,1.5,0141*7F
$GPGGA,052734.60,3439.60129879,N,13744.63099137,E,4,08,1.2,10.227,M,38.489,M,1.6,0141*74
$GPGGA,052734.65,3439.60130006,N,13744.63097746,E,4,08,1.2,10.226,M,38.489,M,1.6,0141*76
$GPGGA,052734.70,3439.60130108,N,13744.63096128,E,4,08,1.2,10.223,M,38.489,M,1.7,0141*76
$GPGGA,052734.75,3439.60130174,N,13744.63094343,E,4,08,1.2,10.220,M,38.489,M,1.8,0141*79
$GPGGA,052734.80,3439.60130812,N,13744.63092876,E,4,08,1.2,10.214,M,38.489,M,1.8,0141*76
$GPGGA,052734.85,3439.60131603,N,13744.63091405,E,4,08,1.2,10.207,M,38.489,M,1.9,0141*74
$GPGGA,052734.90,3439.60132125,N,13744.63089777,E,4,08,1.2,10.200,M,38.489,M,1.9,0141*78
$GPGGA,052734.95,3439.60132674,N,13744.63088227,E,4,08,1.2,10.193,M,38.489,M,0.9,0141*77
$GPGGA,052735.00,3439.60133418,N,13744.63086615,E,4,08,1.2,10.190,M,38.489,M,1.0,0141*73
$GPGGA,052735.05,3439.60134010,N,13744.63084839,E,4,08,1.2,10.193,M,38.489,M,1.0,0141*7C
$GPGGA,052735.10,3439.60134626,N,13744.63083312,E,4,08,1.2,10.196,M,38.489,M,1.1,0141*7A
$GPGGA,052735.15,3439.60135290,N,13744.63081566,E,4,08,1.2,10.197,M,38.489,M,1.1,0141*71
$GPGGA,052735.20,3439.60135796,N,13744.63079768,E,4,08,1.2,10.200,M,38.489,M,1.2,0141*71
$GPGGA,052735.25,3439.60136150,N,13744.63078100,E,4,08,1.2,10.200,M,38.489,M,1.3,0141*73
$GPGGA,052735.30,3439.60136514,N,13744.63076672,E,4,08,1.2,10.198,M,38.489,M,1.3,0141*7D
$GPGGA,052735.35,3439.60136808,N,13744.63075242,E,4,08,1.2,10.201,M,38.489,M,1.4,0141*78
$GPGGA,052735.40,3439.60137279,N,13744.63073491,E,4,08,1.2,10.199,M,38.489,M,1.4,0141*7B
$GPGGA,052735.45,3439.60137669,N,13744.63071876,E,4,08,1.2,10.202,M,38.489,M,1.5,0141*7C
$GPGGA,052735.50,3439.60137658,N,13744.63070103,E,4,08,1.2,10.205,M,38.489,M,1.5,0141*77
$GPGGA,052735.55,3439.60137769,N,13744.63068489,E,4,08,1.2,10.203,M,38.489,M,1.5,0141*79
$GPGGA,052735.60,3439.60137845,N,13744.63066644,E,4,08,1.2,10.204,M,38.489,M,1.6,0141*77
$GPGGA,052735.65,3439.60137945,N,13744.63065125,E,4,08,1.2,10.200,M,38.489,M,1.6,0141*74
$GPGGA,052735.70,3439.60137637,N,13744.63063599,E,4,08,1.2,10.194,M,38.489,M,0.7,0141*71
$GPGGA,052735.75,3439.60137453,N,13744.63061899,E,4,08,1.2,10.189,M,38.489,M,0.8,0141*78
$GPGGA,052735.80,3439.60137505,N,13744.63060320,E,4,08,1.2,10.189,M,38.489,M,0.8,0141*78
$GPGGA,052735.85,3439.60137438,N,13744.63058965,E,4,08,1.2,10.196,M,38.489,M,0.9,0141*7D
$GPGGA,052735.90,3439.60137592,N,13744.63058073,E,4,08,1.2,10.205,M,38.489,M,0.9,0141*7F
$GPGGA,052735.95,3439.60136956,N,13744.63056586,E,4,08,1.2,10.207,M,38.489,M,0.9,0141*7C
$GPGGA,052736.00,3439.60136812,N,13744.63055986,E,4,08,1.2,10.201,M,38.489,M,1.0,0141*73
$GPGGA,052736.05,3439.60136784,N,13744.63055122,E,4,08,1.2,10.199,M,38.489,M,1.0,0141*72
$GPGGA,052736.10,3439.60136968,N,13744.63054252,E,4,08,1.2,10.199,M,38.489,M,1.1,0141*7E
$GPGGA,052736.15,3439.60136886,N,13744.63053277,E,4,08,1.2,10.202,M,38.489,M,1.1,0141*7B
$GPGGA,052736.20,3439.60136826,N,13744.63052289,E,4,08,1.2,10.205,M,38.489,M,1.2,0141*73
$GPGGA,052736.25,3439.60136815,N,13744.63051250,E,4,08,1.2,10.204,M,38.489,M,1.3,0141*71
$GPGGA,052736.30,3439.60136789,N,13744.63050098,E,4,08,1.2,10.200,M,38.489,M,1.3,0141*7C
$GPGGA,052736.35,3439.60136937,N,13744.63048952,E,4,08,1.2,10.195,M,38.489,M,1.4,0141*7C
$GPGGA,052736.40,3439.60137071,N,13744.63047822,E,4,08,1.2,10.188,M,38.489,M,1.4,0141*71
$GPGGA,052736.45,3439.60137111,N,13744.63046610,E,4,08,1.2,10.183,M,38.489,M,1.5,0141*77
$GPGGA,052736.50,3439.60137380,N,13744.63045347,E,4,08,1.2,10.184,M,38.489,M,1.5,0141*7A
$GPGGA,052736.55,3439.60137630,N,13744.63043754,E,4,08,1.2,10.175,M,38.489,M,1.5,0141*7F
$GPGGA,052736.60,3439.60137869,N,13744.63042328,E,4,08,1.2,10.169,M,38.489,M,1.6,0141*7B
$GPGGA,052736.65,3439.60138214,N,13744.63041026,E,4,08,1.2,10.169,M,38.489,M,1.6,0141*7F
$GPGGA,052736.70,3439.60138586,N,13744.63039778,E,4,08,1.2,10.166,M,38.489,M,1.7,0141*7A
$GPGGA,052736.75,3439.60138789,N,13744.63038649,E,4,08,1.2,10.170,M,38.489,M,1.8,0141*78
$GPGGA,052736.80,3439.60138931,N,13744.63037590,E,4,08,1.2,10.168,M,38.489,M,1.8,0141*7E
$GPGGA,052736.85,3439.60138864,N,13744.63036513,E,4,08,1.2,10.168,M,38.489,M,1.9,0141*71
$GPGGA,052736.90,3439.60138893,N,13744.63035647,E,4,08,1.2,10.172,M,38.489,M,1.9,0141*77
$GPGGA,052736.95,3439.60138855,N,13744.63035160,E,4,08,1.2,10.171,M,38.489,M,0.9,0141*78
$GPGGA,052737.00,3439.60138760,N,13744.63034485,E,4,08,1.2,10.175,M,38.489,M,1.0,0141*7F
$GPGGA,052737.05,3439.60138785,N,13744.63033915,E,4,08,1.2,10.169,M,38.489,M,1.0,0141*7F
$GPGGA,052737.10,3439.60138834,N,13744.63033089,E,4,08,1.2,10.174,M,38.489,M,1.1,0141*7F
$GPGGA,052737.15,3439.60138848,N,13744.63032326,E,4,08,1.2,10.181,M,38.489,M,1.1,0141*7C
$GPGGA,052737.20,3439.60138828,N,13744.63031819,E,4,08,1.2,10.174,M,38.489,M,1.2,0141*71
$GPGGA,052737.25,3439.60138746,N,13744.63031143,E,4,08,1.2,10.171,M,38.489,M,1.3,0141*71
$GPGGA,052737.30,3439.60138558,N,13744.63030489,E,4,08,1.2,10.172,M,38.489,M,1.3,0141*79
$GPGGA,052737.35,3439.60138466,N,13744.63029856,E,4,08,1.2,10.172,M,38.489,M,1.4,0141*71
$GPGGA,052737.40,3439.60138458,N,13744.63029275,E,4,08,1.2,10.173,M,38.489,M,1.4,0141*74
$GPGGA,052737.45,3439.60138432,N,13744.63028431,E,4,08,1.2,10.171,M,38.489,M,1.5,0141*79
$GPGGA,052737.50,3439.60138481,N,13744.63027842,E,4,08,1.2,10.159,M,38.489,M,1.5,0141*78
$GPGGA,052737.55,3439.60138284,N,13744.63026799,E,4,08,1.2,10.165,M,38.489,M,1.5,0141*79
$GPGGA,052737.60,3439.60138243,N,13744.63025769,E,4,08,1.2,10.170,M,38.489,M,1.6,0141*7F
$GPGGA,052737.65,3439.60138270,N,13744.63025282,E,4,08,1.2,10.162,M,38.489,M,1.6,0141*79
$GPGGA,052737.70,3439.60138264,N,13744.63024665,E,4,08,1.2,10.166,M,38.489,M,0.7,0141*70
$GPGGA,052737.75,3439.60138157,N,13744.63023590,E,4,08,1.2,10.167,M,38.489,M,0.8,0141*76
$GPGGA,052737.80,3439.60138051,N,13744.63022658,E,4,08,1.2,10.168,M,38.489,M,0.8,0141*72
$GPGGA,052737.85,3439.60137913,N,13744.63021401,E,4,08,1.2,10.160,M,38.489,M,0.9,0141*73
$GPGGA,052737.90,3439.60137874,N,13744.63020013,E,4,08,1.2,10.159,M,38.489,M,0.9,0141*7B
$GPGGA,052737.95,3439.60137877,N,13744.63018501,E,4,08,1.2,10.158,M,38.489,M,0.9,0141*71
$GPGGA,052738.00,3439.60138030,N,13744.63016547,E,4,08,1.2,10.159,M,38.489,M,1.0,0141*73
$GPGGA,052738.05,3439.60137720,N,13744.63014775,E,4,08,1.2,10.159,M,38.489,M,1.0,0141*7E
$GPGGA,052738.10,3439.60137645,N,13744.63012942,E,4,08,1.2,10.163,M,38.489,M,1.1,0141*7C
$GPGGA,052738.15,3439.60137666,N,13744.63010982,E,4,08,1.2,10.166,M,38.489,M,1.1,0141*73
$GPGGA,052738.20,3439.60137337,N,13744.63009373,E,4,08,1.2,10.161,M,38.489,M,1.2,0141*7C
$GPGGA,052738.25,3439.60137130,N,13744.63007771,E,4,08,1.2,10.163,M,38.489,M,1.3,0141*77
$GPGGA,052738.30,3439.60137297,N,13744.63006054,E,4,08,1.2,10.170,M,38.489,M,1.3,0141*7E
$GPGGA,052738.35,3439.60137263,N,13744.63004324,E,4,08,1.2,10.177,M,38.489,M,1.4,0141*76
$GPGGA,052738.40,3439.60137259,N,13744.63002519,E,4,08,1.2,10.179,M,38.489,M,1.4,0141*7D
$GPGGA,052738.45,3439.60137147,N,13744.63000414,E,4,08,1.2,10.177,M,38.489,M,1.5,0141*75
$GPGGA,052738.50,3439.60137193,N,13744.62997973,E,4,08,1.2,10.178,M,38.489,M,1.5,0141*7D
$GPGGA,052738.55,3439.60137712,N,13744.62995130,E,4,08,1.2,10.186,M,38.489,M,1.5,0141*7B
$GPGGA,052738.60,3439.60138125,N,13744.62992717,E,4,08,1.2,10.184,M,38.489,M,1.6,0141*75
$GPGGA,052738.65,3439.60138571,N,13744.62990604,E,4,08,1.2,10.187,M,38.489,M,1.6,0141*77
$GPGGA,052738.70,3439.60139066,N,13744.62989078,E,4,08,1.2,10.193,M,38.489,M,1.7,0141*70
$GPGGA,052738.75,3439.60139377,N,13744.62988279,E,4,08,1.2,10.189,M,38.489,M,1.8,0141*70
$GPGGA,052738.80,3439.60139805,N,13744.62987450,E,4,08,1.2,10.191,M,38.489,M,1.8,0141*7F
$GPGGA,052738.85,3439.60140030,N,13744.62986736,E,4,08,1.2,10.192,M,38.489,M,1.9,0141*7A
$GPGGA,052738.90,3439.60140119,N,13744.62986036,E,4,08,1.2,10.197,M,38.489,M,1.9,0141*76
$GPGGA,052738.95,3439.60140262,N,13744.62985419,E,4,08,1.2,10.196,M,38.489,M,2.0,0141*7D
$GPGGA,052739.00,3439.60140305,N,13744.62984821,E,4,08,1.2,10.197,M,38.489,M,2.0,0141*77
$GPGGA,052739.05,3439.60140511,N,13744.62984515,E,4,08,1.2,10.202,M,38.489,M,2.0,0141*74
$GPGGA,052739.10,3439.60140954,N,13744.62984326,E,4,08,1.2,10.212,M,38.489,M,2.1,0141*7B
$GPGGA,052739.15,3439.60141316,N,13744.62983898,E,4,08,1.2,10.219,M,38.489,M,2.2,0141*72
$GPGGA,052739.20,3439.60141707,N,13744.62983448,E,4,08,1.2,10.223,M,38.489,M,2.2,0141*78
$GPGGA,052739.25,3439.60142104,N,13744.62983206,E,4,08,1.2,10.235,M,38.489,M,2.3,0141*71
$GPGGA,052739.30,3439.60142247,N,13744.62982565,E,4,08,1.2,10.226,M,38.489,M,2.3,0141*70
$GPGGA,052739.35,3439.60142512,N,13744.62982484,E,4,08,1.2,10.222,M,38.489,M,2.3,0141*78
$GPGGA,052739.40,3439.60142687,N,13744.62982014,E,4,08,1.2,10.209,M,38.489,M,2.4,0141*76
$GPGGA,052739.45,3439.60142927,N,13744.62981316,E,4,08,1.2,10.192,M,38.489,M,1.5,0141*77
$GPGGA,052739.50,3439.60143204,N,13744.62980830,E,4,08,1.2,10.186,M,38.489,M,1.5,0141*73
$GPGGA,052739.55,3439.60143607,N,13744.62979837,E,4,08,1.2,10.184,M,38.489,M,1.5,0141*72
$GPGGA,052739.60,3439.60144174,N,13744.62978574,E,4,08,1.2,10.180,M,38.489,M,1.6,0141*7C
$GPGGA,052739.65,3439.60144747,N,13744.62976965,E,4,08,1.2,10.172,M,38.489,M,1.6,0141*70
$GPGGA,052739.70,3439.60145046,N,13744.62974792,E,4,08,1.2,10.168,M,38.489,M,1.7,0141*7D
$GPGGA,052739.75,3439.60145407,N,13744.62972645,E,4,08,1.2,10.161,M,38.489,M,1.8,0141*72
$GPGGA,052739.80,3439.60145701,N,13744.62970391,E,4,08,1.2,10.151,M,38.489,M,1.8,0141*70
$GPGGA,052739.85,3439.60146398,N,13744.62968048,E,4,08,1.2,10.148,M,38.489,M,1.9,0141*75
$GPGGA,052739.90,3439.60146955,N,13744.62966232,E,4,08,1.2,10.154,M,38.489,M,1.9,0141*76
$GPGGA,052739.95,3439.60146927,N,13744.62964376,E,4,08,1.2,10.162,M,38.489,M,2.0,0141*7A
$GPGGA,052740.00,3439.60147300,N,13744.62963015,E,4,08,1.2,10.171,M,38.489,M,2.0,0141*75
$GPGGA,052740.05,3439.60147603,N,13744.62961745,E,4,08,1.2,10.161,M,38.489,M,2.0,0141*77
$GPGGA,052740.10,3439.60147989,N,13744.62960438,E,4,08,1.2,10.162,M,38.489,M,2.1,0141*74
$GPGGA,052740.15,3439.60148177,N,13744.62959424,E,4,08,1.2,10.163,M,38.489,M,1.1,0141*72
$GPGGA,052740.20,3439.60148536,N,13744.62958068,E,4,08,1.2,10.167,M,38.489,M,1.2,0141*7F
$GPGGA,052740.25,3439.60148653,N,13744.62957389,E,4,08,1.2,10.169,M,38.489,M,1.3,0141*76
$GPGGA,052740.30,3439.60148886,N,13744.62956722,E,4,08,1.2,10.176,M,38.489,M,1.3,0141*7E
$GPGGA,052740.35,3439.60149266,N,13744.62955199,E,4,08,1.2,10.184,M,38.489,M,1.4,0141*71
$GPGGA,052740.40,3439.60149726,N,13744.62954088,E,4,08,1.2,10.182,M,38.489,M,1.4,0141*74
$GPGGA,052740.45,3439.60149954,N,13744.62952634,E,4,08,1.2,10.175,M,38.489,M,1.5,0141*74
$GPGGA,052740.50,3439.60150115,N,13744.62951509,E,4,08,1.2,10.169,M,38.489,M,1.5,0141*76
$GPGGA,052740.55,3439.60150458,N,13744.62950129,E,4,08,1.2,10.178,M,38.489,M,1.5,0141*78
$GPGGA,052740.60,3439.60150657,N,13744.62948619,E,4,08,1.2,10.186,M,38.489,M,1.6,0141*7C
$GPGGA,052740.65,3439.60150707,N,13744.62946900,E,4,08,1.2,10.187,M,38.489,M,1.6,0141*75
$GPGGA,052740.70,3439.60150974,N,13744.62945643,E,4,08,1.2,10.177,M,38.489,M,1.7,0141*7E
$GPGGA,052740.75,3439.60151112,N,13744.62943943,E,4,08,1.2,10.182,M,38.489,M,1.8,0141*7E
$GPGGA,052740.80,3439.60151187,N,13744.62942019,E,4,08,1.2,10.182,M,38.489,M,1.8,0141*7F
$GPGGA,052740.85,3439.60150995,N,13744.62940556,E,4,08,1.2,10.174,M,38.489,M,1.9,0141*74
$GPGGA,052740.90,3439.60150982,N,13744.62939017,E,4,08,1.2,10.173,M,38.489,M,1.9,0141*7F
$GPGGA,052740.95,3439.60151189,N,13744.62937027,E,4,08,1.2,10.168,M,38.489,M,2.0,0141*75
$GPGGA,052741.00,3439.60150873,N,13744.62934959,E,4,08,1.2,10.172,M,38.489,M,2.0,0141*7D
$GPGGA,052741.05,3439.60150886,N,13744.62933686,E,4,08,1.2,10.175,M,38.489,M,2.0,0141*7F
$GPGGA,052741.10,3439.60150946,N,13744.62932123,E,4,08,1.2,10.167,M,38.489,M,1.1,0141*7E
$GPGGA,052741.15,3439.60151276,N,13744.62931123,E,4,08,1.2,10.165,M,38.489,M,1.1,0141*73
$GPGGA,052741.20,3439.60151353,N,13744.62930014,E,4,08,1.2,10.168,M,38.489,M,1.2,0141*79
$GPGGA,052741.25,3439.60151955,N,13744.62928518,E,4,08,1.2,10.168,M,38.489,M,1.3,0141*71
$GPGGA,052741.30,3439.60152319,N,13744.62926928,E,4,08,1.2,10.179,M,38.489,M,1.3,0141*75
$GPGGA,052741.35,3439.60152738,N,13744.62925072,E,4,08,1.2,10.176,M,38.489,M,1.4,0141*7A
$GPGGA,052741.40,3439.60153370,N,13744.62923087,E,4,08,1.2,10.173,M,38.489,M,1.4,0141*78
$GPGGA,052741.45,3439.60154161,N,13744.62920986,E,4,08,1.2,10.170,M,38.489,M,1.5,0141*71
$GPGGA,052741.50,3439.60154957,N,13744.62918846,E,4,08,1.2,10.162,M,38.489,M,1.5,0141*7D
$GPGGA,052741.55,3439.60155888,N,13744.62916919,E,4,08,1.2,10.162,M,38.489,M,1.5,0141*7F
$GPGGA,052741.60,3439.60156963,N,13744.62914972,E,4,08,1.2,10.161,M,38.489,M,1.6,0141*71
$GPGGA,052741.65,3439.60158069,N,13744.62912978,E,4,08,1.2,10.149,M,38.489,M,1.6,0141*7F
$GPGGA,052741.70,3439.60159231,N,13744.62911056,E,4,08,1.2,10.140,M,38.489,M,1.7,0141*7B
$GPGGA,052741.75,3439.60160096,N,13744.62909594,E,4,08,1.2,10.157,M,38.489,M,1.8,0141*70
$GPGGA,052741.80,3439.60161113,N,13744.62908182,E,4,08,1.2,10.171,M,38.489,M,0.8,0141*70
$GPGGA,052741.85,3439.60161798,N,13744.62906766,E,4,08,1.2,10.170,M,38.489,M,0.9,0141*72
$GPGGA,052741.90,3439.60162365,N,13744.62905512,E,4,08,1.2,10.169,M,38.489,M,0.9,0141*79
$GPGGA,052741.95,3439.60162649,N,13744.62904420,E,4,08,1.2,10.170,M,38.489,M,0.9,0141*7E
$GPGGA,052742.00,3439.60163287,N,13744.62902772,E,4,08,1.2,10.170,M,38.489,M,1.0,0141*7C
$GPGGA,052742.05,3439.60163786,N,13744.62901099,E,4,08,1.2,10.176,M,38.489,M,1.0,0141*7A
$GPGGA,052742.10,3439.60164354,N,13744.62899518,E,4,08,1.2,10.177,M,38.489,M,1.1,0141*7E
$GPGGA,052742.15,3439.60164946,N,13744.62897889,E,4,08,1.2,10.178,M,38.489,M,1.1,0141*76
$GPGGA,052742.20,3439.60165337,N,13744.62896023,E,4,08,1.2,10.179,M,38.489,M,1.2,0141*76
$GPGGA,052742.25,3439.60165416,N,13744.62894197,E,4,08,1.2,10.182,M,38.489,M,1.3,0141*7E
$GPGGA,052742.30,3439.60165496,N,13744.62892085,E,4,08,1.2,10.180,M,38.489,M,1.3,0141*74
$GPGGA,052742.35,3439.60165498,N,13744.62890116,E,4,08,1.2,10.174,M,38.489,M,1.4,0141*7A
$GPGGA,052742.40,3439.60165526,N,13744.62888314,E,4,08,1.2,10.168,M,38.489,M,1.4,0141*78
$GPGGA,052742.45,3439.60165322,N,13744.62886706,E,4,08,1.2,10.169,M,38.489,M,1.5,0141*76
$GPGGA,052742.50,3439.60165043,N,13744.62885014,E,4,08,1.2,10.166,M,38.489,M,1.5,0141*7E
$GPGGA,052742.55,3439.60164556,N,13744.62882849,E,4,08,1.2,10.175,M,38.489,M,1.5,0141*7E
$GPGGA,052742.60,3439.60164207,N,13744.62880741,E,4,08,1.2,10.168,M,38.489,M,1.6,0141*71
