$GPGGA,013235.55,3439.59561624,N,13744.64508449,E,4,07,1.1,11.799,M,38.490,M,1.5,0012*70
$GPGGA,013235.60,3439.59563400,N,13744.64507766,E,4,07,1.1,11.803,M,38.490,M,1.6,0012*7E
$GPGGA,013235.65,3439.59563345,N,13744.64507123,E,4,07,1.1,11.800,M,38.490,M,1.6,0012*79
$GPGGA,013235.70,3439.59563943,N,13744.64506191,E,4,07,1.1,11.802,M,38.490,M,1.7,0012*7A
$GPGGA,013235.75,3439.59564392,N,13744.64505398,E,4,07,1.1,11.804,M,38.490,M,1.8,0012*7F
$GPGGA,013235.80,3439.59564635,N,13744.64504690,E,4,07,1.1,11.804,M,38.490,M,1.8,0012*71
$GPGGA,013235.85,3439.59565125,N,13744.64503922,E,4,07,1.1,11.805,M,38.490,M,1.9,0012*72
$GPGGA,013235.90,3439.59566125,N,13744.64502754,E,4,07,1.1,11.804,M,38.490,M,1.9,0012*7A
$GPGGA,013235.95,3439.59566914,N,13744.64501583,E,4,07,1.1,11.798,M,38.490,M,2.0,0012*7E
$GPGGA,013236.00,3439.59567239,N,13744.64500838,E,4,07,1.1,11.790,M,38.490,M,2.0,0012*70
$GPGGA,013236.05,3439.59568007,N,13744.64499807,E,4,07,1.1,11.791,M,38.490,M,2.0,0012*79
$GPGGA,013236.10,3439.59568152,N,13744.64498512,E,4,07,1.1,11.783,M,38.490,M,2.1,0012*76
$GPGGA,013236.15,3439.59568305,N,13744.64497572,E,4,07,1.1,11.782,M,38.490,M,2.2,0012*78
$GPGGA,013236.20,3439.59568748,N,13744.64496515,E,4,07,1.1,11.789,M,38.490,M,2.2,0012*78
$GPGGA,013236.25,3439.59569743,N,13744.64495514,E,4,07,1.1,11.786,M,38.490,M,1.3,0012*78
$GPGGA,013236.30,3439.59569841,N,13744.64494607,E,4,07,1.1,11.791,M,38.490,M,1.3,0012*77
$GPGGA,013236.35,3439.59569761,N,13744.64494149,E,4,07,1.1,11.787,M,38.490,M,1.4,0012*72
$GPGGA,013236.40,3439.59569969,N,13744.64493372,E,4,07,1.1,11.784,M,38.490,M,1.4,0012*78
$GPGGA,013236.45,3439.59570244,N,13744.64492721,E,4,07,1.1,11.785,M,38.490,M,1.5,0012*72
$GPGGA,013236.50,3439.59570603,N,13744.64492286,E,4,07,1.1,11.786,M,38.490,M,1.5,0012*7A
$GPGGA,013236.55,3439.59570816,N,13744.64491777,E,4,07,1.1,11.792,M,38.490,M,1.5,0012*78
$GPGGA,013236.60,3439.59570945,N,13744.64491342,E,4,07,1.1,11.790,M,38.490,M,1.6,0012*7A
$GPGGA,013236.65,3439.59571091,N,13744.64490729,E,4,07,1.1,11.786,M,38.490,M,1.6,0012*71
$GPGGA,013236.70,3439.59571578,N,13744.64490106,E,4,07,1.1,11.785,M,38.490,M,1.7,0012*7E
$GPGGA,013236.75,3439.59571809,N,13744.64489099,E,4,07,1.1,11.796,M,38.490,M,1.8,0012*72
$GPGGA,013236.80,3439.59572511,N,13744.64487942,E,4,07,1.1,11.797,M,38.490,M,1.8,0012*7F
$GPGGA,013236.85,3439.59574139,N,13744.64487101,E,4,07,1.1,11.768,M,38.490,M,1.9,0012*7C
$GPGGA,013236.90,3439.59575104,N,13744.64485989,E,4,07,1.1,11.767,M,38.490,M,1.9,0012*72
$GPGGA,013236.95,3439.59576303,N,13744.64484963,E,4,07,1.1,11.764,M,38.490,M,2.0,0012*7D
$GPGGA,013237.00,3439.59577419,N,13744.64484017,E,4,07,1.1,11.751,M,38.490,M,1.0,0012*72
$GPGGA,013237.05,3439.59579052,N,13744.64482977,E,4,07,1.1,11.732,M,38.490,M,1.0,0012*7E
$GPGGA,013237.10,3439.59580495,N,13744.64482057,E,4,07,1.1,11.718,M,38.490,M,1.1,0012*71
$GPGGA,013237.15,3439.59582338,N,13744.64481092,E,4,07,1.1,11.709,M,38.490,M,1.1,0012*7C
$GPGGA,013237.20,3439.59583909,N,13744.64479360,E,4,07,1.1,11.714,M,38.490,M,1.2,0012*75
$GPGGA,013237.25,3439.59585596,N,13744.64478552,E,4,07,1.1,11.710,M,38.490,M,1.3,0012*7F
$GPGGA,013237.30,3439.59586171,N,13744.64477162,E,4,07,1.1,11.722,M,38.490,M,1.3,0012*7C
$GPGGA,013237.35,3439.59587313,N,13744.64475708,E,4,07,1.1,11.729,M,38.490,M,1.4,0012*7A
$GPGGA,013237.40,3439.59588183,N,13744.64474332,E,4,07,1.1,11.723,M,38.490,M,1.4,0012*7A
$GPGGA,013237.45,3439.59588984,N,13744.64472868,E,4,07,1.1,11.727,M,38.490,M,1.5,0012*77
$GPGGA,013237.50,3439.59589765,N,13744.64471411,E,4,07,1.1,11.723,M,38.490,M,1.5,0012*76
$GPGGA,013237.55,3439.59590552,N,13744.64470285,E,4,07,1.1,11.720,M,38.490,M,1.5,0012*74
$GPGGA,013237.60,3439.59591363,N,13744.64469163,E,4,07,1.1,11.716,M,38.490,M,1.6,0012*72
$GPGGA,013237.65,3439.59592288,N,13744.64467950,E,4,07,1.1,11.702,M,38.490,M,1.6,0012*73
$GPGGA,013237.70,3439.59592755,N,13744.64466260,E,4,07,1.1,11.714,M,38.490,M,1.7,0012*7D
$GPGGA,013237.75,3439.59593230,N,13744.64464895,E,4,07,1.1,11.700,M,38.490,M,1.8,0012*77
$GPGGA,013237.80,3439.59594554,N,13744.64462717,E,4,07,1.1,11.714,M,38.490,M,1.8,0012*79
$GPGGA,013237.85,3439.59594217,N,13744.64461516,E,4,07,1.1,11.677,M,38.490,M,1.9,0012*79
$GPGGA,013237.90,3439.59595336,N,13744.64459820,E,4,07,1.1,11.698,M,38.490,M,1.9,0012*7C
$GPGGA,013237.95,3439.59596052,N,13744.64458121,E,4,07,1.1,11.692,M,38.490,M,2.0,0012*72
$GPGGA,013238.00,3439.59596772,N,13744.64456585,E,4,07,1.1,11.699,M,38.490,M,2.0,0012*7B
$GPGGA,013238.05,3439.59598085,N,13744.64455469,E,4,07,1.1,11.697,M,38.490,M,2.0,0012*71
$GPGGA,013238.10,3439.59598880,N,13744.64454154,E,4,07,1.1,11.712,M,38.490,M,2.1,0012*7F
$GPGGA,013238.15,3439.59599841,N,13744.64453222,E,4,07,1.1,11.714,M,38.490,M,2.2,0012*76
$GPGGA,013238.20,3439.59600298,N,13744.64452230,E,4,07,1.1,11.715,M,38.490,M,2.2,0012*7E
$GPGGA,013238.25,3439.59600913,N,13744.64451359,E,4,07,1.1,11.704,M,38.490,M,2.3,0012*7F
$GPGGA,013238.30,3439.59601757,N,13744.64450455,E,4,07,1.1,11.703,M,38.490,M,2.3,0012*79
$GPGGA,013238.35,3439.59602509,N,13744.64449573,E,4,07,1.1,11.700,M,38.490,M,2.3,0012*78
$GPGGA,013238.40,3439.59603513,N,13744.64448817,E,4,07,1.1,11.702,M,38.490,M,2.4,0012*7B
$GPGGA,013238.45,3439.59604794,N,13744.64448038,E,4,07,1.1,11.692,M,38.490,M,2.5,0012*78
$GPGGA,013238.50,3439.59606184,N,13744.64447256,E,4,07,1.1,11.693,M,38.490,M,2.5,0012*7D
$GPGGA,013238.55,3439.59607519,N,13744.64447358,E,4,07,1.1,11.668,M,38.490,M,2.5,0012*72
$GPGGA,013238.60,3439.59609614,N,13744.64446998,E,4,07,1.1,11.669,M,38.490,M,2.6,0012*71
$GPGGA,013238.65,3439.59611039,N,13744.64447204,E,4,07,1.1,11.658,M,38.490,M,2.7,0012*78
$GPGGA,013238.70,3439.59612809,N,13744.64447128,E,4,07,1.1,11.673,M,38.490,M,2.7,0012*70
$GPGGA,013238.75,3439.59613648,N,13744.64446757,E,4,07,1.1,11.676,M,38.490,M,2.8,0012*7A
$GPGGA,013238.80,3439.59614810,N,13744.64446220,E,4,07,1.1,11.684,M,38.490,M,2.8,0012*7C
$GPGGA,013238.85,3439.59616027,N,13744.64445530,E,4,07,1.1,11.683,M,38.490,M,2.8,0012*75
$GPGGA,013238.90,3439.59616907,N,13744.64444918,E,4,07,1.1,11.677,M,38.490,M,2.9,0012*77
$GPGGA,013238.95,3439.59618244,N,13744.64444109,E,4,07,1.1,11.672,M,38.490,M,3.0,0012*75
$GPGGA,013239.00,3439.59618528,N,13744.64443373,E,4,07,1.1,11.676,M,38.490,M,2.0,0012*78
$GPGGA,013239.05,3439.59619385,N,13744.64442594,E,4,07,1.1,11.679,M,38.490,M,2.0,0012*7C
$GPGGA,013239.10,3439.59620267,N,13744.64441757,E,4,07,1.1,11.684,M,38.490,M,2.1,0012*72
$GPGGA,013239.15,3439.59621081,N,13744.64441009,E,4,07,1.1,11.676,M,38.490,M,2.2,0012*7E
$GPGGA,013239.20,3439.59622174,N,13744.64440084,E,4,07,1.1,11.671,M,38.490,M,2.2,0012*73
$GPGGA,013239.25,3439.59623218,N,13744.64439091,E,4,07,1.1,11.667,M,38.490,M,2.3,0012*72
$GPGGA,013239.30,3439.59623973,N,13744.64438164,E,4,07,1.1,11.663,M,38.490,M,2.3,0012*7E
$GPGGA,013239.35,3439.59624687,N,13744.64437028,E,4,07,1.1,11.661,M,38.490,M,2.3,0012*7C
$GPGGA,013239.40,3439.59625329,N,13744.64435910,E,4,07,1.1,11.649,M,38.490,M,2.4,0012*73
$GPGGA,013239.45,3439.59626098,N,13744.64434476,E,4,07,1.1,11.651,M,38.490,M,1.5,0012*7B
$GPGGA,013239.50,3439.59626750,N,13744.64433599,E,4,07,1.1,11.644,M,38.490,M,1.5,0012*7F
$GPGGA,013239.55,3439.59628981,N,13744.64432060,E,4,07,1.1,11.661,M,38.490,M,1.5,0012*73
$GPGGA,013239.60,3439.59628899,N,13744.64431211,E,4,07,1.1,11.665,M,38.490,M,1.6,0012*7D
$GPGGA,013239.65,3439.59629245,N,13744.64430369,E,4,07,1.1,11.657,M,38.490,M,1.6,0012*7C
$GPGGA,013239.70,3439.59630318,N,13744.64429351,E,4,07,1.1,11.668,M,38.490,M,1.7,0012*77
$GPGGA,013239.75,3439.59631742,N,13744.64428742,E,4,07,1.1,11.663,M,38.490,M,1.8,0012*7B
$GPGGA,013239.80,3439.59631994,N,13744.64428247,E,4,07,1.1,11.670,M,38.490,M,1.8,0012*76
$GPGGA,013239.85,3439.59632575,N,13744.64427677,E,4,07,1.1,11.676,M,38.490,M,1.9,0012*7C
$GPGGA,013239.90,3439.59633304,N,13744.64427311,E,4,07,1.1,11.676,M,38.490,M,1.9,0012*7C
$GPGGA,013239.95,3439.59634283,N,13744.64426852,E,4,07,1.1,11.675,M,38.490,M,2.0,0012*74
$GPGGA,013240.00,3439.59635324,N,13744.64426481,E,4,07,1.1,11.677,M,38.490,M,2.0,0012*7B
$GPGGA,013240.05,3439.59636491,N,13744.64426029,E,4,07,1.1,11.676,M,38.490,M,2.0,0012*73
$GPGGA,013240.10,3439.59637513,N,13744.64425671,E,4,07,1.1,11.670,M,38.490,M,2.1,0012*72
$GPGGA,013240.15,3439.59638445,N,13744.64425417,E,4,07,1.1,11.666,M,38.490,M,2.2,0012*7C
$GPGGA,013240.20,3439.59639674,N,13744.64425460,E,4,07,1.1,11.654,M,38.490,M,2.2,0012*7A
$GPGGA,013240.25,3439.59641200,N,13744.64425518,E,4,07,1.1,11.653,M,38.490,M,2.3,0012*7F
$GPGGA,013240.30,3439.59642790,N,13744.64425441,E,4,07,1.1,11.652,M,38.490,M,2.3,0012*78
$GPGGA,013240.35,3439.59644059,N,13744.64425451,E,4,07,1.1,11.648,M,38.490,M,2.3,0012*73
$GPGGA,013240.40,3439.59645298,N,13744.64425418,E,4,07,1.1,11.644,M,38.490,M,2.4,0012*79
$GPGGA,013240.45,3439.59646954,N,13744.64425206,E,4,07,1.1,11.640,M,38.490,M,2.5,0012*78
$GPGGA,013240.50,3439.59648666,N,13744.64425078,E,4,07,1.1,11.647,M,38.490,M,2.5,0012*70
$GPGGA,013240.55,3439.59649955,N,13744.64425340,E,4,07,1.1,11.648,M,38.490,M,2.5,0012*7C
$GPGGA,013240.60,3439.59651425,N,13744.64425591,E,4,07,1.1,11.652,M,38.490,M,2.6,0012*7B
$GPGGA,013240.65,3439.59652755,N,13744.64425721,E,4,07,1.1,11.654,M,38.490,M,2.7,0012*77
$GPGGA,013240.70,3439.59654066,N,13744.64425672,E,4,07,1.1,11.650,M,38.490,M,2.7,0012*71
$GPGGA,013240.75,3439.59655096,N,13744.64425523,E,4,07,1.1,11.649,M,38.490,M,2.8,0012*7A
$GPGGA,013240.80,3439.59656105,N,13744.64425450,E,4,07,1.1,11.645,M,38.490,M,2.8,0012*71
$GPGGA,013240.85,3439.59657269,N,13744.64425293,E,4,07,1.1,11.641,M,38.490,M,2.8,0012*71
$GPGGA,013240.90,3439.59658383,N,13744.64425098,E,4,07,1.1,11.643,M,38.490,M,2.9,0012*75
$GPGGA,013240.95,3439.59659829,N,13744.64424827,E,4,07,1.1,11.640,M,38.490,M,3.0,0012*7C
$GPGGA,013241.00,3439.59660724,N,13744.64424672,E,4,07,1.1,11.632,M,38.490,M,3.0,0012*72
$GPGGA,013241.05,3439.59661681,N,13744.64424420,E,4,07,1.1,11.636,M,38.490,M,3.0,0012*79
$GPGGA,013241.10,3439.59662784,N,13744.64424095,E,4,07,1.1,11.637,M,38.490,M,3.1,0012*70
$GPGGA,013241.15,3439.59663911,N,13744.64423782,E,4,07,1.1,11.637,M,38.490,M,3.2,0012*73
$GPGGA,013241.20,3439.59664992,N,13744.64423280,E,4,07,1.1,11.624,M,38.490,M,3.2,0012*7C
$GPGGA,013241.25,3439.59666077,N,13744.64422945,E,4,07,1.1,11.603,M,38.490,M,2.3,0012*7F
$GPGGA,013241.30,3439.59667232,N,13744.64422555,E,4,07,1.1,11.596,M,38.490,M,2.3,0012*7B
$GPGGA,013241.35,3439.59668760,N,13744.64422501,E,4,07,1.1,11.581,M,38.490,M,2.3,0012*74
$GPGGA,013241.40,3439.59669411,N,13744.64421978,E,4,07,1.1,11.595,M,38.490,M,2.4,0012*71
$GPGGA,013241.45,3439.59670400,N,13744.64421543,E,4,07,1.1,11.606,M,38.490,M,2.5,0012*70
$GPGGA,013241.50,3439.59671103,N,13744.64421100,E,4,07,1.1,11.614,M,38.490,M,2.5,0012*73
$GPGGA,013241.55,3439.59671969,N,13744.64420522,E,4,07,1.1,11.614,M,38.490,M,2.5,0012*77
$GPGGA,013241.60,3439.59672824,N,13744.64419981,E,4,07,1.1,11.608,M,38.490,M,2.6,0012*7B
$GPGGA,013241.65,3439.59673566,N,13744.64419674,E,4,07,1.1,11.609,M,38.490,M,2.7,0012*71
$GPGGA,013241.70,3439.59674359,N,13744.64419322,E,4,07,1.1,11.614,M,38.490,M,2.7,0012*72
$GPGGA,013241.75,3439.59675412,N,13744.64418843,E,4,07,1.1,11.610,M,38.490,M,1.8,0012*7B
$GPGGA,013241.80,3439.59676297,N,13744.64418345,E,4,07,1.1,11.607,M,38.490,M,1.8,0012*72
$GPGGA,013241.85,3439.59677268,N,13744.64417932,E,4,07,1.1,11.610,M,38.490,M,1.9,0012*74
$GPGGA,013241.90,3439.59678264,N,13744.64417700,E,4,07,1.1,11.601,M,38.490,M,1.9,0012*7C
$GPGGA,013241.95,3439.59679208,N,13744.64417727,E,4,07,1.1,11.597,M,38.490,M,2.0,0012*71
$GPGGA,013242.00,3439.59680419,N,13744.64418047,E,4,07,1.1,11.588,M,38.490,M,2.0,0012*7E
$GPGGA,013242.05,3439.59681738,N,13744.64418706,E,4,07,1.1,11.580,M,38.490,M,2.0,0012*70
$GPGGA,013242.10,3439.59682696,N,13744.64419134,E,4,07,1.1,11.584,M,38.490,M,2.1,0012*71
$GPGGA,013242.15,3439.59684184,N,13744.64419153,E,4,07,1.1,11.581,M,38.490,M,2.2,0012*71
$GPGGA,013242.20,3439.59685120,N,13744.64419423,E,4,07,1.1,11.585,M,38.490,M,1.2,0012*7D
$GPGGA,013242.25,3439.59686167,N,13744.64419330,E,4,07,1.1,11.591,M,38.490,M,1.3,0012*79
$GPGGA,013242.30,3439.59687378,N,13744.64419349,E,4,07,1.1,11.596,M,38.490,M,1.3,0012*79
$GPGGA,013242.35,3439.59688878,N,13744.64419365,E,4,07,1.1,11.586,M,38.490,M,1.4,0012*70
$GPGGA,013242.40,3439.59689929,N,13744.64419318,E,4,07,1.1,11.583,M,38.490,M,1.4,0012*79
$GPGGA,013242.45,3439.59690894,N,13744.64419114,E,4,07,1.1,11.584,M,38.490,M,1.5,0012*7B
$GPGGA,013242.50,3439.59691783,N,13744.64419094,E,4,07,1.1,11.576,M,38.490,M,1.5,0012*73
$GPGGA,013242.55,3439.59692672,N,13744.64419091,E,4,07,1.1,11.572,M,38.490,M,1.5,0012*7B
$GPGGA,013242.60,3439.59693727,N,13744.64418882,E,4,07,1.1,11.574,M,38.490,M,1.6,0012*73
$GPGGA,013242.65,3439.59694534,N,13744.64418768,E,4,07,1.1,11.574,M,38.490,M,1.6,0012*7A
$GPGGA,013242.70,3439.59695188,N,13744.64418727,E,4,07,1.1,11.575,M,38.490,M,1.7,0012*77
$GPGGA,013242.75,3439.59696059,N,13744.64418590,E,4,07,1.1,11.563,M,38.490,M,0.8,0012*7B
$GPGGA,013242.80,3439.59697041,N,13744.64418556,E,4,07,1.1,11.562,M,38.490,M,0.8,0012*72
$GPGGA,013242.85,3439.59698051,N,13744.64418459,E,4,07,1.1,11.564,M,38.490,M,0.9,0012*70
$GPGGA,013242.90,3439.59699375,N,13744.64418148,E,4,07,1.1,11.560,M,38.490,M,0.9,0012*71
$GPGGA,013242.95,3439.59700576,N,13744.64417547,E,4,07,1.1,11.562,M,38.490,M,0.9,0012*76
$GPGGA,013243.00,3439.59701880,N,13744.64416918,E,4,07,1.1,11.554,M,38.490,M,1.0,0012*74
$GPGGA,013243.05,3439.59702706,N,13744.64416315,E,4,07,1.1,11.540,M,38.490,M,1.0,0012*71
$GPGGA,013243.10,3439.59703554,N,13744.64415674,E,4,07,1.1,11.539,M,38.490,M,1.1,0012*7F
$GPGGA,013243.15,3439.59704489,N,13744.64415910,E,4,07,1.1,11.545,M,38.490,M,1.1,0012*7A
$GPGGA,013243.20,3439.59705720,N,13744.64415132,E,4,07,1.1,11.542,M,38.490,M,1.2,0012*71
$GPGGA,013243.25,3439.59706708,N,13744.64414896,E,4,07,1.1,11.546,M,38.490,M,1.3,0012*7E
$GPGGA,013243.30,3439.59708007,N,13744.64414516,E,4,07,1.1,11.547,M,38.490,M,1.3,0012*78
$GPGGA,013243.35,3439.59709068,N,13744.64414123,E,4,07,1.1,11.549,M,38.490,M,1.4,0012*7E
$GPGGA,013243.40,3439.59710228,N,13744.64413691,E,4,07,1.1,11.555,M,38.490,M,1.4,0012*76
$GPGGA,013243.45,3439.59711326,N,13744.64413424,E,4,07,1.1,11.556,M,38.490,M,1.5,0012*73
$GPGGA,013243.50,3439.59711959,N,13744.64413502,E,4,07,1.1,11.552,M,38.490,M,1.5,0012*74
$GPGGA,013243.55,3439.59712557,N,13744.64413615,E,4,07,1.1,11.552,M,38.490,M,1.5,0012*75
$GPGGA,013243.60,3439.59712963,N,13744.64413636,E,4,07,1.1,11.552,M,38.490,M,0.6,0012*7B
$GPGGA,013243.65,3439.59713966,N,13744.64413438,E,4,07,1.1,11.557,M,38.490,M,0.6,0012*73
$GPGGA,013243.70,3439.59714628,N,13744.64413373,E,4,07,1.1,11.548,M,38.490,M,0.7,0012*72
$GPGGA,013243.75,3439.59715282,N,13744.64413189,E,4,07,1.1,11.547,M,38.490,M,0.8,0012*75
$GPGGA,013243.80,3439.59716104,N,13744.64413086,E,4,07,1.1,11.547,M,38.490,M,0.8,0012*7F
$GPGGA,013243.85,3439.59716893,N,13744.64412923,E,4,07,1.1,11.543,M,38.490,M,0.9,0012*7F
$GPGGA,013243.90,3439.59717859,N,13744.64412833,E,4,07,1.1,11.544,M,38.490,M,0.9,0012*7B
$GPGGA,013243.95,3439.59718714,N,13744.64412853,E,4,07,1.1,11.545,M,38.490,M,0.9,0012*70
$GPGGA,013244.00,3439.59719812,N,13744.64413103,E,4,07,1.1,11.537,M,38.490,M,1.0,0012*73
$GPGGA,013244.05,3439.59720885,N,13744.64413360,E,4,07,1.1,11.526,M,38.490,M,1.0,0012*75
$GPGGA,013244.10,3439.59721603,N,13744.64413343,E,4,07,1.1,11.530,M,38.490,M,1.1,0012*77
$GPGGA,013244.15,3439.59722884,N,13744.64413499,E,4,07,1.1,11.538,M,38.490,M,1.1,0012*78
$GPGGA,013244.20,3439.59724061,N,13744.64413678,E,4,07,1.1,11.533,M,38.490,M,1.2,0012*7E
$GPGGA,013244.25,3439.59725123,N,13744.64414011,E,4,07,1.1,11.528,M,38.490,M,1.3,0012*78
$GPGGA,013244.30,3439.59726322,N,13744.64413862,E,4,07,1.1,11.530,M,38.490,M,1.3,0012*7E
$GPGGA,013244.35,3439.59727488,N,13744.64413727,E,4,07,1.1,11.538,M,38.490,M,1.4,0012*7C
$GPGGA,013244.40,3439.59728365,N,13744.64413531,E,4,07,1.1,11.536,M,38.490,M,1.4,0012*7E
$GPGGA,013244.45,3439.59729261,N,13744.64413411,E,4,07,1.1,11.532,M,38.490,M,1.5,0012*79
$GPGGA,013244.50,3439.59730164,N,13744.64413164,E,4,07,1.1,11.530,M,38.490,M,1.5,0012*76
$GPGGA,013244.55,3439.59730830,N,13744.64413237,E,4,07,1.1,11.528,M,38.490,M,1.5,0012*77
$GPGGA,013244.60,3439.59731937,N,13744.64413152,E,4,07,1.1,11.530,M,38.490,M,1.6,0012*7C
$GPGGA,013244.65,3439.59733090,N,13744.64412747,E,4,07,1.1,11.524,M,38.490,M,1.6,0012*79
$GPGGA,013244.70,3439.59734071,N,13744.64412399,E,4,07,1.1,11.517,M,38.490,M,1.7,0012*73
$GPGGA,013244.75,3439.59734884,N,13744.64412189,E,4,07,1.1,11.512,M,38.490,M,1.8,0012*7D
$GPGGA,013244.80,3439.59735730,N,13744.64411752,E,4,07,1.1,11.503,M,38.490,M,1.8,0012*75
$GPGGA,013244.85,3439.59736758,N,13744.64410941,E,4,07,1.1,11.497,M,38.490,M,1.9,0012*7D
$GPGGA,013244.90,3439.59738196,N,13744.64410104,E,4,07,1.1,11.495,M,38.490,M,1.9,0012*78
$GPGGA,013244.95,3439.59739260,N,13744.64409376,E,4,07,1.1,11.489,M,38.490,M,2.0,0012*7E
$GPGGA,013245.00,3439.59740609,N,13744.64408970,E,4,07,1.1,11.492,M,38.490,M,2.0,0012*71
$GPGGA,013245.05,3439.59741678,N,13744.64408319,E,4,07,1.1,11.495,M,38.490,M,1.0,0012*72
$GPGGA,013245.10,3439.59742912,N,13744.64407994,E,4,07,1.1,11.499,M,38.490,M,1.1,0012*7B
$GPGGA,013245.15,3439.59744284,N,13744.64407978,E,4,07,1.1,11.491,M,38.490,M,1.1,0012*76
$GPGGA,013245.20,3439.59745181,N,13744.64407372,E,4,07,1.1,11.496,M,38.490,M,1.2,0012*73
$GPGGA,013245.25,3439.59746939,N,13744.64407284,E,4,07,1.1,11.494,M,38.490,M,1.3,0012*75
$GPGGA,013245.30,3439.59747884,N,13744.64406993,E,4,07,1.1,11.507,M,38.490,M,1.3,0012*70
$GPGGA,013245.35,3439.59748800,N,13744.64407137,E,4,07,1.1,11.493,M,38.490,M,1.4,0012*7A
$GPGGA,013245.40,3439.59749986,N,13744.64407399,E,4,07,1.1,11.514,M,38.490,M,1.4,0012*7E
$GPGGA,013245.45,3439.59751142,N,13744.64407318,E,4,07,1.1,11.497,M,38.490,M,1.5,0012*70
$GPGGA,013245.50,3439.59752851,N,13744.64407036,E,4,07,1.1,11.500,M,38.490,M,1.5,0012*7C
$GPGGA,013245.55,3439.59754389,N,13744.64407437,E,4,07,1.1,11.486,M,38.490,M,1.5,0012*7B
$GPGGA,013245.60,3439.59755328,N,13744.64408304,E,4,07,1.1,11.479,M,38.490,M,1.6,0012*7C
$GPGGA,013245.65,3439.59757946,N,13744.64408768,E,4,07,1.1,11.468,M,38.490,M,1.6,0012*77
$GPGGA,013245.70,3439.59759315,N,13744.64409563,E,4,07,1.1,11.455,M,38.490,M,1.7,0012*76
$GPGGA,013245.75,3439.59759897,N,13744.64410771,E,4,07,1.1,11.455,M,38.490,M,1.8,0012*74
$GPGGA,013245.80,3439.59762488,N,13744.64411443,E,4,07,1.1,11.466,M,38.490,M,1.8,0012*77
$GPGGA,013245.85,3439.59764046,N,13744.64412419,E,4,07,1.1,11.476,M,38.490,M,0.9,0012*7F
$GPGGA,013245.90,3439.59765096,N,13744.64412964,E,4,07,1.1,11.489,M,38.490,M,0.9,0012*70
$GPGGA,013245.95,3439.59766527,N,13744.64414235,E,4,07,1.1,11.472,M,38.490,M,0.9,0012*74
$GPGGA,013246.00,3439.59768231,N,13744.64415166,E,4,07,1.1,11.473,M,38.490,M,1.0,0012*78
$GPGGA,013246.05,3439.59769925,N,13744.64416012,E,4,07,1.1,11.479,M,38.490,M,1.0,0012*79
$GPGGA,013246.10,3439.59771246,N,13744.64416668,E,4,07,1.1,11.482,M,38.490,M,1.1,0012*74
$GPGGA,013246.15,3439.59772753,N,13744.64417033,E,4,07,1.1,11.486,M,38.490,M,1.1,0012*7E
$GPGGA,013246.20,3439.59774162,N,13744.64417466,E,4,07,1.1,11.477,M,38.490,M,1.2,0012*73
$GPGGA,013246.25,3439.59775936,N,13744.64417963,E,4,07,1.1,11.472,M,38.490,M,1.3,0012*72
$GPGGA,013246.30,3439.59777773,N,13744.64418568,E,4,07,1.1,11.468,M,38.490,M,1.3,0012*78
$GPGGA,013246.35,3439.59779473,N,13744.64418934,E,4,07,1.1,11.465,M,38.490,M,1.4,0012*7F
$GPGGA,013246.40,3439.59781048,N,13744.64418889,E,4,07,1.1,11.458,M,38.490,M,1.4,0012*7F
$GPGGA,013246.45,3439.59782872,N,13744.64418784,E,4,07,1.1,11.456,M,38.490,M,1.5,0012*75
$GPGGA,013246.50,3439.59784225,N,13744.64418979,E,4,07,1.1,11.453,M,38.490,M,1.5,0012*76
$GPGGA,013246.55,3439.59786060,N,13744.64419255,E,4,07,1.1,11.466,M,38.490,M,1.5,0012*70
$GPGGA,013246.60,3439.59787318,N,13744.64420166,E,4,07,1.1,11.490,M,38.490,M,1.6,0012*78
$GPGGA,013246.65,3439.59788414,N,13744.64420593,E,4,07,1.1,11.471,M,38.490,M,1.6,0012*78
$GPGGA,013246.70,3439.59789923,N,13744.64421230,E,4,07,1.1,11.480,M,38.490,M,1.7,0012*74
$GPGGA,013246.75,3439.59790842,N,13744.64422216,E,4,07,1.1,11.480,M,38.490,M,1.8,0012*77
$GPGGA,013246.80,3439.59792143,N,13744.64422955,E,4,07,1.1,11.485,M,38.490,M,1.8,0012*7E
$GPGGA,013246.85,3439.59793626,N,13744.64423593,E,4,07,1.1,11.490,M,38.490,M,1.9,0012*7C
$GPGGA,013246.90,3439.59794523,N,13744.64424423,E,4,07,1.1,11.475,M,38.490,M,1.9,0012*7F
$GPGGA,013246.95,3439.59796432,N,13744.64425090,E,4,07,1.1,11.485,M,38.490,M,0.9,0012*7A
$GPGGA,013247.00,3439.59797829,N,13744.64426168,E,4,07,1.1,11.475,M,38.490,M,1.0,0012*72
$GPGGA,013247.05,3439.59799640,N,13744.64427150,E,4,07,1.1,11.467,M,38.490,M,1.0,0012*71
$GPGGA,013247.10,3439.59800918,N,13744.64428491,E,4,07,1.1,11.454,M,38.490,M,1.1,0012*7E
$GPGGA,013247.15,3439.59801968,N,13744.64430340,E,4,07,1.1,11.448,M,38.490,M,1.1,0012*72
$GPGGA,013247.20,3439.59804323,N,13744.64431287,E,4,07,1.1,11.478,M,38.490,M,1.2,0012*7F
$GPGGA,013247.25,3439.59805757,N,13744.64432421,E,4,07,1.1,11.479,M,38.490,M,1.3,0012*75
$GPGGA,013247.30,3439.59807389,N,13744.64433885,E,4,07,1.1,11.498,M,38.490,M,1.3,0012*78
$GPGGA,013247.35,3439.59808405,N,13744.64434786,E,4,07,1.1,11.490,M,38.490,M,1.4,0012*75
$GPGGA,013247.40,3439.59810194,N,13744.64435784,E,4,07,1.1,11.503,M,38.490,M,1.4,0012*7B
$GPGGA,013247.45,3439.59811564,N,13744.64436400,E,4,07,1.1,11.500,M,38.490,M,1.5,0012*7A
$GPGGA,013247.50,3439.59812957,N,13744.64436967,E,4,07,1.1,11.498,M,38.490,M,1.5,0012*7D
$GPGGA,013247.55,3439.59814163,N,13744.64437517,E,4,07,1.1,11.494,M,38.490,M,1.5,0012*77
$GPGGA,013247.60,3439.59815570,N,13744.64437954,E,4,07,1.1,11.490,M,38.490,M,1.6,0012*7A
$GPGGA,013247.65,3439.59817219,N,13744.64438247,E,4,07,1.1,11.492,M,38.490,M,1.6,0012*71
$GPGGA,013247.70,3439.59818701,N,13744.64438550,E,4,07,1.1,11.479,M,38.490,M,1.7,0012*73
$GPGGA,013247.75,3439.59820274,N,13744.64438522,E,4,07,1.1,11.474,M,38.490,M,1.8,0012*7D
$GPGGA,013247.80,3439.59821930,N,13744.64438474,E,4,07,1.1,11.471,M,38.490,M,1.8,0012*7A
$GPGGA,013247.85,3439.59823705,N,13744.64438604,E,4,07,1.1,11.474,M,38.490,M,1.9,0012*74
$GPGGA,013247.90,3439.59825157,N,13744.64439139,E,4,07,1.1,11.480,M,38.490,M,1.9,0012*74
$GPGGA,013247.95,3439.59826941,N,13744.64439020,E,4,07,1.1,11.509,M,38.490,M,2.0,0012*7E
$GPGGA,013248.00,3439.59828405,N,13744.64439638,E,4,07,1.1,11.501,M,38.490,M,2.0,0012*79
$GPGGA,013248.05,3439.59829783,N,13744.64439711,E,4,07,1.1,11.470,M,38.490,M,2.0,0012*7D
$GPGGA,013248.10,3439.59831262,N,13744.64440338,E,4,07,1.1,11.485,M,38.490,M,2.1,0012*70
$GPGGA,013248.15,3439.59832502,N,13744.64441035,E,4,07,1.1,11.481,M,38.490,M,2.2,0012*7F
$GPGGA,013248.20,3439.59833696,N,13744.64441568,E,4,07,1.1,11.486,M,38.490,M,2.2,0012*7C
$GPGGA,013248.25,3439.59835115,N,13744.64441588,E,4,07,1.1,11.493,M,38.490,M,1.3,0012*7B
$GPGGA,013248.30,3439.59836586,N,13744.64442204,E,4,07,1.1,11.503,M,38.490,M,1.3,0012*7A
$GPGGA,013248.35,3439.59837981,N,13744.64443128,E,4,07,1.1,11.496,M,38.490,M,1.4,0012*73
$GPGGA,013248.40,3439.59839773,N,13744.64444024,E,4,07,1.1,11.493,M,38.490,M,1.4,0012*73
$GPGGA,013248.45,3439.59841340,N,13744.64444824,E,4,07,1.1,11.488,M,38.490,M,1.5,0012*7E
$GPGGA,013248.50,3439.59842822,N,13744.64445966,E,4,07,1.1,11.486,M,38.490,M,1.5,0012*7E
$GPGGA,013248.55,3439.59844176,N,13744.64447282,E,4,07,1.1,11.482,M,38.490,M,1.5,0012*72
$GPGGA,013248.60,3439.59845752,N,13744.64448447,E,4,07,1.1,11.484,M,38.490,M,1.6,0012*70
$GPGGA,013248.65,3439.59847649,N,13744.64449218,E,4,07,1.1,11.472,M,38.490,M,1.6,0012*78
$GPGGA,013248.70,3439.59849157,N,13744.64450357,E,4,07,1.1,11.493,M,38.490,M,1.7,0012*76
$GPGGA,013248.75,3439.59850800,N,13744.64451124,E,4,07,1.1,11.517,M,38.490,M,1.8,0012*75
$GPGGA,013248.80,3439.59851980,N,13744.64451701,E,4,07,1.1,11.506,M,38.490,M,1.8,0012*76
$GPGGA,013248.85,3439.59853295,N,13744.64452324,E,4,07,1.1,11.496,M,38.490,M,1.9,0012*77
$GPGGA,013248.90,3439.59854446,N,13744.64452696,E,4,07,1.1,11.513,M,38.490,M,1.9,0012*7C
$GPGGA,013248.95,3439.59855616,N,13744.64452853,E,4,07,1.1,11.516,M,38.490,M,2.0,0012*77
$GPGGA,013249.00,3439.59856993,N,13744.64452814,E,4,07,1.1,11.521,M,38.490,M,2.0,0012*7C
$GPGGA,013249.05,3439.59858237,N,13744.64452829,E,4,07,1.1,11.517,M,38.490,M,2.0,0012*79
$GPGGA,013249.10,3439.59859839,N,13744.64453034,E,4,07,1.1,11.514,M,38.490,M,2.1,0012*7F
$GPGGA,013249.15,3439.59860902,N,13744.64453103,E,4,07,1.1,11.509,M,38.490,M,1.1,0012*73
$GPGGA,013249.20,3439.59862788,N,13744.64452588,E,4,07,1.1,11.514,M,38.490,M,1.2,0012*72
$GPGGA,013249.25,3439.59863838,N,13744.64452295,E,4,07,1.1,11.501,M,38.490,M,1.3,0012*7C
$GPGGA,013249.30,3439.59865437,N,13744.64451585,E,4,07,1.1,11.493,M,38.490,M,1.3,0012*72
$GPGGA,013249.35,3439.59867077,N,13744.64451302,E,4,07,1.1,11.493,M,38.490,M,1.4,0012*7B
$GPGGA,013249.40,3439.59869019,N,13744.64451270,E,4,07,1.1,11.493,M,38.490,M,1.4,0012*7B
$GPGGA,013249.45,3439.59870580,N,13744.64451135,E,4,07,1.1,11.511,M,38.490,M,1.5,0012*7B
$GPGGA,013249.50,3439.59872055,N,13744.64451003,E,4,07,1.1,11.517,M,38.490,M,1.5,0012*72
$GPGGA,013249.55,3439.59873010,N,13744.64451318,E,4,07,1.1,11.506,M,38.490,M,1.5,0012*7E
$GPGGA,013249.60,3439.59874551,N,13744.64451320,E,4,07,1.1,11.511,M,38.490,M,1.6,0012*71
$GPGGA,013249.65,3439.59875909,N,13744.64451392,E,4,07,1.1,11.515,M,38.490,M,0.6,0012*78
$GPGGA,013249.70,3439.59877186,N,13744.64451696,E,4,07,1.1,11.517,M,38.490,M,0.7,0012*73
$GPGGA,013249.75,3439.59878664,N,13744.64451976,E,4,07,1.1,11.520,M,38.490,M,0.8,0012*78
$GPGGA,013249.80,3439.59879960,N,13744.64452315,E,4,07,1.1,11.520,M,38.490,M,0.8,0012*74
$GPGGA,013249.85,3439.59881173,N,13744.64452866,E,4,07,1.1,11.515,M,38.490,M,0.9,0012*74
$GPGGA,013249.90,3439.59882663,N,13744.64453224,E,4,07,1.1,11.511,M,38.490,M,0.9,0012*7C
$GPGGA,013249.95,3439.59884172,N,13744.64453694,E,4,07,1.1,11.507,M,38.490,M,0.9,0012*70
$GPGGA,013250.00,3439.59885508,N,13744.64454680,E,4,07,1.1,11.499,M,38.490,M,1.0,0012*70
$GPGGA,013250.05,3439.59887065,N,13744.64455405,E,4,07,1.1,11.501,M,38.490,M,1.0,0012*77
$GPGGA,013250.10,3439.59888826,N,13744.64456077,E,4,07,1.1,11.501,M,38.490,M,1.1,0012*70
$GPGGA,013250.15,3439.59890310,N,13744.64456735,E,4,07,1.1,11.511,M,38.490,M,1.1,0012*72
$GPGGA,013250.20,3439.59892033,N,13744.64457564,E,4,07,1.1,11.526,M,38.490,M,1.2,0012*74
$GPGGA,013250.25,3439.59893184,N,13744.64458118,E,4,07,1.1,11.532,M,38.490,M,1.3,0012*79
$GPGGA,013250.30,3439.59894032,N,13744.64458449,E,4,07,1.1,11.527,M,38.490,M,1.3,0012*73
$GPGGA,013250.35,3439.59895989,N,13744.64458784,E,4,07,1.1,11.527,M,38.490,M,1.4,0012*7B
$GPGGA,013250.40,3439.59896695,N,13744.64459544,E,4,07,1.1,11.533,M,38.490,M,1.4,0012*72
$GPGGA,013250.45,3439.59897824,N,13744.64459895,E,4,07,1.1,11.524,M,38.490,M,1.5,0012*74
$GPGGA,013250.50,3439.59898968,N,13744.64460107,E,4,07,1.1,11.525,M,38.490,M,1.5,0012*7F
$GPGGA,013250.55,3439.59900104,N,13744.64460192,E,4,07,1.1,11.527,M,38.490,M,1.5,0012*76
$GPGGA,013250.60,3439.59901559,N,13744.64460208,E,4,07,1.1,11.530,M,38.490,M,1.6,0012*78
$GPGGA,013250.65,3439.59903075,N,13744.64460247,E,4,07,1.1,11.522,M,38.490,M,1.6,0012*7C
$GPGGA,013250.70,3439.59904604,N,13744.64460363,E,4,07,1.1,11.523,M,38.490,M,1.7,0012*78
$GPGGA,013250.75,3439.59906353,N,13744.64460088,E,4,07,1.1,11.524,M,38.490,M,1.8,0012*76
$GPGGA,013250.80,3439.59907780,N,13744.64459571,E,4,07,1.1,11.523,M,38.490,M,1.8,0012*79
$GPGGA,013250.85,3439.59908938,N,13744.64459383,E,4,07,1.1,11.520,M,38.490,M,1.9,0012*77
$GPGGA,013250.90,3439.59910572,N,13744.64459235,E,4,07,1.1,11.520,M,38.490,M,1.9,0012*74
$GPGGA,013250.95,3439.59912437,N,13744.64458865,E,4,07,1.1,11.520,M,38.490,M,2.0,0012*77
$GPGGA,013251.00,3439.59913973,N,13744.64458682,E,4,07,1.1,11.527,M,38.490,M,2.0,0012*76
$GPGGA,013251.05,3439.59914893,N,13744.64458607,E,4,07,1.1,11.532,M,38.490,M,2.0,0012*72
$GPGGA,013251.10,3439.59915682,N,13744.64458438,E,4,07,1.1,11.533,M,38.490,M,2.1,0012*77
$GPGGA,013251.15,3439.59917262,N,13744.64458130,E,4,07,1.1,11.529,M,38.490,M,1.1,0012*7F
$GPGGA,013251.20,3439.59918029,N,13744.64458463,E,4,07,1.1,11.518,M,38.490,M,1.2,0012*79
$GPGGA,013251.25,3439.59919414,N,13744.64458449,E,4,07,1.1,11.524,M,38.490,M,1.3,0012*71
$GPGGA,013251.30,3439.59920725,N,13744.64458461,E,4,07,1.1,11.531,M,38.490,M,1.3,0012*70
$GPGGA,013251.35,3439.59922202,N,13744.64458384,E,4,07,1.1,11.530,M,38.490,M,1.4,0012*7D
$GPGGA,013251.40,3439.59923656,N,13744.64458345,E,4,07,1.1,11.534,M,38.490,M,1.4,0012*72
$GPGGA,013251.45,3439.59925020,N,13744.64458384,E,4,07,1.1,11.528,M,38.490,M,1.5,0012*77
$GPGGA,013251.50,3439.59926361,N,13744.64458919,E,4,07,1.1,11.526,M,38.490,M,1.5,0012*76
$GPGGA,013251.55,3439.59927859,N,13744.64459212,E,4,07,1.1,11.508,M,38.490,M,1.5,0012*7F
$GPGGA,013251.60,3439.59929557,N,13744.64459805,E,4,07,1.1,11.505,M,38.490,M,1.6,0012*76
$GPGGA,013251.65,3439.59931175,N,13744.64460451,E,4,07,1.1,11.503,M,38.490,M,1.6,0012*7F
$GPGGA,013251.70,3439.59932788,N,13744.64460599,E,4,07,1.1,11.515,M,38.490,M,1.7,0012*7F
$GPGGA,013251.75,3439.59934620,N,13744.64461262,E,4,07,1.1,11.526,M,38.490,M,1.8,0012*72
$GPGGA,013251.80,3439.59936320,N,13744.64461424,E,4,07,1.1,11.539,M,38.490,M,1.8,0012*75
$GPGGA,013251.85,3439.59937736,N,13744.64461759,E,4,07,1.1,11.530,M,38.490,M,1.9,0012*73
$GPGGA,013251.90,3439.59938873,N,13744.64462242,E,4,07,1.1,11.523,M,38.490,M,1.9,0012*78
$GPGGA,013251.95,3439.59940317,N,13744.64462572,E,4,07,1.1,11.542,M,38.490,M,2.0,0012*72
$GPGGA,013252.00,3439.59941699,N,13744.64462596,E,4,07,1.1,11.542,M,38.490,M,2.0,0012*75
$GPGGA,013252.05,3439.59943080,N,13744.64462630,E,4,07,1.1,11.539,M,38.490,M,1.0,0012*7C
$GPGGA,013252.10,3439.59944131,N,13744.64462609,E,4,07,1.1,11.536,M,38.490,M,1.1,0012*70
$GPGGA,013252.15,3439.59945376,N,13744.64462471,E,4,07,1.1,11.540,M,38.490,M,1.1,0012*79
$GPGGA,013252.20,3439.59946554,N,13744.64462273,E,4,07,1.1,11.537,M,38.490,M,1.2,0012*7D
$GPGGA,013252.25,3439.59948095,N,13744.64461833,E,4,07,1.1,11.533,M,38.490,M,1.3,0012*76
$GPGGA,013252.30,3439.59949639,N,13744.64461417,E,4,07,1.1,11.525,M,38.490,M,1.3,0012*7E
$GPGGA,013252.35,3439.59951096,N,13744.64460789,E,4,07,1.1,11.522,M,38.490,M,1.4,0012*74
$GPGGA,013252.40,3439.59952106,N,13744.64460390,E,4,07,1.1,11.520,M,38.490,M,1.4,0012*73
$GPGGA,013252.45,3439.59953100,N,13744.64459932,E,4,07,1.1,11.515,M,38.490,M,1.5,0012*7E
$GPGGA,013252.50,3439.59954313,N,13744.64459417,E,4,07,1.1,11.509,M,38.490,M,1.5,0012*7A
$GPGGA,013252.55,3439.59956014,N,13744.64459284,E,4,07,1.1,11.521,M,38.490,M,1.5,0012*7F
$GPGGA,013252.60,3439.59957545,N,13744.64458651,E,4,07,1.1,11.518,M,38.490,M,1.6,0012*7D
$GPGGA,013252.65,3439.59959082,N,13744.64458433,E,4,07,1.1,11.528,M,38.490,M,1.6,0012*7D
$GPGGA,013252.70,3439.59960452,N,13744.64458130,E,4,07,1.1,11.527,M,38.490,M,1.7,0012*72
$GPGGA,013252.75,3439.59961800,N,13744.64457785,E,4,07,1.1,11.519,M,38.490,M,1.8,0012*78
$GPGGA,013252.80,3439.59963186,N,13744.64457312,E,4,07,1.1,11.520,M,38.490,M,1.8,0012*77
$GPGGA,013252.85,3439.59965379,N,13744.64456601,E,4,07,1.1,11.530,M,38.490,M,1.9,0012*70
$GPGGA,013252.90,3439.59966321,N,13744.64456529,E,4,07,1.1,11.524,M,38.490,M,1.9,0012*76
$GPGGA,013252.95,3439.59967612,N,13744.64456137,E,4,07,1.1,11.524,M,38.490,M,2.0,0012*76
$GPGGA,013253.00,3439.59969257,N,13744.64456056,E,4,07,1.1,11.516,M,38.490,M,2.0,0012*77
$GPGGA,013253.05,3439.59970816,N,13744.64455816,E,4,07,1.1,11.517,M,38.490,M,2.0,0012*7B
$GPGGA,013253.10,3439.59972271,N,13744.64455758,E,4,07,1.1,11.512,M,38.490,M,2.1,0012*77
$GPGGA,013253.15,3439.59973915,N,13744.64455521,E,4,07,1.1,11.503,M,38.490,M,2.2,0012*75
$GPGGA,013253.20,3439.59975409,N,13744.64455387,E,4,07,1.1,11.494,M,38.490,M,2.2,0012*70
$GPGGA,013253.25,3439.59976590,N,13744.64455225,E,4,07,1.1,11.502,M,38.490,M,2.3,0012*71
$GPGGA,013253.30,3439.59978427,N,13744.64455190,E,4,07,1.1,11.503,M,38.490,M,2.3,0012*7A
$GPGGA,013253.35,3439.59979909,N,13744.64455145,E,4,07,1.1,11.518,M,38.490,M,2.3,0012*7D
$GPGGA,013253.40,3439.59981436,N,13744.64454834,E,4,07,1.1,11.533,M,38.490,M,2.4,0012*79
$GPGGA,013253.45,3439.59982827,N,13744.64454632,E,4,07,1.1,11.540,M,38.490,M,2.5,0012*7E
$GPGGA,013253.50,3439.59984273,N,13744.64454296,E,4,07,1.1,11.550,M,38.490,M,2.5,0012*7C
$GPGGA,013253.55,3439.59985084,N,13744.64454634,E,4,07,1.1,11.530,M,38.490,M,2.5,0012*78
$GPGGA,013253.60,3439.59986458,N,13744.64453896,E,4,07,1.1,11.527,M,38.490,M,2.6,0012*7C
$GPGGA,013253.65,3439.59987608,N,13744.64453128,E,4,07,1.1,11.526,M,38.490,M,2.7,0012*73
$GPGGA,013253.70,3439.59988869,N,13744.64452849,E,4,07,1.1,11.533,M,38.490,M,2.7,0012*7A
$GPGGA,013253.75,3439.59990054,N,13744.64452016,E,4,07,1.1,11.528,M,38.490,M,1.8,0012*74
$GPGGA,013253.80,3439.59991374,N,13744.64451734,E,4,07,1.1,11.518,M,38.490,M,1.8,0012*79
$GPGGA,013253.85,3439.59992677,N,13744.64451150,E,4,07,1.1,11.519,M,38.490,M,1.9,0012*7D
$GPGGA,013253.90,3439.59993647,N,13744.64450914,E,4,07,1.1,11.503,M,38.490,M,1.9,0012*79
$GPGGA,013253.95,3439.59995794,N,13744.64449740,E,4,07,1.1,11.505,M,38.490,M,2.0,0012*7E
$GPGGA,013254.00,3439.59997165,N,13744.64448875,E,4,07,1.1,11.494,M,38.490,M,2.0,0012*7E
$GPGGA,013254.05,3439.59998593,N,13744.64447812,E,4,07,1.1,11.476,M,38.490,M,2.0,0012*7B
$GPGGA,013254.10,3439.59999408,N,13744.64447348,E,4,07,1.1,11.501,M,38.490,M,2.1,0012*79
$GPGGA,013254.15,3439.60000840,N,13744.64446523,E,4,07,1.1,11.508,M,38.490,M,1.1,0012*7F
$GPGGA,013254.20,3439.60002362,N,13744.64445388,E,4,07,1.1,11.529,M,38.490,M,1.2,0012*74
$GPGGA,013254.25,3439.60003068,N,13744.64444730,E,4,07,1.1,11.515,M,38.490,M,1.3,0012*71
$GPGGA,013254.30,3439.60004145,N,13744.64443779,E,4,07,1.1,11.523,M,38.490,M,1.3,0012*73
$GPGGA,013254.35,3439.60005755,N,13744.64443118,E,4,07,1.1,11.515,M,38.490,M,1.4,0012*73
$GPGGA,013254.40,3439.60006844,N,13744.64442383,E,4,07,1.1,11.517,M,38.490,M,1.4,0012*7E
$GPGGA,013254.45,3439.60008128,N,13744.64441859,E,4,07,1.1,11.512,M,38.490,M,1.5,0012*7D
$GPGGA,013254.50,3439.60009176,N,13744.64441481,E,4,07,1.1,11.518,M,38.490,M,1.5,0012*70
$GPGGA,013254.55,3439.60009952,N,13744.64441082,E,4,07,1.1,11.519,M,38.490,M,1.5,0012*7D
$GPGGA,013254.60,3439.60011203,N,13744.64440737,E,4,07,1.1,11.514,M,38.490,M,1.6,0012*7B
$GPGGA,013254.65,3439.60012579,N,13744.64440316,E,4,07,1.1,11.506,M,38.490,M,1.6,0012*73
$GPGGA,013254.70,3439.60013897,N,13744.64440202,E,4,07,1.1,11.498,M,38.490,M,1.7,0012*78
$GPGGA,013254.75,3439.60015395,N,13744.64439790,E,4,07,1.1,11.495,M,38.490,M,1.8,0012*70
$GPGGA,013254.80,3439.60016026,N,13744.64440291,E,4,07,1.1,11.477,M,38.490,M,1.8,0012*74
$GPGGA,013254.85,3439.60017323,N,13744.64440235,E,4,07,1.1,11.479,M,38.490,M,1.9,0012*77
$GPGGA,013254.90,3439.60019277,N,13744.64439297,E,4,07,1.1,11.503,M,38.490,M,1.9,0012*77
$GPGGA,013254.95,3439.60020250,N,13744.64439635,E,4,07,1.1,11.500,M,38.490,M,2.0,0012*78
$GPGGA,013255.00,3439.60021651,N,13744.64439238,E,4,07,1.1,11.511,M,38.490,M,2.0,0012*78
$GPGGA,013255.05,3439.60022800,N,13744.64439136,E,4,07,1.1,11.497,M,38.490,M,2.0,0012*76
$GPGGA,013255.10,3439.60024166,N,13744.64438891,E,4,07,1.1,11.499,M,38.490,M,2.1,0012*77
$GPGGA,013255.15,3439.60025383,N,13744.64438475,E,4,07,1.1,11.502,M,38.490,M,2.2,0012*7C
$GPGGA,013255.20,3439.60026439,N,13744.64437880,E,4,07,1.1,11.508,M,38.490,M,2.2,0012*7C
$GPGGA,013255.25,3439.60027521,N,13744.64437472,E,4,07,1.1,11.510,M,38.490,M,2.3,0012*79
$GPGGA,013255.30,3439.60028818,N,13744.64436948,E,4,07,1.1,11.504,M,38.490,M,2.3,0012*75
$GPGGA,013255.35,3439.60030050,N,13744.64436282,E,4,07,1.1,11.494,M,38.490,M,2.3,0012*78
$GPGGA,013255.40,3439.60031088,N,13744.64435626,E,4,07,1.1,11.491,M,38.490,M,2.4,0012*75
$GPGGA,013255.45,3439.60032342,N,13744.64434900,E,4,07,1.1,11.488,M,38.490,M,2.5,0012*75
$GPGGA,013255.50,3439.60033593,N,13744.64434024,E,4,07,1.1,11.488,M,38.490,M,2.5,0012*75
$GPGGA,013255.55,3439.60034556,N,13744.64432865,E,4,07,1.1,11.483,M,38.490,M,1.5,0012*7D
$GPGGA,013255.60,3439.60035661,N,13744.64431666,E,4,07,1.1,11.475,M,38.490,M,1.6,0012*79
$GPGGA,013255.65,3439.60037024,N,13744.64430796,E,4,07,1.1,11.472,M,38.490,M,1.6,0012*71
$GPGGA,013255.70,3439.60038414,N,13744.64429766,E,4,07,1.1,11.479,M,38.490,M,1.7,0012*70
$GPGGA,013255.75,3439.60039569,N,13744.64429008,E,4,07,1.1,11.483,M,38.490,M,1.8,0012*7A
$GPGGA,013255.80,3439.60040651,N,13744.64428317,E,4,07,1.1,11.483,M,38.490,M,1.8,0012*7A
$GPGGA,013255.85,3439.60041696,N,13744.64427526,E,4,07,1.1,11.487,M,38.490,M,1.9,0012*7B
$GPGGA,013255.90,3439.60042954,N,13744.64426783,E,4,07,1.1,11.483,M,38.490,M,1.9,0012*75
$GPGGA,013255.95,3439.60044356,N,13744.64425865,E,4,07,1.1,11.483,M,38.490,M,0.9,0012*7B
$GPGGA,013256.00,3439.60045541,N,13744.64425449,E,4,07,1.1,11.491,M,38.490,M,1.0,0012*7C
$GPGGA,013256.05,3439.60046665,N,13744.64425259,E,4,07,1.1,11.500,M,38.490,M,1.0,0012*71
$GPGGA,013256.10,3439.60047876,N,13744.64424818,E,4,07,1.1,11.491,M,38.490,M,1.1,0012*7E
$GPGGA,013256.15,3439.60049022,N,13744.64424559,E,4,07,1.1,11.484,M,38.490,M,1.1,0012*70
$GPGGA,013256.20,3439.60050344,N,13744.64423970,E,4,07,1.1,11.487,M,38.490,M,1.2,0012*7D
$GPGGA,013256.25,3439.60051646,N,13744.64423645,E,4,07,1.1,11.479,M,38.490,M,1.3,0012*77
$GPGGA,013256.30,3439.60052914,N,13744.64423637,E,4,07,1.1,11.466,M,38.490,M,1.3,0012*73
$GPGGA,013256.35,3439.60054396,N,13744.64423376,E,4,07,1.1,11.458,M,38.490,M,1.4,0012*7A
$GPGGA,013256.40,3439.60056220,N,13744.64423087,E,4,07,1.1,11.465,M,38.490,M,1.4,0012*75
$GPGGA,013256.45,3439.60057444,N,13744.64423492,E,4,07,1.1,11.453,M,38.490,M,1.5,0012*71
$GPGGA,013256.50,3439.60059823,N,13744.64422746,E,4,07,1.1,11.472,M,38.490,M,1.5,0012*7E
$GPGGA,013256.55,3439.60061022,N,13744.64422678,E,4,07,1.1,11.473,M,38.490,M,1.5,0012*74
$GPGGA,013256.60,3439.60063135,N,13744.64422516,E,4,07,1.1,11.490,M,38.490,M,1.6,0012*72
$GPGGA,013256.65,3439.60064489,N,13744.64422337,E,4,07,1.1,11.494,M,38.490,M,1.6,0012*73
$GPGGA,013256.70,3439.60066265,N,13744.64421981,E,4,07,1.1,11.485,M,38.490,M,1.7,0012*74
$GPGGA,013256.75,3439.60067502,N,13744.64421503,E,4,07,1.1,11.484,M,38.490,M,1.8,0012*7E
$GPGGA,013256.80,3439.60068820,N,13744.64421033,E,4,07,1.1,11.489,M,38.490,M,1.8,0012*7D
$GPGGA,013256.85,3439.60069812,N,13744.64420526,E,4,07,1.1,11.487,M,38.490,M,1.9,0012*77
$GPGGA,013256.90,3439.60070457,N,13744.64420404,E,4,07,1.1,11.480,M,38.490,M,1.9,0012*70
$GPGGA,013256.95,3439.60071885,N,13744.64419545,E,4,07,1.1,11.486,M,38.490,M,2.0,0012*75
$GPGGA,013257.00,3439.60072862,N,13744.64419137,E,4,07,1.1,11.479,M,38.490,M,2.0,0012*73
$GPGGA,013257.05,3439.60073988,N,13744.64418781,E,4,07,1.1,11.485,M,38.490,M,1.0,0012*78
$GPGGA,013257.10,3439.60075308,N,13744.64417830,E,4,07,1.1,11.487,M,38.490,M,1.1,0012*71
$GPGGA,013257.15,3439.60076391,N,13744.64416889,E,4,07,1.1,11.486,M,38.490,M,1.1,0012*75
$GPGGA,013257.20,3439.60077208,N,13744.64415931,E,4,07,1.1,11.475,M,38.490,M,1.2,0012*7D
$GPGGA,013257.25,3439.60078439,N,13744.64414858,E,4,07,1.1,11.469,M,38.490,M,1.3,0012*70
$GPGGA,013257.30,3439.60079732,N,13744.64413906,E,4,07,1.1,11.483,M,38.490,M,1.3,0012*74
$GPGGA,013257.35,3439.60081260,N,13744.64412909,E,4,07,1.1,11.492,M,38.490,M,1.4,0012*7D
$GPGGA,013257.40,3439.60082511,N,13744.64412273,E,4,07,1.1,11.483,M,38.490,M,1.4,0012*7B
$GPGGA,013257.45,3439.60083366,N,13744.64411951,E,4,07,1.1,11.482,M,38.490,M,1.5,0012*71
$GPGGA,013257.50,3439.60084168,N,13744.64411565,E,4,07,1.1,11.485,M,38.490,M,1.5,0012*72
$GPGGA,013257.55,3439.60085405,N,13744.64410777,E,4,07,1.1,11.488,M,38.490,M,1.5,0012*75
$GPGGA,013257.60,3439.60086833,N,13744.64409626,E,4,07,1.1,11.486,M,38.490,M,1.6,0012*79
$GPGGA,013257.65,3439.60088239,N,13744.64408849,E,4,07,1.1,11.480,M,38.490,M,1.6,0012*72
$GPGGA,013257.70,3439.60089546,N,13744.64408378,E,4,07,1.1,11.480,M,38.490,M,1.7,0012*70
$GPGGA,013257.75,3439.60091084,N,13744.64407935,E,4,07,1.1,11.472,M,38.490,M,1.8,0012*79
$GPGGA,013257.80,3439.60092586,N,13744.64407474,E,4,07,1.1,11.474,M,38.490,M,1.8,0012*79
$GPGGA,013257.85,3439.60094087,N,13744.64406903,E,4,07,1.1,11.467,M,38.490,M,1.9,0012*71
$GPGGA,013257.90,3439.60095601,N,13744.64406529,E,4,07,1.1,11.458,M,38.490,M,1.9,0012*74
$GPGGA,013257.95,3439.60097562,N,13744.64406552,E,4,07,1.1,11.447,M,38.490,M,2.0,0012*7D
$GPGGA,013258.00,3439.60099430,N,13744.64406154,E,4,07,1.1,11.447,M,38.490,M,2.0,0012*74
$GPGGA,013258.05,3439.60101374,N,13744.64405766,E,4,07,1.1,11.451,M,38.490,M,2.0,0012*75
$GPGGA,013258.10,3439.60103232,N,13744.64405292,E,4,07,1.1,11.474,M,38.490,M,2.1,0012*78
$GPGGA,013258.15,3439.60104654,N,13744.64405009,E,4,07,1.1,11.481,M,38.490,M,2.2,0012*77
$GPGGA,013258.20,3439.60106198,N,13744.64404548,E,4,07,1.1,11.479,M,38.490,M,2.2,0012*72
$GPGGA,013258.25,3439.60107609,N,13744.64404214,E,4,07,1.1,11.478,M,38.490,M,2.3,0012*77
$GPGGA,013258.30,3439.60109185,N,13744.64403690,E,4,07,1.1,11.477,M,38.490,M,2.3,0012*7E
$GPGGA,013258.35,3439.60110589,N,13744.64402807,E,4,07,1.1,11.475,M,38.490,M,2.3,0012*78
$GPGGA,013258.40,3439.60112136,N,13744.64402004,E,4,07,1.1,11.474,M,38.490,M,2.4,0012*75
$GPGGA,013258.45,3439.60113491,N,13744.64401230,E,4,07,1.1,11.476,M,38.490,M,2.5,0012*7C
$GPGGA,013258.50,3439.60115040,N,13744.64400500,E,4,07,1.1,11.466,M,38.490,M,2.5,0012*72
$GPGGA,013258.55,3439.60116560,N,13744.64399700,E,4,07,1.1,11.463,M,38.490,M,2.5,0012*73
$GPGGA,013258.60,3439.60118190,N,13744.64398734,E,4,07,1.1,11.454,M,38.490,M,2.6,0012*71
$GPGGA,013258.65,3439.60119723,N,13744.64397457,E,4,07,1.1,11.445,M,38.490,M,2.7,0012*73
$GPGGA,013258.70,3439.60121190,N,13744.64396385,E,4,07,1.1,11.446,M,38.490,M,2.7,0012*78
$GPGGA,013258.75,3439.60122831,N,13744.64395293,E,4,07,1.1,11.452,M,38.490,M,2.8,0012*73
$GPGGA,013258.80,3439.60124315,N,13744.64394593,E,4,07,1.1,11.467,M,38.490,M,2.8,0012*72
$GPGGA,013258.85,3439.60125801,N,13744.64393845,E,4,07,1.1,11.483,M,38.490,M,2.8,0012*73
$GPGGA,013258.90,3439.60126619,N,13744.64393604,E,4,07,1.1,11.462,M,38.490,M,2.9,0012*76
$GPGGA,013258.95,3439.60128552,N,13744.64392998,E,4,07,1.1,11.488,M,38.490,M,3.0,0012*76
$GPGGA,013259.00,3439.60129548,N,13744.64392166,E,4,07,1.1,11.471,M,38.490,M,2.0,0012*7F
$GPGGA,013259.05,3439.60130684,N,13744.64391571,E,4,07,1.1,11.469,M,38.490,M,2.0,0012*79
$GPGGA,013259.10,3439.60132085,N,13744.64390698,E,4,07,1.1,11.473,M,38.490,M,2.1,0012*77
$GPGGA,013259.15,3439.60133501,N,13744.64390000,E,4,07,1.1,11.470,M,38.490,M,2.2,0012*7D
$GPGGA,013259.20,3439.60135252,N,13744.64389479,E,4,07,1.1,11.466,M,38.490,M,2.2,0012*79
$GPGGA,013259.25,3439.60136913,N,13744.64388705,E,4,07,1.1,11.469,M,38.490,M,2.3,0012*76
$GPGGA,013259.30,3439.60138825,N,13744.64388227,E,4,07,1.1,11.461,M,38.490,M,2.3,0012*75
$GPGGA,013259.35,3439.60140351,N,13744.64387799,E,4,07,1.1,11.449,M,38.490,M,1.4,0012*76
$GPGGA,013259.40,3439.60142380,N,13744.64387639,E,4,07,1.1,11.435,M,38.490,M,1.4,0012*7A
$GPGGA,013259.45,3439.60143606,N,13744.64387569,E,4,07,1.1,11.446,M,38.490,M,1.5,0012*76
$GPGGA,013259.50,3439.60146015,N,13744.64386794,E,4,07,1.1,11.441,M,38.490,M,1.5,0012*75
$GPGGA,013259.55,3439.60147697,N,13744.64386151,E,4,07,1.1,11.458,M,38.490,M,1.5,0012*7A
$GPGGA,013259.60,3439.60149302,N,13744.64385623,E,4,07,1.1,11.464,M,38.490,M,1.6,0012*76
$GPGGA,013259.65,3439.60150969,N,13744.64385207,E,4,07,1.1,11.456,M,38.490,M,1.6,0012*7F
$GPGGA,013259.70,3439.60152690,N,13744.64384490,E,4,07,1.1,11.460,M,38.490,M,1.7,0012*7D
$GPGGA,013259.75,3439.60153677,N,13744.64384188,E,4,07,1.1,11.457,M,38.490,M,1.8,0012*77
$GPGGA,013259.80,3439.60155439,N,13744.64383301,E,4,07,1.1,11.463,M,38.490,M,1.8,0012*70
$GPGGA,013259.85,3439.60156722,N,13744.64382484,E,4,07,1.1,11.455,M,38.490,M,1.9,0012*70
$GPGGA,013259.90,3439.60158122,N,13744.64381462,E,4,07,1.1,11.452,M,38.490,M,0.9,0012*71
$GPGGA,013259.95,3439.60159422,N,13744.64380602,E,4,07,1.1,11.451,M,38.490,M,0.9,0012*76
$GPGGA,013300.00,3439.60160930,N,13744.64379674,E,4,07,1.1,11.450,M,38.490,M,1.0,0012*7D
$GPGGA,013300.05,3439.60162633,N,13744.64378597,E,4,07,1.1,11.448,M,38.490,M,1.0,0012*70
$GPGGA,013300.10,3439.60163955,N,13744.64377450,E,4,07,1.1,11.446,M,38.490,M,1.1,0012*70
$GPGGA,013300.15,3439.60165117,N,13744.64376253,E,4,07,1.1,11.436,M,38.490,M,1.1,0012*7E
$GPGGA,013300.20,3439.60166686,N,13744.64375004,E,4,07,1.1,11.436,M,38.489,M,1.2,0012*7C
$GPGGA,013300.25,3439.60168214,N,13744.64373526,E,4,07,1.1,11.436,M,38.489,M,1.3,0012*7A
$GPGGA,013300.30,3439.60169661,N,13744.64373006,E,4,07,1.1,11.449,M,38.489,M,1.3,0012*76
$GPGGA,013300.35,3439.60170957,N,13744.64371901,E,4,07,1.1,11.448,M,38.489,M,1.4,0012*7B
$GPGGA,013300.40,3439.60172211,N,13744.64371271,E,4,07,1.1,11.448,M,38.489,M,1.4,0012*7E
$GPGGA,013300.45,3439.60173495,N,13744.64370656,E,4,07,1.1,11.442,M,38.489,M,1.5,0012*7B
$GPGGA,013300.50,3439.60174951,N,13744.64369931,E,4,07,1.1,11.451,M,38.489,M,1.5,0012*79
$GPGGA,013300.55,3439.60176439,N,13744.64369023,E,4,07,1.1,11.449,M,38.489,M,1.5,0012*7E
$GPGGA,013300.60,3439.60177897,N,13744.64368268,E,4,07,1.1,11.440,M,38.489,M,1.6,0012*77
$GPGGA,013300.65,3439.60179543,N,13744.64367540,E,4,07,1.1,11.439,M,38.489,M,1.6,0012*74
$GPGGA,013300.70,3439.60181379,N,13744.64367048,E,4,07,1.1,11.431,M,38.489,M,1.7,0012*7C
$GPGGA,013300.75,3439.60183164,N,13744.64366309,E,4,07,1.1,11.426,M,38.489,M,1.8,0012*7B
$GPGGA,013300.80,3439.60185007,N,13744.64365502,E,4,07,1.1,11.411,M,38.489,M,1.8,0012*79
$GPGGA,013300.85,3439.60186943,N,13744.64364748,E,4,07,1.1,11.404,M,38.489,M,1.9,0012*7E
$GPGGA,013300.90,3439.60189014,N,13744.64364111,E,4,07,1.1,11.433,M,38.489,M,1.9,0012*70
$GPGGA,013300.95,3439.60190988,N,13744.64363421,E,4,07,1.1,11.449,M,38.489,M,2.0,0012*77
$GPGGA,013301.00,3439.60192686,N,13744.64362775,E,4,07,1.1,11.435,M,38.489,M,2.0,0012*71
$GPGGA,013301.05,3439.60194585,N,13744.64361936,E,4,07,1.1,11.433,M,38.489,M,2.0,0012*7E
$GPGGA,013301.10,3439.60196425,N,13744.64361530,E,4,07,1.1,11.438,M,38.489,M,2.1,0012*73
$GPGGA,013301.15,3439.60198177,N,13744.64360948,E,4,07,1.1,11.442,M,38.489,M,2.2,0012*76
$GPGGA,013301.20,3439.60199275,N,13744.64360450,E,4,07,1.1,11.441,M,38.489,M,2.2,0012*77
$GPGGA,013301.25,3439.60200180,N,13744.64359710,E,4,07,1.1,11.442,M,38.489,M,2.3,0012*77
$GPGGA,013301.30,3439.60201178,N,13744.64358823,E,4,07,1.1,11.438,M,38.489,M,2.3,0012*76
$GPGGA,013301.35,3439.60202512,N,13744.64357928,E,4,07,1.1,11.434,M,38.489,M,2.3,0012*71
$GPGGA,013301.40,3439.60204067,N,13744.64356844,E,4,07,1.1,11.434,M,38.489,M,2.4,0012*7F
$GPGGA,013301.45,3439.60205411,N,13744.64355916,E,4,07,1.1,11.429,M,38.489,M,2.5,0012*76
$GPGGA,013301.50,3439.60206339,N,13744.64354941,E,4,07,1.1,11.421,M,38.489,M,2.5,0012*77
$GPGGA,013301.55,3439.60207262,N,13744.64353652,E,4,07,1.1,11.413,M,38.489,M,2.5,0012*77
$GPGGA,013301.60,3439.60208304,N,13744.64352264,E,4,07,1.1,11.416,M,38.489,M,2.6,0012*79
$GPGGA,013301.65,3439.60209315,N,13744.64351263,E,4,07,1.1,11.424,M,38.489,M,2.7,0012*79
$GPGGA,013301.70,3439.60210636,N,13744.64350149,E,4,07,1.1,11.413,M,38.489,M,2.7,0012*7F
$GPGGA,013301.75,3439.60212012,N,13744.64349213,E,4,07,1.1,11.425,M,38.489,M,2.8,0012*76
$GPGGA,013301.80,3439.60213008,N,13744.64348413,E,4,07,1.1,11.429,M,38.489,M,2.8,0012*7D
$GPGGA,013301.85,3439.60213964,N,13744.64347758,E,4,07,1.1,11.420,M,38.489,M,2.8,0012*71
$GPGGA,013301.90,3439.60215340,N,13744.64347039,E,4,07,1.1,11.422,M,38.489,M,2.9,0012*7C
$GPGGA,013301.95,3439.60216582,N,13744.64346520,E,4,07,1.1,11.427,M,38.489,M,3.0,0012*73
$GPGGA,013302.00,3439.60217917,N,13744.64346182,E,4,07,1.1,11.432,M,38.489,M,3.0,0012*75
$GPGGA,013302.05,3439.60219011,N,13744.64345902,E,4,07,1.1,11.429,M,38.489,M,3.0,0012*78
$GPGGA,013302.10,3439.60219878,N,13744.64345566,E,4,07,1.1,11.419,M,38.489,M,2.1,0012*76
$GPGGA,013302.15,3439.60221018,N,13744.64345184,E,4,07,1.1,11.417,M,38.489,M,2.2,0012*73
$GPGGA,013302.20,3439.60222217,N,13744.64344910,E,4,07,1.1,11.410,M,38.489,M,2.2,0012*78
$GPGGA,013302.25,3439.60223602,N,13744.64344901,E,4,07,1.1,11.403,M,38.489,M,2.3,0012*7F
$GPGGA,013302.30,3439.60225032,N,13744.64344862,E,4,07,1.1,11.400,M,38.489,M,2.3,0012*7F
$GPGGA,013302.35,3439.60226218,N,13744.64344840,E,4,07,1.1,11.396,M,38.489,M,2.3,0012*7B
$GPGGA,013302.40,3439.60227369,N,13744.64344541,E,4,07,1.1,11.415,M,38.489,M,2.4,0012*78
$GPGGA,013302.45,3439.60228531,N,13744.64344558,E,4,07,1.1,11.415,M,38.489,M,2.5,0012*70
$GPGGA,013302.50,3439.60230260,N,13744.64344261,E,4,07,1.1,11.419,M,38.489,M,2.5,0012*7F
$GPGGA,013302.55,3439.60231673,N,13744.64344144,E,4,07,1.1,11.425,M,38.489,M,2.5,0012*76
$GPGGA,013302.60,3439.60232574,N,13744.64343983,E,4,07,1.1,11.414,M,38.489,M,1.6,0012*71
$GPGGA,013302.65,3439.60233650,N,13744.64343827,E,4,07,1.1,11.421,M,38.489,M,1.6,0012*79
$GPGGA,013302.70,3439.60234478,N,13744.64343509,E,4,07,1.1,11.421,M,38.489,M,1.7,0012*72
$GPGGA,013302.75,3439.60235641,N,13744.64342965,E,4,07,1.1,11.426,M,38.489,M,1.8,0012*71
$GPGGA,013302.80,3439.60236755,N,13744.64342429,E,4,07,1.1,11.425,M,38.489,M,1.8,0012*7A
$GPGGA,013302.85,3439.60237697,N,13744.64341989,E,4,07,1.1,11.418,M,38.489,M,1.9,0012*7A
$GPGGA,013302.90,3439.60238837,N,13744.64341352,E,4,07,1.1,11.424,M,38.489,M,1.9,0012*76
$GPGGA,013302.95,3439.60239792,N,13744.64340438,E,4,07,1.1,11.426,M,38.489,M,2.0,0012*70
$GPGGA,013303.00,3439.60240620,N,13744.64339792,E,4,07,1.1,11.420,M,38.489,M,2.0,0012*70
$GPGGA,013303.05,3439.60241940,N,13744.64338669,E,4,07,1.1,11.412,M,38.489,M,2.0,0012*78
$GPGGA,013303.10,3439.60242828,N,13744.64337659,E,4,07,1.1,11.410,M,38.489,M,2.1,0012*7F
$GPGGA,013303.15,3439.60243885,N,13744.64336645,E,4,07,1.1,11.404,M,38.489,M,2.2,0012*76
$GPGGA,013303.20,3439.60246065,N,13744.64335307,E,4,07,1.1,11.415,M,38.489,M,2.2,0012*73
$GPGGA,013303.25,3439.60247189,N,13744.64334851,E,4,07,1.1,11.417,M,38.489,M,2.3,0012*7E
$GPGGA,013303.30,3439.60248496,N,13744.64334218,E,4,07,1.1,11.420,M,38.489,M,2.3,0012*7D
$GPGGA,013303.35,3439.60249659,N,13744.64333809,E,4,07,1.1,11.416,M,38.489,M,2.3,0012*70
$GPGGA,013303.40,3439.60250815,N,13744.64333594,E,4,07,1.1,11.409,M,38.489,M,2.4,0012*7C
$GPGGA,013303.45,3439.60251814,N,13744.64333537,E,4,07,1.1,11.403,M,38.489,M,2.5,0012*7B
$GPGGA,013303.50,3439.60253103,N,13744.64333310,E,4,07,1.1,11.405,M,38.489,M,2.5,0012*77
$GPGGA,013303.55,3439.60254345,N,13744.64332966,E,4,07,1.1,11.415,M,38.489,M,2.5,0012*7E
$GPGGA,013303.60,3439.60255796,N,13744.64332665,E,4,07,1.1,11.413,M,38.489,M,2.6,0012*7A
$GPGGA,013303.65,3439.60257371,N,13744.64332659,E,4,07,1.1,11.414,M,38.489,M,2.7,0012*79
$GPGGA,013303.70,3439.60258875,N,13744.64332634,E,4,07,1.1,11.413,M,38.489,M,2.7,0012*71
$GPGGA,013303.75,3439.60260322,N,13744.64332448,E,4,07,1.1,11.409,M,38.489,M,2.8,0012*7B
$GPGGA,013303.80,3439.60262052,N,13744.64332495,E,4,07,1.1,11.406,M,38.489,M,2.8,0012*78
$GPGGA,013303.85,3439.60263873,N,13744.64332517,E,4,07,1.1,11.400,M,38.489,M,2.8,0012*7A
$GPGGA,013303.90,3439.60265372,N,13744.64332716,E,4,07,1.1,11.391,M,38.489,M,2.9,0012*7F
$GPGGA,013303.95,3439.60266858,N,13744.64333165,E,4,07,1.1,11.398,M,38.489,M,3.0,0012*78
$GPGGA,013304.00,3439.60268779,N,13744.64333092,E,4,07,1.1,11.404,M,38.489,M,3.0,0012*7A
$GPGGA,013304.05,3439.60270839,N,13744.64333104,E,4,07,1.1,11.422,M,38.489,M,3.0,0012*77
$GPGGA,013304.10,3439.60272537,N,13744.64333309,E,4,07,1.1,11.428,M,38.489,M,3.1,0012*76
$GPGGA,013304.15,3439.60273692,N,13744.64333747,E,4,07,1.1,11.419,M,38.489,M,2.2,0012*70
$GPGGA,013304.20,3439.60274908,N,13744.64333856,E,4,07,1.1,11.449,M,38.489,M,2.2,0012*77
$GPGGA,013304.25,3439.60276206,N,13744.64333619,E,4,07,1.1,11.438,M,38.489,M,2.3,0012*77
$GPGGA,013304.30,3439.60277242,N,13744.64333293,E,4,07,1.1,11.437,M,38.489,M,2.3,0012*7B
$GPGGA,013304.35,3439.60278398,N,13744.64333159,E,4,07,1.1,11.438,M,38.489,M,2.3,0012*7D
$GPGGA,013304.40,3439.60280063,N,13744.64332887,E,4,07,1.1,11.441,M,38.489,M,2.4,0012*7D
$GPGGA,013304.45,3439.60281473,N,13744.64332701,E,4,07,1.1,11.434,M,38.489,M,2.5,0012*7E
$GPGGA,013304.50,3439.60282469,N,13744.64332694,E,4,07,1.1,11.434,M,38.489,M,2.5,0012*7F
$GPGGA,013304.55,3439.60283626,N,13744.64332537,E,4,07,1.1,11.429,M,38.489,M,2.5,0012*74
$GPGGA,013304.60,3439.60285493,N,13744.64331978,E,4,07,1.1,11.435,M,38.489,M,1.6,0012*71
$GPGGA,013304.65,3439.60287090,N,13744.64331478,E,4,07,1.1,11.432,M,38.489,M,1.6,0012*7B
$GPGGA,013304.70,3439.60288654,N,13744.64330923,E,4,07,1.1,11.424,M,38.489,M,1.7,0012*7A
$GPGGA,013304.75,3439.60289817,N,13744.64330614,E,4,07,1.1,11.433,M,38.489,M,1.8,0012*75
$GPGGA,013304.80,3439.60291275,N,13744.64330198,E,4,07,1.1,11.448,M,38.489,M,1.8,0012*77
$GPGGA,013304.85,3439.60292678,N,13744.64329630,E,4,07,1.1,11.462,M,38.489,M,1.9,0012*7C
$GPGGA,013304.90,3439.60294219,N,13744.64329401,E,4,07,1.1,11.453,M,38.489,M,1.9,0012*7F
$GPGGA,013304.95,3439.60295749,N,13744.64329378,E,4,07,1.1,11.453,M,38.489,M,2.0,0012*78
$GPGGA,013305.00,3439.60296892,N,13744.64329649,E,4,07,1.1,11.459,M,38.489,M,2.0,0012*72
$GPGGA,013305.05,3439.60298368,N,13744.64329445,E,4,07,1.1,11.458,M,38.489,M,2.0,0012*78
$GPGGA,013305.10,3439.60299770,N,13744.64329329,E,4,07,1.1,11.463,M,38.489,M,2.1,0012*74
$GPGGA,013305.15,3439.60301701,N,13744.64329450,E,4,07,1.1,11.464,M,38.489,M,1.1,0012*7A
$GPGGA,013305.20,3439.60303310,N,13744.64329740,E,4,07,1.1,11.455,M,38.489,M,1.2,0012*79
$GPGGA,013305.25,3439.60304775,N,13744.64329981,E,4,07,1.1,11.435,M,38.489,M,1.3,0012*78
$GPGGA,013305.30,3439.60306586,N,13744.64330445,E,4,07,1.1,11.430,M,38.489,M,1.3,0012*78
$GPGGA,013305.35,3439.60308423,N,13744.64330680,E,4,07,1.1,11.437,M,38.489,M,1.4,0012*76
$GPGGA,013305.40,3439.60309980,N,13744.64331178,E,4,07,1.1,11.427,M,38.489,M,1.4,0012*71
$GPGGA,013305.45,3439.60311847,N,13744.64331914,E,4,07,1.1,11.425,M,38.489,M,1.5,0012*76
$GPGGA,013305.50,3439.60314122,N,13744.64332264,E,4,07,1.1,11.437,M,38.489,M,1.5,0012*71
$GPGGA,013305.55,3439.60315963,N,13744.64333179,E,4,07,1.1,11.462,M,38.489,M,1.5,0012*76
$GPGGA,013305.60,3439.60317867,N,13744.64334127,E,4,07,1.1,11.463,M,38.489,M,1.6,0012*79
$GPGGA,013305.65,3439.60319399,N,13744.64334774,E,4,07,1.1,11.465,M,38.489,M,1.6,0012*7E
$GPGGA,013305.70,3439.60320931,N,13744.64334900,E,4,07,1.1,11.458,M,38.489,M,1.7,0012*7A
$GPGGA,013305.75,3439.60323116,N,13744.64335386,E,4,07,1.1,11.450,M,38.489,M,1.8,0012*73
$GPGGA,013305.80,3439.60323639,N,13744.64335726,E,4,07,1.1,11.482,M,38.489,M,1.8,0012*72
$GPGGA,013305.85,3439.60324921,N,13744.64335792,E,4,07,1.1,11.475,M,38.489,M,1.9,0012*70
$GPGGA,013305.90,3439.60326692,N,13744.64335423,E,4,07,1.1,11.468,M,38.489,M,1.9,0012*74
$GPGGA,013305.95,3439.60328670,N,13744.64335133,E,4,07,1.1,11.460,M,38.489,M,2.0,0012*75
$GPGGA,013306.00,3439.60329864,N,13744.64335001,E,4,07,1.1,11.467,M,38.489,M,2.0,0012*77
$GPGGA,013306.05,3439.60331477,N,13744.64334614,E,4,07,1.1,11.461,M,38.489,M,2.0,0012*70
$GPGGA,013306.10,3439.60333443,N,13744.64334102,E,4,07,1.1,11.454,M,38.489,M,1.1,0012*75
$GPGGA,013306.15,3439.60335206,N,13744.64333408,E,4,07,1.1,11.453,M,38.489,M,1.1,0012*7E
$GPGGA,013306.20,3439.60336432,N,13744.64332434,E,4,07,1.1,11.454,M,38.489,M,1.2,0012*70
$GPGGA,013306.25,3439.60338080,N,13744.64331503,E,4,07,1.1,11.451,M,38.489,M,1.3,0012*74
$GPGGA,013306.30,3439.60339721,N,13744.64331389,E,4,07,1.1,11.464,M,38.489,M,1.3,0012*7F
$GPGGA,013306.35,3439.60341346,N,13744.64330936,E,4,07,1.1,11.474,M,38.489,M,1.4,0012*79
$GPGGA,013306.40,3439.60342660,N,13744.64330906,E,4,07,1.1,11.479,M,38.489,M,1.4,0012*77
$GPGGA,013306.45,3439.60344542,N,13744.64330571,E,4,07,1.1,11.471,M,38.489,M,1.5,0012*72
$GPGGA,013306.50,3439.60345609,N,13744.64330346,E,4,07,1.1,11.490,M,38.489,M,1.5,0012*76
$GPGGA,013306.55,3439.60346783,N,13744.64330392,E,4,07,1.1,11.489,M,38.489,M,1.5,0012*72
$GPGGA,013306.60,3439.60348095,N,13744.64330548,E,4,07,1.1,11.492,M,38.489,M,1.6,0012*72
$GPGGA,013306.65,3439.60349772,N,13744.64330491,E,4,07,1.1,11.485,M,38.489,M,1.6,0012*7B
$GPGGA,013306.70,3439.60351254,N,13744.64330482,E,4,07,1.1,11.478,M,38.489,M,1.7,0012*76
$GPGGA,013306.75,3439.60352461,N,13744.64330785,E,4,07,1.1,11.478,M,38.489,M,1.8,0012*7B
$GPGGA,013306.80,3439.60353740,N,13744.64331043,E,4,07,1.1,11.486,M,38.489,M,1.8,0012*7D
$GPGGA,013306.85,3439.60355090,N,13744.64331326,E,4,07,1.1,11.492,M,38.489,M,1.9,0012*70
$GPGGA,013306.90,3439.60356553,N,13744.64331884,E,4,07,1.1,11.484,M,38.489,M,1.9,0012*79
$GPGGA,013306.95,3439.60357595,N,13744.64332782,E,4,07,1.1,11.479,M,38.489,M,2.0,0012*75
$GPGGA,013307.00,3439.60358880,N,13744.64333803,E,4,07,1.1,11.481,M,38.489,M,2.0,0012*7E
$GPGGA,013307.05,3439.60359751,N,13744.64334421,E,4,07,1.1,11.498,M,38.489,M,2.0,0012*7A
$GPGGA,013307.10,3439.60360951,N,13744.64335311,E,4,07,1.1,11.502,M,38.489,M,2.1,0012*7C
$GPGGA,013307.15,3439.60362290,N,13744.64335752,E,4,07,1.1,11.504,M,38.489,M,2.2,0012*7B
$GPGGA,013307.20,3439.60363511,N,13744.64335948,E,4,07,1.1,11.499,M,38.489,M,2.2,0012*72
$GPGGA,013307.25,3439.60364842,N,13744.64335696,E,4,07,1.1,11.491,M,38.489,M,2.3,0012*7E
$GPGGA,013307.30,3439.60366061,N,13744.64335603,E,4,07,1.1,11.491,M,38.489,M,2.3,0012*7D
$GPGGA,013307.35,3439.60367433,N,13744.64335328,E,4,07,1.1,11.496,M,38.489,M,2.3,0012*71
$GPGGA,013307.40,3439.60368979,N,13744.64335050,E,4,07,1.1,11.503,M,38.489,M,2.4,0012*79
$GPGGA,013307.45,3439.60370031,N,13744.64334623,E,4,07,1.1,11.496,M,38.489,M,1.5,0012*7C
$GPGGA,013307.50,3439.60371203,N,13744.64334289,E,4,07,1.1,11.488,M,38.489,M,1.5,0012*71
$GPGGA,013307.55,3439.60372303,N,13744.64333887,E,4,07,1.1,11.482,M,38.489,M,1.5,0012*7F
$GPGGA,013307.60,3439.60373897,N,13744.64333060,E,4,07,1.1,11.477,M,38.489,M,1.6,0012*76
$GPGGA,013307.65,3439.60375402,N,13744.64332244,E,4,07,1.1,11.473,M,38.489,M,1.6,0012*74
$GPGGA,013307.70,3439.60376983,N,13744.64331652,E,4,07,1.1,11.467,M,38.489,M,1.7,0012*73
$GPGGA,013307.75,3439.60378701,N,13744.64331546,E,4,07,1.1,11.478,M,38.489,M,1.8,0012*7B
$GPGGA,013307.80,3439.60379965,N,13744.64330996,E,4,07,1.1,11.481,M,38.489,M,1.8,0012*7A
$GPGGA,013307.85,3439.60381565,N,13744.64330544,E,4,07,1.1,11.493,M,38.489,M,1.9,0012*75
$GPGGA,013307.90,3439.60383411,N,13744.64330208,E,4,07,1.1,11.504,M,38.489,M,1.9,0012*71
$GPGGA,013307.95,3439.60384845,N,13744.64330141,E,4,07,1.1,11.499,M,38.489,M,2.0,0012*7F
$GPGGA,013308.00,3439.60386254,N,13744.64330036,E,4,07,1.1,11.495,M,38.489,M,2.0,0012*79
$GPGGA,013308.05,3439.60387551,N,13744.64329930,E,4,07,1.1,11.497,M,38.489,M,2.0,0012*7A
$GPGGA,013308.10,3439.60388775,N,13744.64329743,E,4,07,1.1,11.501,M,38.489,M,2.1,0012*70
$GPGGA,013308.15,3439.60390465,N,13744.64329612,E,4,07,1.1,11.504,M,38.489,M,2.2,0012*7D
$GPGGA,013308.20,3439.60392616,N,13744.64329670,E,4,07,1.1,11.495,M,38.489,M,2.2,0012*72
$GPGGA,013308.25,3439.60394369,N,13744.64329974,E,4,07,1.1,11.491,M,38.489,M,2.3,0012*72
$GPGGA,013308.30,3439.60395903,N,13744.64330557,E,4,07,1.1,11.481,M,38.489,M,2.3,0012*75
$GPGGA,013308.35,3439.60397744,N,13744.64331023,E,4,07,1.1,11.473,M,38.489,M,1.4,0012*71
$GPGGA,013308.40,3439.60399772,N,13744.64331119,E,4,07,1.1,11.488,M,38.489,M,1.4,0012*74
$GPGGA,013308.45,3439.60402055,N,13744.64331979,E,4,07,1.1,11.503,M,38.489,M,1.5,0012*7B
$GPGGA,013308.50,3439.60404099,N,13744.64332604,E,4,07,1.1,11.494,M,38.489,M,1.5,0012*70
$GPGGA,013308.55,3439.60406368,N,13744.64332913,E,4,07,1.1,11.503,M,38.489,M,1.5,0012*7C
$GPGGA,013308.60,3439.60407663,N,13744.64332830,E,4,07,1.1,11.515,M,38.489,M,1.6,0012*71
$GPGGA,013308.65,3439.60409572,N,13744.64332919,E,4,07,1.1,11.504,M,38.489,M,1.6,0012*73
$GPGGA,013308.70,3439.60411339,N,13744.64332963,E,4,07,1.1,11.520,M,38.489,M,1.7,0012*7D
$GPGGA,013308.75,3439.60413107,N,13744.64332794,E,4,07,1.1,11.515,M,38.489,M,1.8,0012*7A
$GPGGA,013308.80,3439.60414750,N,13744.64332399,E,4,07,1.1,11.503,M,38.489,M,0.8,0012*7C
