$GPGGA,025201.20,3439.60008706,N,13744.65309760,E,4,08,1.0,13.130,M,38.490,M,1.2,0141*76
$GPGGA,025201.25,3439.60008487,N,13744.65309554,E,4,08,1.0,13.131,M,38.490,M,1.3,0141*7C
$GPGGA,025201.30,3439.60008166,N,13744.65309277,E,4,08,1.0,13.128,M,38.490,M,1.3,0141*7C
$GPGGA,025201.35,3439.60007998,N,13744.65309198,E,4,08,1.0,13.130,M,38.490,M,1.4,0141*73
$GPGGA,025201.40,3439.60007997,N,13744.65309130,E,4,08,1.0,13.131,M,38.490,M,1.4,0141*7D
$GPGGA,025201.45,3439.60007866,N,13744.65309114,E,4,08,1.0,13.127,M,38.490,M,1.5,0141*77
$GPGGA,025201.50,3439.60007708,N,13744.65309113,E,4,08,1.0,13.129,M,38.490,M,1.5,0141*7D
$GPGGA,025201.55,3439.60007895,N,13744.65309142,E,4,08,1.0,13.135,M,38.490,M,0.6,0141*78
$GPGGA,025201.60,3439.60007652,N,13744.65309133,E,4,08,1.0,13.137,M,38.490,M,0.6,0141*7F
$GPGGA,025201.65,3439.60007607,N,13744.65309033,E,4,08,1.0,13.136,M,38.490,M,0.6,0141*7A
$GPGGA,025201.70,3439.60007379,N,13744.65308917,E,4,08,1.0,13.130,M,38.490,M,0.7,0141*7B
$GPGGA,025201.75,3439.60007150,N,13744.65308892,E,4,08,1.0,13.131,M,38.490,M,0.8,0141*75
$GPGGA,025201.80,3439.60007232,N,13744.65308872,E,4,08,1.0,13.128,M,38.490,M,0.8,0141*7E
$GPGGA,025201.85,3439.60007115,N,13744.65308636,E,4,08,1.0,13.126,M,38.490,M,0.9,0141*7C
$GPGGA,025201.90,3439.60006907,N,13744.65308484,E,4,08,1.0,13.132,M,38.490,M,0.9,0141*7C
$GPGGA,025201.95,3439.60006820,N,13744.65308326,E,4,08,1.0,13.129,M,38.490,M,0.9,0141*78
$GPGGA,025202.00,3439.60006699,N,13744.65308308,E,4,08,1.0,13.130,M,38.490,M,1.0,0141*77
$GPGGA,025202.05,3439.60006534,N,13744.65308249,E,4,08,1.0,13.131,M,38.490,M,1.0,0141*73
$GPGGA,025202.10,3439.60006415,N,13744.65308129,E,4,08,1.0,13.124,M,38.490,M,1.1,0141*75
$GPGGA,025202.15,3439.60006382,N,13744.65308084,E,4,08,1.0,13.120,M,38.490,M,1.1,0141*7B
$GPGGA,025202.20,3439.60006327,N,13744.65308137,E,4,08,1.0,13.121,M,38.490,M,1.2,0141*79
$GPGGA,025202.25,3439.60006251,N,13744.65308201,E,4,08,1.0,13.125,M,38.490,M,1.3,0141*7F
$GPGGA,025202.30,3439.60006241,N,13744.65308297,E,4,08,1.0,13.124,M,38.490,M,1.3,0141*74
$GPGGA,025202.35,3439.60006320,N,13744.65308216,E,4,08,1.0,13.121,M,38.490,M,1.4,0141*7C
$GPGGA,025202.40,3439.60006287,N,13744.65308270,E,4,08,1.0,13.119,M,38.490,M,1.4,0141*79
$GPGGA,025202.45,3439.60006354,N,13744.65308201,E,4,08,1.0,13.123,M,38.490,M,1.5,0141*7D
$GPGGA,025202.50,3439.60006475,N,13744.65308119,E,4,08,1.0,13.123,M,38.490,M,1.5,0141*77
$GPGGA,025202.55,3439.60006446,N,13744.65308017,E,4,08,1.0,13.125,M,38.490,M,1.5,0141*7B
$GPGGA,025202.60,3439.60006423,N,13744.65308089,E,4,08,1.0,13.128,M,38.490,M,1.6,0141*77
$GPGGA,025202.65,3439.60006474,N,13744.65308103,E,4,08,1.0,13.125,M,38.490,M,1.6,0141*7E
$GPGGA,025202.70,3439.60006548,N,13744.65308023,E,4,08,1.0,13.122,M,38.490,M,1.7,0141*71
$GPGGA,025202.75,3439.60006554,N,13744.65308095,E,4,08,1.0,13.125,M,38.490,M,1.8,0141*7C
$GPGGA,025202.80,3439.60006145,N,13744.65307872,E,4,08,1.0,13.133,M,38.490,M,0.8,0141*7A
$GPGGA,025202.85,3439.60006295,N,13744.65307900,E,4,08,1.0,13.131,M,38.490,M,0.9,0141*76
$GPGGA,025202.90,3439.60006484,N,13744.65308006,E,4,08,1.0,13.131,M,38.490,M,0.9,0141*74
$GPGGA,025202.95,3439.60006560,N,13744.65308167,E,4,08,1.0,13.135,M,38.490,M,0.9,0141*78
$GPGGA,025203.00,3439.60006718,N,13744.65308162,E,4,08,1.0,13.138,M,38.490,M,1.0,0141*78
$GPGGA,025203.05,3439.60006909,N,13744.65308153,E,4,08,1.0,13.141,M,38.490,M,1.0,0141*7F
$GPGGA,025203.10,3439.60007047,N,13744.65308077,E,4,08,1.0,13.141,M,38.490,M,1.1,0141*7F
$GPGGA,025203.15,3439.60007139,N,13744.65308091,E,4,08,1.0,13.135,M,38.490,M,1.1,0141*79
$GPGGA,025203.20,3439.60007282,N,13744.65308142,E,4,08,1.0,13.139,M,38.490,M,1.2,0141*7C
$GPGGA,025203.25,3439.60007539,N,13744.65308253,E,4,08,1.0,13.141,M,38.490,M,1.3,0141*73
$GPGGA,025203.30,3439.60007517,N,13744.65308132,E,4,08,1.0,13.140,M,38.490,M,1.3,0141*7E
$GPGGA,025203.35,3439.60007677,N,13744.65308197,E,4,08,1.0,13.137,M,38.490,M,1.4,0141*76
$GPGGA,025203.40,3439.60007874,N,13744.65308147,E,4,08,1.0,13.135,M,38.490,M,1.4,0141*76
$GPGGA,025203.45,3439.60007928,N,13744.65308019,E,4,08,1.0,13.135,M,38.490,M,1.5,0141*70
$GPGGA,025203.50,3439.60007902,N,13744.65308071,E,4,08,1.0,13.138,M,38.490,M,1.5,0141*7F
$GPGGA,025203.55,3439.60007984,N,13744.65308036,E,4,08,1.0,13.139,M,38.490,M,1.5,0141*76
$GPGGA,025203.60,3439.60008125,N,13744.65307893,E,4,08,1.0,13.138,M,38.490,M,1.6,0141*76
$GPGGA,025203.65,3439.60008249,N,13744.65307869,E,4,08,1.0,13.139,M,38.490,M,1.6,0141*7E
$GPGGA,025203.70,3439.60008464,N,13744.65307903,E,4,08,1.0,13.139,M,38.490,M,1.7,0141*7F
$GPGGA,025203.75,3439.60008570,N,13744.65307961,E,4,08,1.0,13.139,M,38.490,M,1.8,0141*75
$GPGGA,025203.80,3439.60008493,N,13744.65307916,E,4,08,1.0,13.138,M,38.490,M,1.8,0141*72
$GPGGA,025203.85,3439.60008652,N,13744.65308006,E,4,08,1.0,13.136,M,38.490,M,1.9,0141*70
$GPGGA,025203.90,3439.60008657,N,13744.65308012,E,4,08,1.0,13.139,M,38.490,M,1.9,0141*7B
$GPGGA,025203.95,3439.60008818,N,13744.65308174,E,4,08,1.0,13.137,M,38.490,M,2.0,0141*7E
$GPGGA,025204.00,3439.60008947,N,13744.65308139,E,4,08,1.0,13.136,M,38.490,M,2.0,0141*76
$GPGGA,025204.05,3439.60008969,N,13744.65308192,E,4,08,1.0,13.136,M,38.490,M,2.0,0141*7E
$GPGGA,025204.10,3439.60009088,N,13744.65308442,E,4,08,1.0,13.138,M,38.490,M,2.1,0141*7A
$GPGGA,025204.15,3439.60009185,N,13744.65308481,E,4,08,1.0,13.137,M,38.490,M,2.2,0141*70
$GPGGA,025204.20,3439.60009196,N,13744.65308514,E,4,08,1.0,13.134,M,38.490,M,2.2,0141*7A
$GPGGA,025204.25,3439.60009222,N,13744.65308582,E,4,08,1.0,13.134,M,38.490,M,2.3,0141*7D
$GPGGA,025204.30,3439.60009161,N,13744.65308646,E,4,08,1.0,13.137,M,38.490,M,2.3,0141*75
$GPGGA,025204.35,3439.60009112,N,13744.65308668,E,4,08,1.0,13.137,M,38.490,M,2.3,0141*78
$GPGGA,025204.40,3439.60009030,N,13744.65308680,E,4,08,1.0,13.136,M,38.490,M,2.4,0141*7B
$GPGGA,025204.45,3439.60009142,N,13744.65308788,E,4,08,1.0,13.131,M,38.490,M,2.5,0141*75
$GPGGA,025204.50,3439.60009017,N,13744.65308872,E,4,08,1.0,13.134,M,38.490,M,2.5,0141*7F
$GPGGA,025204.55,3439.60009002,N,13744.65308811,E,4,08,1.0,13.140,M,38.490,M,2.5,0141*78
$GPGGA,025204.60,3439.60009133,N,13744.65308830,E,4,08,1.0,13.134,M,38.490,M,2.6,0141*7E
$GPGGA,025204.65,3439.60008946,N,13744.65308760,E,4,08,1.0,13.133,M,38.490,M,2.7,0141*7C
$GPGGA,025204.70,3439.60009155,N,13744.65308175,E,4,08,1.0,13.156,M,38.490,M,1.7,0141*71
$GPGGA,025204.75,3439.60009049,N,13744.65308123,E,4,08,1.0,13.153,M,38.490,M,1.8,0141*71
$GPGGA,025204.80,3439.60008937,N,13744.65308035,E,4,08,1.0,13.155,M,38.490,M,1.8,0141*7A
$GPGGA,025204.85,3439.60009248,N,13744.65308126,E,4,08,1.0,13.151,M,38.490,M,0.9,0141*7A
$GPGGA,025204.90,3439.60009056,N,13744.65308147,E,4,08,1.0,13.151,M,38.490,M,0.9,0141*74
$GPGGA,025204.95,3439.60009014,N,13744.65308036,E,4,08,1.0,13.148,M,38.490,M,0.9,0141*78
$GPGGA,025205.00,3439.60008886,N,13744.65307942,E,4,08,1.0,13.149,M,38.490,M,1.0,0141*7B
$GPGGA,025205.05,3439.60008691,N,13744.65308035,E,4,08,1.0,13.144,M,38.490,M,1.0,0141*7D
$GPGGA,025205.10,3439.60008678,N,13744.65308019,E,4,08,1.0,13.143,M,38.490,M,1.1,0141*76
$GPGGA,025205.15,3439.60008523,N,13744.65307966,E,4,08,1.0,13.151,M,38.490,M,1.1,0141*73
$GPGGA,025205.20,3439.60008409,N,13744.65308039,E,4,08,1.0,13.148,M,38.490,M,1.2,0141*7B
$GPGGA,025205.25,3439.60008402,N,13744.65307942,E,4,08,1.0,13.145,M,38.490,M,1.3,0141*73
$GPGGA,025205.30,3439.60008204,N,13744.65307976,E,4,08,1.0,13.143,M,38.490,M,1.3,0141*76
$GPGGA,025205.35,3439.60008091,N,13744.65308011,E,4,08,1.0,13.138,M,38.490,M,1.4,0141*71
$GPGGA,025205.40,3439.60008006,N,13744.65307998,E,4,08,1.0,13.141,M,38.490,M,1.4,0141*74
$GPGGA,025205.45,3439.60007806,N,13744.65308008,E,4,08,1.0,13.138,M,38.490,M,1.5,0141*76
$GPGGA,025205.50,3439.60007672,N,13744.65308024,E,4,08,1.0,13.141,M,38.490,M,1.5,0141*7F
$GPGGA,025205.55,3439.60007705,N,13744.65307832,E,4,08,1.0,13.137,M,38.490,M,1.5,0141*7A
$GPGGA,025205.60,3439.60007687,N,13744.65307815,E,4,08,1.0,13.138,M,38.490,M,1.6,0141*7E
$GPGGA,025205.65,3439.60007639,N,13744.65307704,E,4,08,1.0,13.131,M,38.490,M,0.6,0141*79
$GPGGA,025205.70,3439.60007471,N,13744.65307666,E,4,08,1.0,13.128,M,38.490,M,0.7,0141*7F
$GPGGA,025205.75,3439.60007470,N,13744.65307714,E,4,08,1.0,13.125,M,38.490,M,0.8,0141*7D
$GPGGA,025205.80,3439.60007479,N,13744.65307747,E,4,08,1.0,13.127,M,38.490,M,0.8,0141*7A
$GPGGA,025205.85,3439.60007584,N,13744.65307785,E,4,08,1.0,13.126,M,38.490,M,0.9,0141*72
$GPGGA,025205.90,3439.60007743,N,13744.65307686,E,4,08,1.0,13.124,M,38.490,M,0.9,0141*7F
$GPGGA,025205.95,3439.60007671,N,13744.65307586,E,4,08,1.0,13.124,M,38.490,M,0.9,0141*79
$GPGGA,025206.00,3439.60007779,N,13744.65307517,E,4,08,1.0,13.123,M,38.490,M,1.0,0141*78
$GPGGA,025206.05,3439.60007806,N,13744.65307372,E,4,08,1.0,13.124,M,38.490,M,1.0,0141*78
$GPGGA,025206.10,3439.60007870,N,13744.65307261,E,4,08,1.0,13.125,M,38.490,M,1.1,0141*7E
$GPGGA,025206.15,3439.60008102,N,13744.65307238,E,4,08,1.0,13.118,M,38.490,M,1.1,0141*7A
$GPGGA,025206.20,3439.60008112,N,13744.65307168,E,4,08,1.0,13.122,M,38.490,M,1.2,0141*71
$GPGGA,025206.25,3439.60008255,N,13744.65306963,E,4,08,1.0,13.128,M,38.490,M,1.3,0141*7D
$GPGGA,025206.30,3439.60008516,N,13744.65306852,E,4,08,1.0,13.130,M,38.490,M,1.3,0141*73
$GPGGA,025206.35,3439.60008646,N,13744.65306752,E,4,08,1.0,13.128,M,38.490,M,1.4,0141*71
$GPGGA,025206.40,3439.60008832,N,13744.65306672,E,4,08,1.0,13.128,M,38.490,M,1.4,0141*7D
$GPGGA,025206.45,3439.60009027,N,13744.65306587,E,4,08,1.0,13.130,M,38.490,M,1.5,0141*74
$GPGGA,025206.50,3439.60009032,N,13744.65306647,E,4,08,1.0,13.126,M,38.490,M,1.5,0141*7C
$GPGGA,025206.55,3439.60008988,N,13744.65306490,E,4,08,1.0,13.126,M,38.490,M,1.5,0141*78
$GPGGA,025206.60,3439.60009176,N,13744.65306579,E,4,08,1.0,13.130,M,38.490,M,1.6,0141*74
$GPGGA,025206.65,3439.60009305,N,13744.65306747,E,4,08,1.0,13.126,M,38.490,M,1.6,0141*7F
$GPGGA,025206.70,3439.60009345,N,13744.65306567,E,4,08,1.0,13.126,M,38.490,M,0.7,0141*7F
$GPGGA,025206.75,3439.60009463,N,13744.65306557,E,4,08,1.0,13.130,M,38.490,M,0.8,0141*72
$GPGGA,025206.80,3439.60009544,N,13744.65306566,E,4,08,1.0,13.129,M,38.490,M,0.8,0141*76
$GPGGA,025206.85,3439.60009753,N,13744.65306465,E,4,08,1.0,13.124,M,38.490,M,0.9,0141*79
$GPGGA,025206.90,3439.60009833,N,13744.65306413,E,4,08,1.0,13.123,M,38.490,M,0.9,0141*72
$GPGGA,025206.95,3439.60009913,N,13744.65306412,E,4,08,1.0,13.130,M,38.490,M,0.9,0141*77
$GPGGA,025207.00,3439.60010135,N,13744.65306306,E,4,08,1.0,13.132,M,38.490,M,1.0,0141*76
$GPGGA,025207.05,3439.60010278,N,13744.65306345,E,4,08,1.0,13.130,M,38.490,M,1.0,0141*7C
$GPGGA,025207.10,3439.60010351,N,13744.65306386,E,4,08,1.0,13.129,M,38.490,M,1.1,0141*74
$GPGGA,025207.15,3439.60010339,N,13744.65306209,E,4,08,1.0,13.125,M,38.490,M,1.1,0141*75
$GPGGA,025207.20,3439.60010569,N,13744.65306145,E,4,08,1.0,13.129,M,38.490,M,1.2,0141*74
$GPGGA,025207.25,3439.60010846,N,13744.65306233,E,4,08,1.0,13.124,M,38.490,M,1.3,0141*7F
$GPGGA,025207.30,3439.60010903,N,13744.65306285,E,4,08,1.0,13.128,M,38.490,M,1.3,0141*7A
$GPGGA,025207.35,3439.60010790,N,13744.65306192,E,4,08,1.0,13.133,M,38.490,M,1.4,0141*73
$GPGGA,025207.40,3439.60010838,N,13744.65306134,E,4,08,1.0,13.135,M,38.490,M,1.4,0141*76
$GPGGA,025207.45,3439.60011194,N,13744.65306185,E,4,08,1.0,13.132,M,38.490,M,1.5,0141*71
$GPGGA,025207.50,3439.60011415,N,13744.65306155,E,4,08,1.0,13.128,M,38.490,M,1.5,0141*7F
$GPGGA,025207.55,3439.60011484,N,13744.65306146,E,4,08,1.0,13.130,M,38.490,M,1.5,0141*79
$GPGGA,025207.60,3439.60011153,N,13744.65305988,E,4,08,1.0,13.116,M,38.490,M,0.6,0141*7F
$GPGGA,025207.65,3439.60011154,N,13744.65306046,E,4,08,1.0,13.116,M,38.490,M,0.6,0141*75
$GPGGA,025207.70,3439.60011229,N,13744.65306114,E,4,08,1.0,13.118,M,38.490,M,0.7,0141*71
$GPGGA,025207.75,3439.60011328,N,13744.65306110,E,4,08,1.0,13.118,M,38.490,M,0.8,0141*7F
$GPGGA,025207.80,3439.60011412,N,13744.65306171,E,4,08,1.0,13.119,M,38.490,M,0.8,0141*7D
$GPGGA,025207.85,3439.60011529,N,13744.65306416,E,4,08,1.0,13.117,M,38.490,M,0.9,0141*7A
$GPGGA,025207.90,3439.60011471,N,13744.65306491,E,4,08,1.0,13.115,M,38.490,M,0.9,0141*7F
$GPGGA,025207.95,3439.60011525,N,13744.65306515,E,4,08,1.0,13.114,M,38.490,M,0.9,0141*76
$GPGGA,025208.00,3439.60011536,N,13744.65306728,E,4,08,1.0,13.116,M,38.490,M,1.0,0141*71
$GPGGA,025208.05,3439.60011565,N,13744.65306829,E,4,08,1.0,13.118,M,38.490,M,1.0,0141*72
$GPGGA,025208.10,3439.60011447,N,13744.65306900,E,4,08,1.0,13.117,M,38.490,M,1.1,0141*73
$GPGGA,025208.15,3439.60011392,N,13744.65307064,E,4,08,1.0,13.110,M,38.490,M,1.1,0141*74
$GPGGA,025208.20,3439.60011418,N,13744.65307169,E,4,08,1.0,13.110,M,38.490,M,1.2,0141*78
$GPGGA,025208.25,3439.60011390,N,13744.65307249,E,4,08,1.0,13.111,M,38.490,M,1.3,0141*7B
$GPGGA,025208.30,3439.60011223,N,13744.65307117,E,4,08,1.0,13.107,M,38.490,M,1.3,0141*79
$GPGGA,025208.35,3439.60011018,N,13744.65307170,E,4,08,1.0,13.109,M,38.490,M,1.4,0141*7E
$GPGGA,025208.40,3439.60010858,N,13744.65307311,E,4,08,1.0,13.110,M,38.490,M,1.4,0141*7C
$GPGGA,025208.45,3439.60010933,N,13744.65307483,E,4,08,1.0,13.105,M,38.490,M,1.5,0141*7C
$GPGGA,025208.50,3439.60011061,N,13744.65307312,E,4,08,1.0,13.103,M,38.490,M,1.5,0141*7E
$GPGGA,025208.55,3439.60011107,N,13744.65307218,E,4,08,1.0,13.106,M,38.490,M,1.5,0141*74
$GPGGA,025208.60,3439.60011247,N,13744.65307251,E,4,08,1.0,13.110,M,38.490,M,1.6,0141*7C
$GPGGA,025208.65,3439.60011242,N,13744.65307283,E,4,08,1.0,13.108,M,38.490,M,1.6,0141*7A
$GPGGA,025208.70,3439.60011342,N,13744.65307150,E,4,08,1.0,13.109,M,38.490,M,1.7,0141*72
$GPGGA,025208.75,3439.60011671,N,13744.65307303,E,4,08,1.0,13.110,M,38.490,M,1.8,0141*71
$GPGGA,025208.80,3439.60011929,N,13744.65307122,E,4,08,1.0,13.112,M,38.490,M,1.8,0141*7A
$GPGGA,025208.85,3439.60012103,N,13744.65306820,E,4,08,1.0,13.111,M,38.490,M,1.9,0141*74
$GPGGA,025208.90,3439.60012272,N,13744.65306583,E,4,08,1.0,13.113,M,38.490,M,1.9,0141*73
$GPGGA,025208.95,3439.60012421,N,13744.65306436,E,4,08,1.0,13.113,M,38.490,M,2.0,0141*73
$GPGGA,025209.00,3439.60012533,N,13744.65306268,E,4,08,1.0,13.109,M,38.490,M,2.0,0141*7A
$GPGGA,025209.05,3439.60012953,N,13744.65306015,E,4,08,1.0,13.108,M,38.490,M,2.0,0141*7C
$GPGGA,025209.10,3439.60013529,N,13744.65305773,E,4,08,1.0,13.106,M,38.490,M,2.1,0141*73
$GPGGA,025209.15,3439.60014147,N,13744.65305452,E,4,08,1.0,13.105,M,38.490,M,2.2,0141*7D
$GPGGA,025209.20,3439.60014774,N,13744.65305200,E,4,08,1.0,13.110,M,38.490,M,2.2,0141*78
$GPGGA,025209.25,3439.60015602,N,13744.65305127,E,4,08,1.0,13.115,M,38.490,M,2.3,0141*7E
$GPGGA,025209.30,3439.60016767,N,13744.65305192,E,4,08,1.0,13.116,M,38.490,M,2.3,0141*76
$GPGGA,025209.35,3439.60017748,N,13744.65305453,E,4,08,1.0,13.111,M,38.490,M,2.3,0141*70
$GPGGA,025209.40,3439.60018975,N,13744.65306204,E,4,08,1.0,13.105,M,38.490,M,2.4,0141*78
$GPGGA,025209.45,3439.60020065,N,13744.65307216,E,4,08,1.0,13.099,M,38.490,M,2.5,0141*79
$GPGGA,025209.50,3439.60020735,N,13744.65308516,E,4,08,1.0,13.112,M,38.490,M,2.5,0141*75
$GPGGA,025209.55,3439.60022263,N,13744.65309238,E,4,08,1.0,13.109,M,38.490,M,2.5,0141*74
$GPGGA,025209.60,3439.60023370,N,13744.65310808,E,4,08,1.0,13.130,M,38.490,M,2.6,0141*78
$GPGGA,025209.65,3439.60024243,N,13744.65311244,E,4,08,1.0,13.145,M,38.490,M,2.7,0141*7B
$GPGGA,025209.70,3439.60025913,N,13744.65312227,E,4,08,1.0,13.146,M,38.490,M,2.7,0141*75
$GPGGA,025209.75,3439.60027064,N,13744.65312733,E,4,08,1.0,13.157,M,38.490,M,1.8,0141*77
$GPGGA,025209.80,3439.60028442,N,13744.65313423,E,4,08,1.0,13.158,M,38.490,M,1.8,0141*7E
$GPGGA,025209.85,3439.60029816,N,13744.65313968,E,4,08,1.0,13.156,M,38.490,M,1.9,0141*7A
$GPGGA,025209.90,3439.60031262,N,13744.65314443,E,4,08,1.0,13.150,M,38.490,M,1.9,0141*7B
$GPGGA,025209.95,3439.60032726,N,13744.65314430,E,4,08,1.0,13.149,M,38.490,M,2.0,0141*7E
$GPGGA,025210.00,3439.60033978,N,13744.65313971,E,4,08,1.0,13.146,M,38.490,M,2.0,0141*7E
$GPGGA,025210.05,3439.60035262,N,13744.65313254,E,4,08,1.0,13.141,M,38.490,M,2.0,0141*76
$GPGGA,025210.10,3439.60036623,N,13744.65313143,E,4,08,1.0,13.143,M,38.490,M,2.1,0141*76
$GPGGA,025210.15,3439.60038012,N,13744.65313205,E,4,08,1.0,13.162,M,38.490,M,2.2,0141*78
$GPGGA,025210.20,3439.60039473,N,13744.65312636,E,4,08,1.0,13.177,M,38.490,M,2.2,0141*7D
$GPGGA,025210.25,3439.60041411,N,13744.65313287,E,4,08,1.0,13.178,M,38.490,M,1.3,0141*71
$GPGGA,025210.30,3439.60042960,N,13744.65313177,E,4,08,1.0,13.191,M,38.490,M,1.3,0141*76
$GPGGA,025210.35,3439.60044220,N,13744.65313177,E,4,08,1.0,13.186,M,38.490,M,1.4,0141*7B
$GPGGA,025210.40,3439.60045326,N,13744.65313050,E,4,08,1.0,13.184,M,38.490,M,1.4,0141*79
$GPGGA,025210.45,3439.60046371,N,13744.65312995,E,4,08,1.0,13.183,M,38.490,M,1.5,0141*7A
$GPGGA,025210.50,3439.60047612,N,13744.65313246,E,4,08,1.0,13.183,M,38.490,M,1.5,0141*7B
$GPGGA,025210.55,3439.60049026,N,13744.65313897,E,4,08,1.0,13.184,M,38.490,M,1.5,0141*70
$GPGGA,025210.60,3439.60050466,N,13744.65314803,E,4,08,1.0,13.181,M,38.490,M,1.6,0141*72
$GPGGA,025210.65,3439.60051640,N,13744.65315878,E,4,08,1.0,13.175,M,38.490,M,1.6,0141*76
$GPGGA,025210.70,3439.60052687,N,13744.65317099,E,4,08,1.0,13.177,M,38.490,M,1.7,0141*7C
$GPGGA,025210.75,3439.60054003,N,13744.65317627,E,4,08,1.0,13.197,M,38.490,M,1.8,0141*77
$GPGGA,025210.80,3439.60055403,N,13744.65318866,E,4,08,1.0,13.197,M,38.490,M,1.8,0141*7C
$GPGGA,025210.85,3439.60056603,N,13744.65319498,E,4,08,1.0,13.216,M,38.490,M,1.9,0141*7F
$GPGGA,025210.90,3439.60057939,N,13744.65319900,E,4,08,1.0,13.215,M,38.490,M,1.9,0141*73
$GPGGA,025210.95,3439.60059081,N,13744.65320641,E,4,08,1.0,13.223,M,38.490,M,2.0,0141*7D
$GPGGA,025211.00,3439.60060190,N,13744.65321256,E,4,08,1.0,13.222,M,38.490,M,2.0,0141*79
$GPGGA,025211.05,3439.60061477,N,13744.65321704,E,4,08,1.0,13.227,M,38.490,M,2.0,0141*76
$GPGGA,025211.10,3439.60062650,N,13744.65321731,E,4,08,1.0,13.232,M,38.490,M,2.1,0141*75
$GPGGA,025211.15,3439.60063715,N,13744.65321531,E,4,08,1.0,13.236,M,38.490,M,2.2,0141*74
$GPGGA,025211.20,3439.60064661,N,13744.65321441,E,4,08,1.0,13.238,M,38.490,M,2.2,0141*7F
$GPGGA,025211.25,3439.60065597,N,13744.65321234,E,4,08,1.0,13.237,M,38.490,M,2.3,0141*7B
$GPGGA,025211.30,3439.60066268,N,13744.65320749,E,4,08,1.0,13.228,M,38.490,M,2.3,0141*7B
$GPGGA,025211.35,3439.60066774,N,13744.65319875,E,4,08,1.0,13.222,M,38.490,M,2.3,0141*76
$GPGGA,025211.40,3439.60067499,N,13744.65320137,E,4,08,1.0,13.225,M,38.490,M,2.4,0141*70
$GPGGA,025211.45,3439.60068225,N,13744.65320136,E,4,08,1.0,13.236,M,38.490,M,1.5,0141*7A
$GPGGA,025211.50,3439.60069023,N,13744.65319841,E,4,08,1.0,13.243,M,38.490,M,1.5,0141*7A
$GPGGA,025211.55,3439.60069928,N,13744.65319969,E,4,08,1.0,13.243,M,38.490,M,1.5,0141*76
$GPGGA,025211.60,3439.60070627,N,13744.65320069,E,4,08,1.0,13.243,M,38.490,M,1.6,0141*78
$GPGGA,025211.65,3439.60071339,N,13744.65320096,E,4,08,1.0,13.242,M,38.490,M,1.6,0141*77
$GPGGA,025211.70,3439.60071963,N,13744.65319964,E,4,08,1.0,13.245,M,38.490,M,1.7,0141*7E
$GPGGA,025211.75,3439.60072455,N,13744.65319897,E,4,08,1.0,13.247,M,38.490,M,1.8,0141*70
$GPGGA,025211.80,3439.60073153,N,13744.65319980,E,4,08,1.0,13.243,M,38.490,M,1.8,0141*7B
$GPGGA,025211.85,3439.60074297,N,13744.65320600,E,4,08,1.0,13.244,M,38.490,M,0.9,0141*78
$GPGGA,025211.90,3439.60075161,N,13744.65321119,E,4,08,1.0,13.244,M,38.490,M,0.9,0141*79
$GPGGA,025211.95,3439.60076031,N,13744.65321504,E,4,08,1.0,13.239,M,38.490,M,0.9,0141*79
$GPGGA,025212.00,3439.60076981,N,13744.65322093,E,4,08,1.0,13.237,M,38.490,M,1.0,0141*7A
$GPGGA,025212.05,3439.60077911,N,13744.65322902,E,4,08,1.0,13.235,M,38.490,M,1.0,0141*74
$GPGGA,025212.10,3439.60078978,N,13744.65323855,E,4,08,1.0,13.229,M,38.490,M,1.1,0141*7E
$GPGGA,025212.15,3439.60079957,N,13744.65324992,E,4,08,1.0,13.224,M,38.490,M,1.1,0141*77
$GPGGA,025212.20,3439.60081035,N,13744.65326249,E,4,08,1.0,13.221,M,38.490,M,1.2,0141*72
$GPGGA,025212.25,3439.60082260,N,13744.65327537,E,4,08,1.0,13.227,M,38.490,M,1.3,0141*7E
$GPGGA,025212.30,3439.60083414,N,13744.65328751,E,4,08,1.0,13.242,M,38.490,M,1.3,0141*70
$GPGGA,025212.35,3439.60084676,N,13744.65330036,E,4,08,1.0,13.253,M,38.490,M,1.4,0141*7C
$GPGGA,025212.40,3439.60085957,N,13744.65331198,E,4,08,1.0,13.264,M,38.490,M,1.4,0141*73
$GPGGA,025212.45,3439.60086828,N,13744.65332166,E,4,08,1.0,13.273,M,38.490,M,1.5,0141*79
$GPGGA,025212.50,3439.60087796,N,13744.65333199,E,4,08,1.0,13.278,M,38.490,M,1.5,0141*7C
$GPGGA,025212.55,3439.60088933,N,13744.65334103,E,4,08,1.0,13.282,M,38.490,M,1.5,0141*76
$GPGGA,025212.60,3439.60090002,N,13744.65334843,E,4,08,1.0,13.279,M,38.490,M,1.6,0141*78
$GPGGA,025212.65,3439.60091147,N,13744.65335244,E,4,08,1.0,13.272,M,38.490,M,1.6,0141*7B
$GPGGA,025212.70,3439.60092543,N,13744.65335386,E,4,08,1.0,13.278,M,38.490,M,1.7,0141*78
$GPGGA,025212.75,3439.60093899,N,13744.65335514,E,4,08,1.0,13.278,M,38.490,M,1.8,0141*74
$GPGGA,025212.80,3439.60095426,N,13744.65335523,E,4,08,1.0,13.281,M,38.490,M,1.8,0141*72
$GPGGA,025212.85,3439.60096849,N,13744.65335576,E,4,08,1.0,13.277,M,38.490,M,1.9,0141*79
$GPGGA,025212.90,3439.60098097,N,13744.65335809,E,4,08,1.0,13.273,M,38.490,M,1.9,0141*79
$GPGGA,025212.95,3439.60099358,N,13744.65335951,E,4,08,1.0,13.272,M,38.490,M,2.0,0141*7A
$GPGGA,025213.00,3439.60100984,N,13744.65336072,E,4,08,1.0,13.261,M,38.490,M,2.0,0141*74
$GPGGA,025213.05,3439.60102370,N,13744.65336435,E,4,08,1.0,13.270,M,38.490,M,2.0,0141*75
$GPGGA,025213.10,3439.60103956,N,13744.65336937,E,4,08,1.0,13.282,M,38.490,M,1.1,0141*7E
$GPGGA,025213.15,3439.60105043,N,13744.65337585,E,4,08,1.0,13.287,M,38.490,M,1.1,0141*71
$GPGGA,025213.20,3439.60106104,N,13744.65337955,E,4,08,1.0,13.282,M,38.490,M,1.2,0141*71
$GPGGA,025213.25,3439.60106923,N,13744.65338293,E,4,08,1.0,13.282,M,38.490,M,1.3,0141*76
$GPGGA,025213.30,3439.60108044,N,13744.65338691,E,4,08,1.0,13.296,M,38.490,M,1.3,0141*77
$GPGGA,025213.35,3439.60109291,N,13744.65338557,E,4,08,1.0,13.303,M,38.490,M,1.4,0141*7A
$GPGGA,025213.40,3439.60110281,N,13744.65338355,E,4,08,1.0,13.305,M,38.490,M,1.4,0141*73
$GPGGA,025213.45,3439.60111449,N,13744.65338037,E,4,08,1.0,13.303,M,38.490,M,1.5,0141*75
$GPGGA,025213.50,3439.60112849,N,13744.65338129,E,4,08,1.0,13.299,M,38.490,M,1.5,0141*72
$GPGGA,025213.55,3439.60113864,N,13744.65338320,E,4,08,1.0,13.305,M,38.490,M,1.5,0141*76
$GPGGA,025213.60,3439.60115433,N,13744.65338733,E,4,08,1.0,13.319,M,38.490,M,1.6,0141*70
$GPGGA,025213.65,3439.60116635,N,13744.65339352,E,4,08,1.0,13.316,M,38.490,M,1.6,0141*7F
$GPGGA,025213.70,3439.60117873,N,13744.65339915,E,4,08,1.0,13.311,M,38.490,M,1.7,0141*79
$GPGGA,025213.75,3439.60119160,N,13744.65340640,E,4,08,1.0,13.312,M,38.490,M,1.8,0141*74
$GPGGA,025213.80,3439.60120344,N,13744.65341511,E,4,08,1.0,13.314,M,38.490,M,1.8,0141*70
$GPGGA,025213.85,3439.60121628,N,13744.65342378,E,4,08,1.0,13.314,M,38.490,M,1.9,0141*70
$GPGGA,025213.90,3439.60123474,N,13744.65343841,E,4,08,1.0,13.320,M,38.490,M,0.9,0141*7B
$GPGGA,025213.95,3439.60124840,N,13744.65344972,E,4,08,1.0,13.332,M,38.490,M,0.9,0141*77
$GPGGA,025214.00,3439.60126710,N,13744.65346074,E,4,08,1.0,13.361,M,38.490,M,1.0,0141*77
$GPGGA,025214.05,3439.60128187,N,13744.65346540,E,4,08,1.0,13.369,M,38.490,M,1.0,0141*7E
$GPGGA,025214.10,3439.60129519,N,13744.65347176,E,4,08,1.0,13.371,M,38.490,M,1.1,0141*70
$GPGGA,025214.15,3439.60130785,N,13744.65347638,E,4,08,1.0,13.371,M,38.490,M,1.1,0141*77
$GPGGA,025214.20,3439.60132329,N,13744.65348173,E,4,08,1.0,13.373,M,38.490,M,1.2,0141*77
$GPGGA,025214.25,3439.60133860,N,13744.65348503,E,4,08,1.0,13.376,M,38.490,M,1.3,0141*72
$GPGGA,025214.30,3439.60135408,N,13744.65348745,E,4,08,1.0,13.372,M,38.490,M,1.3,0141*76
$GPGGA,025214.35,3439.60137070,N,13744.65348909,E,4,08,1.0,13.370,M,38.490,M,1.4,0141*79
$GPGGA,025214.40,3439.60138892,N,13744.65349024,E,4,08,1.0,13.372,M,38.490,M,1.4,0141*75
$GPGGA,025214.45,3439.60140741,N,13744.65349173,E,4,08,1.0,13.376,M,38.490,M,1.5,0141*78
$GPGGA,025214.50,3439.60142311,N,13744.65349417,E,4,08,1.0,13.363,M,38.490,M,1.5,0141*7C
$GPGGA,025214.55,3439.60143959,N,13744.65349164,E,4,08,1.0,13.355,M,38.490,M,1.5,0141*7A
$GPGGA,025214.60,3439.60145732,N,13744.65348624,E,4,08,1.0,13.362,M,38.490,M,1.6,0141*7C
$GPGGA,025214.65,3439.60147390,N,13744.65348273,E,4,08,1.0,13.374,M,38.490,M,1.6,0141*76
$GPGGA,025214.70,3439.60148942,N,13744.65348239,E,4,08,1.0,13.388,M,38.490,M,1.7,0141*74
$GPGGA,025214.75,3439.60149960,N,13744.65348301,E,4,08,1.0,13.394,M,38.490,M,1.8,0141*78
$GPGGA,025214.80,3439.60151104,N,13744.65348763,E,4,08,1.0,13.391,M,38.490,M,1.8,0141*74
$GPGGA,025214.85,3439.60152185,N,13744.65349276,E,4,08,1.0,13.389,M,38.490,M,1.9,0141*73
$GPGGA,025214.90,3439.60153271,N,13744.65349854,E,4,08,1.0,13.390,M,38.490,M,1.9,0141*7C
$GPGGA,025214.95,3439.60154969,N,13744.65350058,E,4,08,1.0,13.407,M,38.490,M,2.0,0141*73
$GPGGA,025215.00,3439.60156267,N,13744.65349886,E,4,08,1.0,13.406,M,38.490,M,2.0,0141*7B
$GPGGA,025215.05,3439.60157451,N,13744.65349906,E,4,08,1.0,13.404,M,38.490,M,2.0,0141*77
$GPGGA,025215.10,3439.60158843,N,13744.65350078,E,4,08,1.0,13.398,M,38.490,M,2.1,0141*78
$GPGGA,025215.15,3439.60160413,N,13744.65350511,E,4,08,1.0,13.400,M,38.490,M,2.2,0141*70
$GPGGA,025215.20,3439.60162164,N,13744.65351069,E,4,08,1.0,13.401,M,38.490,M,2.2,0141*7B
$GPGGA,025215.25,3439.60163810,N,13744.65351665,E,4,08,1.0,13.396,M,38.490,M,2.3,0141*77
$GPGGA,025215.30,3439.60165249,N,13744.65352555,E,4,08,1.0,13.387,M,38.490,M,2.3,0141*70
$GPGGA,025215.35,3439.60167171,N,13744.65353719,E,4,08,1.0,13.393,M,38.490,M,2.3,0141*71
$GPGGA,025215.40,3439.60169127,N,13744.65354620,E,4,08,1.0,13.403,M,38.490,M,2.4,0141*7B
$GPGGA,025215.45,3439.60170835,N,13744.65355689,E,4,08,1.0,13.410,M,38.490,M,2.5,0141*7D
$GPGGA,025215.50,3439.60172161,N,13744.65355863,E,4,08,1.0,13.428,M,38.490,M,2.5,0141*72
$GPGGA,025215.55,3439.60173938,N,13744.65356383,E,4,08,1.0,13.423,M,38.490,M,2.5,0141*7F
$GPGGA,025215.60,3439.60175836,N,13744.65357060,E,4,08,1.0,13.430,M,38.490,M,2.6,0141*7E
$GPGGA,025215.65,3439.60177778,N,13744.65357624,E,4,08,1.0,13.420,M,38.490,M,1.6,0141*78
$GPGGA,025215.70,3439.60179788,N,13744.65357670,E,4,08,1.0,13.425,M,38.490,M,1.7,0141*78
$GPGGA,025215.75,3439.60180979,N,13744.65356980,E,4,08,1.0,13.435,M,38.490,M,0.8,0141*75
$GPGGA,025215.80,3439.60182672,N,13744.65356794,E,4,08,1.0,13.427,M,38.490,M,0.8,0141*71
$GPGGA,025215.85,3439.60184355,N,13744.65356646,E,4,08,1.0,13.416,M,38.490,M,0.9,0141*7F
$GPGGA,025215.90,3439.60186550,N,13744.65356680,E,4,08,1.0,13.423,M,38.490,M,0.9,0141*76
$GPGGA,025215.95,3439.60188205,N,13744.65356408,E,4,08,1.0,13.418,M,38.490,M,0.9,0141*70
$GPGGA,025216.00,3439.60189996,N,13744.65355923,E,4,08,1.0,13.407,M,38.490,M,1.0,0141*7E
$GPGGA,025216.05,3439.60191835,N,13744.65355546,E,4,08,1.0,13.403,M,38.490,M,1.0,0141*71
$GPGGA,025216.10,3439.60193815,N,13744.65355805,E,4,08,1.0,13.418,M,38.490,M,1.1,0141*74
$GPGGA,025216.15,3439.60195723,N,13744.65355418,E,4,08,1.0,13.420,M,38.490,M,1.1,0141*76
$GPGGA,025216.20,3439.60197254,N,13744.65355973,E,4,08,1.0,13.426,M,38.490,M,1.2,0141*72
$GPGGA,025216.25,3439.60198711,N,13744.65356378,E,4,08,1.0,13.423,M,38.490,M,1.3,0141*7A
$GPGGA,025216.30,3439.60200319,N,13744.65356935,E,4,08,1.0,13.424,M,38.490,M,1.3,0141*74
$GPGGA,025216.35,3439.60201820,N,13744.65356826,E,4,08,1.0,13.424,M,38.490,M,1.4,0141*75
$GPGGA,025216.40,3439.60203074,N,13744.65356700,E,4,08,1.0,13.426,M,38.490,M,1.4,0141*75
$GPGGA,025216.45,3439.60204140,N,13744.65356266,E,4,08,1.0,13.428,M,38.490,M,1.5,0141*7B
$GPGGA,025216.50,3439.60205597,N,13744.65356242,E,4,08,1.0,13.422,M,38.490,M,1.5,0141*7C
$GPGGA,025216.55,3439.60207262,N,13744.65356134,E,4,08,1.0,13.423,M,38.490,M,1.5,0141*75
$GPGGA,025216.60,3439.60209104,N,13744.65356093,E,4,08,1.0,13.425,M,38.490,M,1.6,0141*77
$GPGGA,025216.65,3439.60211042,N,13744.65356172,E,4,08,1.0,13.419,M,38.490,M,1.6,0141*79
$GPGGA,025216.70,3439.60212718,N,13744.65356413,E,4,08,1.0,13.415,M,38.490,M,1.7,0141*79
$GPGGA,025216.75,3439.60214454,N,13744.65356572,E,4,08,1.0,13.425,M,38.490,M,1.8,0141*7B
$GPGGA,025216.80,3439.60216351,N,13744.65356578,E,4,08,1.0,13.424,M,38.490,M,1.8,0141*7A
$GPGGA,025216.85,3439.60217889,N,13744.65356575,E,4,08,1.0,13.433,M,38.490,M,1.9,0141*7A
$GPGGA,025216.90,3439.60219511,N,13744.65356642,E,4,08,1.0,13.447,M,38.490,M,1.9,0141*78
$GPGGA,025216.95,3439.60221145,N,13744.65356522,E,4,08,1.0,13.448,M,38.490,M,2.0,0141*73
$GPGGA,025217.00,3439.60222542,N,13744.65356692,E,4,08,1.0,13.451,M,38.490,M,2.0,0141*7E
$GPGGA,025217.05,3439.60223802,N,13744.65356613,E,4,08,1.0,13.446,M,38.490,M,2.0,0141*7C
$GPGGA,025217.10,3439.60224797,N,13744.65356305,E,4,08,1.0,13.450,M,38.490,M,2.1,0141*78
$GPGGA,025217.15,3439.60225837,N,13744.65355918,E,4,08,1.0,13.457,M,38.490,M,2.2,0141*78
$GPGGA,025217.20,3439.60226965,N,13744.65355561,E,4,08,1.0,13.455,M,38.490,M,2.2,0141*7B
$GPGGA,025217.25,3439.60228054,N,13744.65354975,E,4,08,1.0,13.450,M,38.490,M,2.3,0141*77
$GPGGA,025217.30,3439.60229348,N,13744.65354277,E,4,08,1.0,13.446,M,38.490,M,2.3,0141*72
$GPGGA,025217.35,3439.60230353,N,13744.65353544,E,4,08,1.0,13.448,M,38.490,M,2.3,0141*7B
$GPGGA,025217.40,3439.60231160,N,13744.65352621,E,4,08,1.0,13.447,M,38.490,M,2.4,0141*73
$GPGGA,025217.45,3439.60231717,N,13744.65351548,E,4,08,1.0,13.442,M,38.490,M,2.5,0141*7B
$GPGGA,025217.50,3439.60232147,N,13744.65350485,E,4,08,1.0,13.438,M,38.490,M,2.5,0141*73
$GPGGA,025217.55,3439.60232843,N,13744.65349536,E,4,08,1.0,13.436,M,38.490,M,2.5,0141*74
$GPGGA,025217.60,3439.60233047,N,13744.65347827,E,4,08,1.0,13.456,M,38.490,M,1.6,0141*7A
$GPGGA,025217.65,3439.60233893,N,13744.65347365,E,4,08,1.0,13.463,M,38.490,M,1.6,0141*75
$GPGGA,025217.70,3439.60234798,N,13744.65347020,E,4,08,1.0,13.460,M,38.490,M,1.7,0141*72
$GPGGA,025217.75,3439.60235639,N,13744.65346842,E,4,08,1.0,13.461,M,38.490,M,1.8,0141*7F
$GPGGA,025217.80,3439.60236550,N,13744.65346442,E,4,08,1.0,13.461,M,38.490,M,1.8,0141*76
$GPGGA,025217.85,3439.60237084,N,13744.65346049,E,4,08,1.0,13.455,M,38.490,M,1.9,0141*77
$GPGGA,025217.90,3439.60237926,N,13744.65345440,E,4,08,1.0,13.460,M,38.490,M,1.9,0141*7A
$GPGGA,025217.95,3439.60239070,N,13744.65344932,E,4,08,1.0,13.456,M,38.490,M,2.0,0141*7D
$GPGGA,025218.00,3439.60240217,N,13744.65344599,E,4,08,1.0,13.457,M,38.490,M,2.0,0141*7F
$GPGGA,025218.05,3439.60241430,N,13744.65344087,E,4,08,1.0,13.459,M,38.490,M,2.0,0141*7C
$GPGGA,025218.10,3439.60242551,N,13744.65343586,E,4,08,1.0,13.460,M,38.490,M,2.1,0141*75
$GPGGA,025218.15,3439.60242515,N,13744.65342455,E,4,08,1.0,13.428,M,38.490,M,1.1,0141*71
$GPGGA,025218.20,3439.60243756,N,13744.65341977,E,4,08,1.0,13.417,M,38.490,M,1.2,0141*72
$GPGGA,025218.25,3439.60244974,N,13744.65341673,E,4,08,1.0,13.413,M,38.490,M,1.3,0141*70
$GPGGA,025218.30,3439.60246370,N,13744.65341505,E,4,08,1.0,13.410,M,38.490,M,1.3,0141*79
$GPGGA,025218.35,3439.60248148,N,13744.65341317,E,4,08,1.0,13.410,M,38.490,M,1.4,0141*79
$GPGGA,025218.40,3439.60249541,N,13744.65340956,E,4,08,1.0,13.411,M,38.490,M,1.4,0141*78
$GPGGA,025218.45,3439.60251102,N,13744.65340473,E,4,08,1.0,13.416,M,38.490,M,1.5,0141*7B
$GPGGA,025218.50,3439.60252643,N,13744.65339975,E,4,08,1.0,13.424,M,38.490,M,1.5,0141*7A
$GPGGA,025218.55,3439.60253896,N,13744.65339652,E,4,08,1.0,13.434,M,38.490,M,1.5,0141*73
$GPGGA,025218.60,3439.60254834,N,13744.65338993,E,4,08,1.0,13.424,M,38.490,M,1.6,0141*7B
$GPGGA,025218.65,3439.60255876,N,13744.65338663,E,4,08,1.0,13.429,M,38.490,M,1.6,0141*74
$GPGGA,025218.70,3439.60256904,N,13744.65338114,E,4,08,1.0,13.428,M,38.490,M,1.7,0141*70
$GPGGA,025218.75,3439.60257980,N,13744.65337322,E,4,08,1.0,13.429,M,38.490,M,1.8,0141*7E
$GPGGA,025218.80,3439.60258976,N,13744.65336308,E,4,08,1.0,13.425,M,38.490,M,1.8,0141*77
$GPGGA,025218.85,3439.60259969,N,13744.65335080,E,4,08,1.0,13.428,M,38.490,M,1.9,0141*71
$GPGGA,025218.90,3439.60260573,N,13744.65333455,E,4,08,1.0,13.399,M,38.490,M,0.9,0141*7E
$GPGGA,025218.95,3439.60261295,N,13744.65332177,E,4,08,1.0,13.393,M,38.490,M,0.9,0141*7B
$GPGGA,025219.00,3439.60261676,N,13744.65330768,E,4,08,1.0,13.383,M,38.490,M,1.0,0141*7C
$GPGGA,025219.05,3439.60261681,N,13744.65329066,E,4,08,1.0,13.373,M,38.490,M,1.0,0141*7F
$GPGGA,025219.10,3439.60261762,N,13744.65327474,E,4,08,1.0,13.356,M,38.490,M,1.1,0141*78
$GPGGA,025219.15,3439.60262204,N,13744.65326084,E,4,08,1.0,13.373,M,38.490,M,1.1,0141*76
$GPGGA,025219.20,3439.60262805,N,13744.65324578,E,4,08,1.0,13.378,M,38.490,M,1.2,0141*77
$GPGGA,025219.25,3439.60263064,N,13744.65323131,E,4,08,1.0,13.377,M,38.490,M,1.3,0141*7C
$GPGGA,025219.30,3439.60263505,N,13744.65321874,E,4,08,1.0,13.373,M,38.490,M,1.3,0141*74
$GPGGA,025219.35,3439.60263708,N,13744.65320483,E,4,08,1.0,13.377,M,38.490,M,1.4,0141*78
$GPGGA,025219.40,3439.60264305,N,13744.65319271,E,4,08,1.0,13.375,M,38.490,M,1.4,0141*77
$GPGGA,025219.45,3439.60265072,N,13744.65318299,E,4,08,1.0,13.379,M,38.490,M,1.5,0141*7A
$GPGGA,025219.50,3439.60266394,N,13744.65317452,E,4,08,1.0,13.381,M,38.490,M,1.5,0141*7F
$GPGGA,025219.55,3439.60267771,N,13744.65316703,E,4,08,1.0,13.377,M,38.490,M,1.5,0141*7B
$GPGGA,025219.60,3439.60269016,N,13744.65316359,E,4,08,1.0,13.376,M,38.490,M,1.6,0141*7C
$GPGGA,025219.65,3439.60270502,N,13744.65316400,E,4,08,1.0,13.373,M,38.490,M,1.6,0141*7F
$GPGGA,025219.70,3439.60271931,N,13744.65316514,E,4,08,1.0,13.368,M,38.490,M,1.7,0141*79
$GPGGA,025219.75,3439.60273274,N,13744.65316572,E,4,08,1.0,13.366,M,38.490,M,1.8,0141*75
$GPGGA,025219.80,3439.60274430,N,13744.65316603,E,4,08,1.0,13.370,M,38.490,M,1.8,0141*7C
$GPGGA,025219.85,3439.60275606,N,13744.65316232,E,4,08,1.0,13.373,M,38.490,M,1.9,0141*7B
$GPGGA,025219.90,3439.60276577,N,13744.65315818,E,4,08,1.0,13.377,M,38.490,M,1.9,0141*7C
$GPGGA,025219.95,3439.60277717,N,13744.65315546,E,4,08,1.0,13.389,M,38.490,M,2.0,0141*71
$GPGGA,025220.00,3439.60278105,N,13744.65315545,E,4,08,1.0,13.378,M,38.490,M,2.0,0141*70
$GPGGA,025220.05,3439.60278455,N,13744.65315367,E,4,08,1.0,13.380,M,38.490,M,2.0,0141*74
$GPGGA,025220.10,3439.60279073,N,13744.65315096,E,4,08,1.0,13.386,M,38.490,M,2.1,0141*7B
$GPGGA,025220.15,3439.60279402,N,13744.65314615,E,4,08,1.0,13.384,M,38.490,M,2.2,0141*71
$GPGGA,025220.20,3439.60279893,N,13744.65313975,E,4,08,1.0,13.381,M,38.490,M,2.2,0141*78
$GPGGA,025220.25,3439.60280294,N,13744.65313260,E,4,08,1.0,13.380,M,38.490,M,2.3,0141*79
$GPGGA,025220.30,3439.60281308,N,13744.65312212,E,4,08,1.0,13.373,M,38.490,M,1.3,0141*73
$GPGGA,025220.35,3439.60281170,N,13744.65310955,E,4,08,1.0,13.367,M,38.490,M,1.4,0141*73
$GPGGA,025220.40,3439.60281063,N,13744.65309591,E,4,08,1.0,13.356,M,38.490,M,1.4,0141*7C
$GPGGA,025220.45,3439.60281045,N,13744.65308131,E,4,08,1.0,13.355,M,38.490,M,1.5,0141*70
$GPGGA,025220.50,3439.60281523,N,13744.65307088,E,4,08,1.0,13.349,M,38.490,M,1.5,0141*70
$GPGGA,025220.55,3439.60281669,N,13744.65306034,E,4,08,1.0,13.352,M,38.490,M,1.5,0141*74
$GPGGA,025220.60,3439.60282048,N,13744.65305250,E,4,08,1.0,13.354,M,38.490,M,1.6,0141*72
$GPGGA,025220.65,3439.60282297,N,13744.65304482,E,4,08,1.0,13.356,M,38.490,M,1.6,0141*7D
$GPGGA,025220.70,3439.60282428,N,13744.65303786,E,4,08,1.0,13.351,M,38.490,M,1.7,0141*7D
$GPGGA,025220.75,3439.60282781,N,13744.65303501,E,4,08,1.0,13.347,M,38.490,M,1.8,0141*7D
$GPGGA,025220.80,3439.60283181,N,13744.65303690,E,4,08,1.0,13.347,M,38.490,M,1.8,0141*7B
$GPGGA,025220.85,3439.60283529,N,13744.65303814,E,4,08,1.0,13.341,M,38.490,M,1.9,0141*7D
$GPGGA,025220.90,3439.60283867,N,13744.65304012,E,4,08,1.0,13.340,M,38.490,M,1.9,0141*76
$GPGGA,025220.95,3439.60283728,N,13744.65304442,E,4,08,1.0,13.331,M,38.490,M,2.0,0141*7A
$GPGGA,025221.00,3439.60284192,N,13744.65304971,E,4,08,1.0,13.341,M,38.490,M,2.0,0141*7D
$GPGGA,025221.05,3439.60284665,N,13744.65305301,E,4,08,1.0,13.344,M,38.490,M,2.0,0141*7E
$GPGGA,025221.10,3439.60285219,N,13744.65305298,E,4,08,1.0,13.342,M,38.490,M,2.1,0141*72
$GPGGA,025221.15,3439.60285685,N,13744.65305387,E,4,08,1.0,13.341,M,38.490,M,2.2,0141*79
$GPGGA,025221.20,3439.60286011,N,13744.65305851,E,4,08,1.0,13.338,M,38.490,M,2.2,0141*79
$GPGGA,025221.25,3439.60286354,N,13744.65306356,E,4,08,1.0,13.341,M,38.490,M,2.3,0141*7E
$GPGGA,025221.30,3439.60286725,N,13744.65306600,E,4,08,1.0,13.347,M,38.490,M,2.3,0141*78
$GPGGA,025221.35,3439.60286851,N,13744.65306770,E,4,08,1.0,13.346,M,38.490,M,2.3,0141*76
$GPGGA,025221.40,3439.60286991,N,13744.65306738,E,4,08,1.0,13.346,M,38.490,M,2.4,0141*72
$GPGGA,025221.45,3439.60287288,N,13744.65306736,E,4,08,1.0,13.346,M,38.490,M,2.5,0141*7A
$GPGGA,025221.50,3439.60287159,N,13744.65307016,E,4,08,1.0,13.346,M,38.490,M,2.5,0141*75
$GPGGA,025221.55,3439.60287372,N,13744.65307255,E,4,08,1.0,13.340,M,38.490,M,2.5,0141*78
$GPGGA,025221.60,3439.60287621,N,13744.65307537,E,4,08,1.0,13.341,M,38.490,M,2.6,0141*7C
$GPGGA,025221.65,3439.60287363,N,13744.65307744,E,4,08,1.0,13.349,M,38.490,M,2.7,0141*75
$GPGGA,025221.70,3439.60287222,N,13744.65307798,E,4,08,1.0,13.356,M,38.490,M,2.7,0141*7A
$GPGGA,025221.75,3439.60287456,N,13744.65307458,E,4,08,1.0,13.376,M,38.490,M,1.8,0141*7B
$GPGGA,025221.80,3439.60287697,N,13744.65307320,E,4,08,1.0,13.371,M,38.490,M,1.8,0141*71
$GPGGA,025221.85,3439.60288033,N,13744.65307258,E,4,08,1.0,13.366,M,38.490,M,1.9,0141*7A
$GPGGA,025221.90,3439.60288395,N,13744.65307113,E,4,08,1.0,13.362,M,38.490,M,1.9,0141*79
$GPGGA,025221.95,3439.60289843,N,13744.65307509,E,4,08,1.0,13.413,M,38.490,M,0.9,0141*72
$GPGGA,025222.00,3439.60290526,N,13744.65307278,E,4,08,1.0,13.417,M,38.490,M,1.0,0141*76
$GPGGA,025222.05,3439.60291446,N,13744.65306909,E,4,08,1.0,13.416,M,38.490,M,1.0,0141*78
$GPGGA,025222.10,3439.60292269,N,13744.65306461,E,4,08,1.0,13.408,M,38.490,M,1.1,0141*79
$GPGGA,025222.15,3439.60293443,N,13744.65305972,E,4,08,1.0,13.406,M,38.490,M,1.1,0141*71
$GPGGA,025222.20,3439.60294438,N,13744.65305245,E,4,08,1.0,13.398,M,38.490,M,1.2,0141*70
$GPGGA,025222.25,3439.60295251,N,13744.65304598,E,4,08,1.0,13.396,M,38.490,M,1.3,0141*74
$GPGGA,025222.30,3439.60296668,N,13744.65304059,E,4,08,1.0,13.409,M,38.490,M,1.3,0141*74
$GPGGA,025222.35,3439.60297787,N,13744.65303468,E,4,08,1.0,13.417,M,38.490,M,1.4,0141*79
$GPGGA,025222.40,3439.60298958,N,13744.65303161,E,4,08,1.0,13.428,M,38.490,M,1.4,0141*78
$GPGGA,025222.45,3439.60299961,N,13744.65303055,E,4,08,1.0,13.426,M,38.490,M,1.5,0141*7F
$GPGGA,025222.50,3439.60300667,N,13744.65302766,E,4,08,1.0,13.434,M,38.490,M,1.5,0141*76
$GPGGA,025222.55,3439.60301784,N,13744.65302463,E,4,08,1.0,13.434,M,38.490,M,1.5,0141*78
$GPGGA,025222.60,3439.60302766,N,13744.65302118,E,4,08,1.0,13.429,M,38.490,M,1.6,0141*77
$GPGGA,025222.65,3439.60303711,N,13744.65301710,E,4,08,1.0,13.430,M,38.490,M,1.6,0141*76
$GPGGA,025222.70,3439.60304971,N,13744.65301219,E,4,08,1.0,13.430,M,38.490,M,1.7,0141*70
$GPGGA,025222.75,3439.60306254,N,13744.65300929,E,4,08,1.0,13.431,M,38.490,M,1.8,0141*7C
$GPGGA,025222.80,3439.60307493,N,13744.65300989,E,4,08,1.0,13.415,M,38.490,M,1.8,0141*76
$GPGGA,025222.85,3439.60307148,N,13744.65302821,E,4,08,1.0,13.432,M,38.490,M,0.9,0141*74
$GPGGA,025222.90,3439.60308778,N,13744.65304017,E,4,08,1.0,13.419,M,38.490,M,0.9,0141*78
$GPGGA,025222.95,3439.60310618,N,13744.65305926,E,4,08,1.0,13.444,M,38.490,M,0.9,0141*71
$GPGGA,025223.00,3439.60311074,N,13744.65306894,E,4,08,1.0,13.430,M,38.490,M,1.0,0141*71
$GPGGA,025223.05,3439.60312316,N,13744.65307417,E,4,08,1.0,13.435,M,38.490,M,1.0,0141*73
$GPGGA,025223.10,3439.60313412,N,13744.65309064,E,4,08,1.0,13.439,M,38.490,M,1.1,0141*76
$GPGGA,025223.15,3439.60314498,N,13744.65310131,E,4,08,1.0,13.444,M,38.490,M,1.1,0141*75
$GPGGA,025223.20,3439.60315932,N,13744.65311178,E,4,08,1.0,13.446,M,38.490,M,1.2,0141*72
$GPGGA,025223.25,3439.60317133,N,13744.65312214,E,4,08,1.0,13.465,M,38.490,M,1.3,0141*76
$GPGGA,025223.30,3439.60318383,N,13744.65312334,E,4,08,1.0,13.480,M,38.490,M,1.3,0141*7C
$GPGGA,025223.35,3439.60319687,N,13744.65312998,E,4,08,1.0,13.478,M,38.490,M,1.4,0141*75
$GPGGA,025223.40,3439.60320978,N,13744.65313462,E,4,08,1.0,13.476,M,38.490,M,1.4,0141*75
$GPGGA,025223.45,3439.60322411,N,13744.65314137,E,4,08,1.0,13.476,M,38.490,M,1.5,0141*73
$GPGGA,025223.50,3439.60323747,N,13744.65314542,E,4,08,1.0,13.480,M,38.490,M,1.5,0141*79
$GPGGA,025223.55,3439.60325024,N,13744.65314531,E,4,08,1.0,13.478,M,38.490,M,1.5,0141*7B
$GPGGA,025223.60,3439.60326354,N,13744.65314310,E,4,08,1.0,13.472,M,38.490,M,1.6,0141*76
$GPGGA,025223.65,3439.60327601,N,13744.65313886,E,4,08,1.0,13.461,M,38.490,M,1.6,0141*76
$GPGGA,025223.70,3439.60328781,N,13744.65313885,E,4,08,1.0,13.467,M,38.490,M,1.7,0141*70
$GPGGA,025223.75,3439.60330288,N,13744.65314168,E,4,08,1.0,13.468,M,38.490,M,1.8,0141*7D
$GPGGA,025223.80,3439.60331627,N,13744.65313823,E,4,08,1.0,13.484,M,38.490,M,1.8,0141*74
$GPGGA,025223.85,3439.60332966,N,13744.65314426,E,4,08,1.0,13.492,M,38.490,M,1.9,0141*70
$GPGGA,025223.90,3439.60334308,N,13744.65314967,E,4,08,1.0,13.488,M,38.490,M,1.9,0141*73
$GPGGA,025223.95,3439.60335584,N,13744.65315527,E,4,08,1.0,13.485,M,38.490,M,2.0,0141*7B
$GPGGA,025224.00,3439.60336742,N,13744.65315781,E,4,08,1.0,13.487,M,38.490,M,2.0,0141*77
$GPGGA,025224.05,3439.60337827,N,13744.65315949,E,4,08,1.0,13.490,M,38.490,M,2.0,0141*73
$GPGGA,025224.10,3439.60339007,N,13744.65316317,E,4,08,1.0,13.489,M,38.490,M,2.1,0141*78
$GPGGA,025224.15,3439.60340373,N,13744.65316838,E,4,08,1.0,13.489,M,38.490,M,2.2,0141*76
$GPGGA,025224.20,3439.60341724,N,13744.65317624,E,4,08,1.0,13.487,M,38.490,M,2.2,0141*7B
$GPGGA,025224.25,3439.60343094,N,13744.65318665,E,4,08,1.0,13.484,M,38.490,M,2.3,0141*78
$GPGGA,025224.30,3439.60344293,N,13744.65319515,E,4,08,1.0,13.477,M,38.490,M,2.3,0141*77
$GPGGA,025224.35,3439.60345559,N,13744.65320558,E,4,08,1.0,13.480,M,38.490,M,2.3,0141*79
$GPGGA,025224.40,3439.60347038,N,13744.65321393,E,4,08,1.0,13.494,M,38.490,M,2.4,0141*79
$GPGGA,025224.45,3439.60348502,N,13744.65322160,E,4,08,1.0,13.512,M,38.490,M,2.5,0141*7C
$GPGGA,025224.50,3439.60349834,N,13744.65323300,E,4,08,1.0,13.518,M,38.490,M,2.5,0141*7E
$GPGGA,025224.55,3439.60351459,N,13744.65323909,E,4,08,1.0,13.521,M,38.490,M,2.5,0141*7C
$GPGGA,025224.60,3439.60352793,N,13744.65324301,E,4,08,1.0,13.532,M,38.490,M,2.6,0141*78
$GPGGA,025224.65,3439.60354737,N,13744.65325021,E,4,08,1.0,13.552,M,38.490,M,1.6,0141*70
$GPGGA,025224.70,3439.60356058,N,13744.65325331,E,4,08,1.0,13.556,M,38.490,M,1.7,0141*7F
$GPGGA,025224.75,3439.60357492,N,13744.65325705,E,4,08,1.0,13.559,M,38.490,M,1.8,0141*7A
$GPGGA,025224.80,3439.60358887,N,13744.65326153,E,4,08,1.0,13.562,M,38.490,M,1.8,0141*79
$GPGGA,025224.85,3439.60360641,N,13744.65326559,E,4,08,1.0,13.564,M,38.490,M,1.9,0141*7A
$GPGGA,025224.90,3439.60362358,N,13744.65326791,E,4,08,1.0,13.567,M,38.490,M,1.9,0141*74
$GPGGA,025224.95,3439.60364679,N,13744.65327033,E,4,08,1.0,13.554,M,38.490,M,0.9,0141*7E
$GPGGA,025225.00,3439.60366220,N,13744.65327094,E,4,08,1.0,13.552,M,38.490,M,1.0,0141*7A
$GPGGA,025225.05,3439.60367733,N,13744.65326842,E,4,08,1.0,13.550,M,38.490,M,1.0,0141*79
$GPGGA,025225.10,3439.60369280,N,13744.65326269,E,4,08,1.0,13.549,M,38.490,M,1.1,0141*74
$GPGGA,025225.15,3439.60370749,N,13744.65325301,E,4,08,1.0,13.546,M,38.490,M,1.1,0141*7A
$GPGGA,025225.20,3439.60372336,N,13744.65324941,E,4,08,1.0,13.553,M,38.490,M,1.2,0141*7A
$GPGGA,025225.25,3439.60373810,N,13744.65324450,E,4,08,1.0,13.565,M,38.490,M,1.3,0141*78
$GPGGA,025225.30,3439.60375249,N,13744.65324053,E,4,08,1.0,13.583,M,38.490,M,1.3,0141*73
$GPGGA,025225.35,3439.60376466,N,13744.65324212,E,4,08,1.0,13.585,M,38.490,M,1.4,0141*78
$GPGGA,025225.40,3439.60377690,N,13744.65324475,E,4,08,1.0,13.573,M,38.490,M,1.4,0141*7E
$GPGGA,025225.45,3439.60378856,N,13744.65324485,E,4,08,1.0,13.584,M,38.490,M,1.5,0141*76
$GPGGA,025225.50,3439.60379887,N,13744.65324802,E,4,08,1.0,13.584,M,38.490,M,1.5,0141*7C
$GPGGA,025225.55,3439.60381123,N,13744.65324908,E,4,08,1.0,13.592,M,38.490,M,1.5,0141*75
$GPGGA,025225.60,3439.60382479,N,13744.65324777,E,4,08,1.0,13.592,M,38.490,M,1.6,0141*7F
$GPGGA,025225.65,3439.60383894,N,13744.65324613,E,4,08,1.0,13.590,M,38.490,M,1.6,0141*75
$GPGGA,025225.70,3439.60385086,N,13744.65324386,E,4,08,1.0,13.589,M,38.490,M,1.7,0141*7C
$GPGGA,025225.75,3439.60386280,N,13744.65324505,E,4,08,1.0,13.583,M,38.490,M,1.8,0141*76
$GPGGA,025225.80,3439.60387674,N,13744.65324928,E,4,08,1.0,13.572,M,38.490,M,1.8,0141*7F
$GPGGA,025225.85,3439.60389126,N,13744.65325712,E,4,08,1.0,13.566,M,38.490,M,1.9,0141*76
$GPGGA,025225.90,3439.60390883,N,13744.65325733,E,4,08,1.0,13.570,M,38.490,M,0.9,0141*79
$GPGGA,025225.95,3439.60392274,N,13744.65326270,E,4,08,1.0,13.585,M,38.490,M,0.9,0141*77
$GPGGA,025226.00,3439.60393399,N,13744.65326894,E,4,08,1.0,13.599,M,38.490,M,1.0,0141*7E
$GPGGA,025226.05,3439.60394640,N,13744.65327096,E,4,08,1.0,13.605,M,38.490,M,1.0,0141*70
$GPGGA,025226.10,3439.60395562,N,13744.65327465,E,4,08,1.0,13.608,M,38.490,M,1.1,0141*72
$GPGGA,025226.15,3439.60396353,N,13744.65327857,E,4,08,1.0,13.613,M,38.490,M,1.1,0141*77
$GPGGA,025226.20,3439.60397357,N,13744.65328226,E,4,08,1.0,13.621,M,38.490,M,1.2,0141*75
$GPGGA,025226.25,3439.60398395,N,13744.65328480,E,4,08,1.0,13.627,M,38.490,M,1.3,0141*7C
$GPGGA,025226.30,3439.60399532,N,13744.65328755,E,4,08,1.0,13.627,M,38.490,M,1.3,0141*79
$GPGGA,025226.35,3439.60400828,N,13744.65328788,E,4,08,1.0,13.627,M,38.490,M,1.4,0141*7A
$GPGGA,025226.40,3439.60402010,N,13744.65328745,E,4,08,1.0,13.623,M,38.490,M,1.4,0141*7C
$GPGGA,025226.45,3439.60403282,N,13744.65328636,E,4,08,1.0,13.618,M,38.490,M,1.5,0141*7D
$GPGGA,025226.50,3439.60404478,N,13744.65328230,E,4,08,1.0,13.612,M,38.490,M,1.5,0141*75
$GPGGA,025226.55,3439.60405427,N,13744.65327632,E,4,08,1.0,13.603,M,38.490,M,1.5,0141*72
$GPGGA,025226.60,3439.60406334,N,13744.65326958,E,4,08,1.0,13.592,M,38.490,M,0.6,0141*79
$GPGGA,025226.65,3439.60407315,N,13744.65326068,E,4,08,1.0,13.608,M,38.490,M,0.6,0141*74
$GPGGA,025226.70,3439.60408745,N,13744.65325917,E,4,08,1.0,13.605,M,38.490,M,0.7,0141*70
$GPGGA,025226.75,3439.60410277,N,13744.65325397,E,4,08,1.0,13.608,M,38.490,M,0.8,0141*78
$GPGGA,025226.80,3439.60411825,N,13744.65325303,E,4,08,1.0,13.612,M,38.490,M,0.8,0141*78
$GPGGA,025226.85,3439.60413177,N,13744.65325547,E,4,08,1.0,13.616,M,38.490,M,0.9,0141*72
$GPGGA,025226.90,3439.60414697,N,13744.65325986,E,4,08,1.0,13.619,M,38.490,M,0.9,0141*76
$GPGGA,025226.95,3439.60416190,N,13744.65326357,E,4,08,1.0,13.621,M,38.490,M,0.9,0141*7F
$GPGGA,025227.00,3439.60417885,N,13744.65326803,E,4,08,1.0,13.619,M,38.490,M,1.0,0141*77
$GPGGA,025227.05,3439.60419527,N,13744.65327431,E,4,08,1.0,13.620,M,38.490,M,1.0,0141*7F
$GPGGA,025227.10,3439.60421150,N,13744.65328154,E,4,08,1.0,13.613,M,38.490,M,1.1,0141*7C
$GPGGA,025227.15,3439.60422677,N,13744.65329009,E,4,08,1.0,13.606,M,38.490,M,1.1,0141*74
$GPGGA,025227.20,3439.60424282,N,13744.65329885,E,4,08,1.0,13.601,M,38.490,M,1.2,0141*72
$GPGGA,025227.25,3439.60426073,N,13744.65330756,E,4,08,1.0,13.603,M,38.490,M,1.3,0141*73
$GPGGA,025227.30,3439.60428007,N,13744.65331409,E,4,08,1.0,13.627,M,38.490,M,1.3,0141*74
$GPGGA,025227.35,3439.60429781,N,13744.65332251,E,4,08,1.0,13.637,M,38.490,M,1.4,0141*77
$GPGGA,025227.40,3439.60431491,N,13744.65333490,E,4,08,1.0,13.657,M,38.490,M,1.4,0141*72
$GPGGA,025227.45,3439.60432616,N,13744.65334291,E,4,08,1.0,13.662,M,38.490,M,1.5,0141*7E
$GPGGA,025227.50,3439.60433686,N,13744.65334984,E,4,08,1.0,13.668,M,38.490,M,1.5,0141*77
$GPGGA,025227.55,3439.60434945,N,13744.65335726,E,4,08,1.0,13.665,M,38.490,M,1.5,0141*7F
$GPGGA,025227.60,3439.60437006,N,13744.65336704,E,4,08,1.0,13.703,M,38.490,M,0.6,0141*74
$GPGGA,025227.65,3439.60437981,N,13744.65337156,E,4,08,1.0,13.701,M,38.490,M,0.6,0141*75
$GPGGA,025227.70,3439.60438896,N,13744.65337422,E,4,08,1.0,13.697,M,38.490,M,0.7,0141*70
$GPGGA,025227.75,3439.60439985,N,13744.65337623,E,4,08,1.0,13.692,M,38.490,M,0.8,0141*7E
$GPGGA,025227.80,3439.60441756,N,13744.65337910,E,4,08,1.0,13.703,M,38.490,M,0.8,0141*7D
$GPGGA,025227.85,3439.60442708,N,13744.65338007,E,4,08,1.0,13.691,M,38.490,M,0.9,0141*7B
$GPGGA,025227.90,3439.60443786,N,13744.65337877,E,4,08,1.0,13.684,M,38.490,M,0.9,0141*7C
$GPGGA,025227.95,3439.60444850,N,13744.65337476,E,4,08,1.0,13.675,M,38.490,M,0.9,0141*79
$GPGGA,025228.00,3439.60446113,N,13744.65337055,E,4,08,1.0,13.670,M,38.490,M,1.0,0141*7E
$GPGGA,025228.05,3439.60447376,N,13744.65336751,E,4,08,1.0,13.673,M,38.490,M,1.0,0141*7A
$GPGGA,025228.10,3439.60448425,N,13744.65336915,E,4,08,1.0,13.678,M,38.490,M,1.1,0141*74
$GPGGA,025228.15,3439.60449498,N,13744.65336707,E,4,08,1.0,13.680,M,38.490,M,1.1,0141*7C
$GPGGA,025228.20,3439.60450530,N,13744.65336673,E,4,08,1.0,13.674,M,38.490,M,1.2,0141*7B
$GPGGA,025228.25,3439.60451900,N,13744.65336779,E,4,08,1.0,13.673,M,38.490,M,1.3,0141*7D
$GPGGA,025228.30,3439.60453473,N,13744.65337166,E,4,08,1.0,13.681,M,38.490,M,1.3,0141*76
$GPGGA,025228.35,3439.60455087,N,13744.65337734,E,4,08,1.0,13.687,M,38.490,M,1.4,0141*7A
$GPGGA,025228.40,3439.60456810,N,13744.65338449,E,4,08,1.0,13.682,M,38.490,M,1.4,0141*7E
$GPGGA,025228.45,3439.60458093,N,13744.65339374,E,4,08,1.0,13.682,M,38.490,M,1.5,0141*7F
$GPGGA,025228.50,3439.60459325,N,13744.65340464,E,4,08,1.0,13.667,M,38.490,M,1.5,0141*77
$GPGGA,025228.55,3439.60460808,N,13744.65341748,E,4,08,1.0,13.650,M,38.490,M,1.5,0141*74
$GPGGA,025228.60,3439.60462289,N,13744.65343288,E,4,08,1.0,13.644,M,38.490,M,1.6,0141*7E
$GPGGA,025228.65,3439.60463963,N,13744.65344217,E,4,08,1.0,13.633,M,38.490,M,1.6,0141*74
$GPGGA,025228.70,3439.60465453,N,13744.65345020,E,4,08,1.0,13.633,M,38.490,M,1.7,0141*7E
$GPGGA,025228.75,3439.60467344,N,13744.65346556,E,4,08,1.0,13.654,M,38.490,M,0.8,0141*70
$GPGGA,025228.80,3439.60469278,N,13744.65347356,E,4,08,1.0,13.666,M,38.490,M,0.8,0141*7C
$GPGGA,025228.85,3439.60471207,N,13744.65348585,E,4,08,1.0,13.684,M,38.490,M,0.9,0141*72
$GPGGA,025228.90,3439.60473160,N,13744.65349694,E,4,08,1.0,13.696,M,38.490,M,0.9,0141*77
$GPGGA,025228.95,3439.60475109,N,13744.65350476,E,4,08,1.0,13.693,M,38.490,M,0.9,0141*78
$GPGGA,025229.00,3439.60476523,N,13744.65350892,E,4,08,1.0,13.697,M,38.490,M,1.0,0141*70
$GPGGA,025229.05,3439.60478245,N,13744.65351770,E,4,08,1.0,13.700,M,38.490,M,1.0,0141*71
$GPGGA,025229.10,3439.60480005,N,13744.65352099,E,4,08,1.0,13.693,M,38.490,M,1.1,0141*7D
$GPGGA,025229.15,3439.60481956,N,13744.65352647,E,4,08,1.0,13.694,M,38.490,M,1.1,0141*74
$GPGGA,025229.20,3439.60483894,N,13744.65353128,E,4,08,1.0,13.686,M,38.490,M,1.2,0141*70
$GPGGA,025229.25,3439.60485169,N,13744.65353353,E,4,08,1.0,13.680,M,38.490,M,1.3,0141*71
$GPGGA,025229.30,3439.60486665,N,13744.65352818,E,4,08,1.0,13.672,M,38.490,M,1.3,0141*75
$GPGGA,025229.35,3439.60488033,N,13744.65352311,E,4,08,1.0,13.656,M,38.490,M,1.4,0141*78
$GPGGA,025229.40,3439.60489566,N,13744.65352718,E,4,08,1.0,13.665,M,38.490,M,1.4,0141*73
$GPGGA,025229.45,3439.60490746,N,13744.65353289,E,4,08,1.0,13.680,M,38.490,M,1.5,0141*78
$GPGGA,025229.50,3439.60492123,N,13744.65353446,E,4,08,1.0,13.692,M,38.490,M,1.5,0141*7D
$GPGGA,025229.55,3439.60493393,N,13744.65354698,E,4,08,1.0,13.696,M,38.490,M,1.5,0141*72
$GPGGA,025229.60,3439.60494910,N,13744.65354581,E,4,08,1.0,13.698,M,38.490,M,1.6,0141*74
$GPGGA,025229.65,3439.60496171,N,13744.65355458,E,4,08,1.0,13.701,M,38.490,M,1.6,0141*79
$GPGGA,025229.70,3439.60497464,N,13744.65355460,E,4,08,1.0,13.706,M,38.490,M,1.7,0141*70
$GPGGA,025229.75,3439.60498592,N,13744.65355932,E,4,08,1.0,13.706,M,38.490,M,1.8,0141*77
$GPGGA,025229.80,3439.60499446,N,13744.65356655,E,4,08,1.0,13.703,M,38.490,M,1.8,0141*7C
$GPGGA,025229.85,3439.60500696,N,13744.65357278,E,4,08,1.0,13.701,M,38.490,M,1.9,0141*7E
$GPGGA,025229.90,3439.60502122,N,13744.65357805,E,4,08,1.0,13.699,M,38.490,M,1.9,0141*70
$GPGGA,025229.95,3439.60502977,N,13744.65358850,E,4,08,1.0,13.697,M,38.490,M,2.0,0141*76
$GPGGA,025230.00,3439.60504200,N,13744.65359886,E,4,08,1.0,13.698,M,38.490,M,2.0,0141*7A
$GPGGA,025230.05,3439.60505402,N,13744.65360902,E,4,08,1.0,13.697,M,38.490,M,2.0,0141*72
$GPGGA,025230.10,3439.60506400,N,13744.65362382,E,4,08,1.0,13.696,M,38.490,M,2.1,0141*77
$GPGGA,025230.15,3439.60507499,N,13744.65363752,E,4,08,1.0,13.718,M,38.490,M,2.2,0141*7F
$GPGGA,025230.20,3439.60508998,N,13744.65365010,E,4,08,1.0,13.749,M,38.490,M,2.2,0141*79
$GPGGA,025230.25,3439.60510012,N,13744.65366861,E,4,08,1.0,13.759,M,38.490,M,2.3,0141*73
$GPGGA,025230.30,3439.60511078,N,13744.65367630,E,4,08,1.0,13.773,M,38.490,M,2.3,0141*79
$GPGGA,025230.35,3439.60511968,N,13744.65369041,E,4,08,1.0,13.765,M,38.490,M,2.3,0141*7D
$GPGGA,025230.40,3439.60512721,N,13744.65370537,E,4,08,1.0,13.774,M,38.490,M,2.4,0141*74
$GPGGA,025230.45,3439.60513828,N,13744.65371503,E,4,08,1.0,13.783,M,38.490,M,2.5,0141*79
$GPGGA,025230.50,3439.60514705,N,13744.65372337,E,4,08,1.0,13.788,M,38.490,M,2.5,0141*73
$GPGGA,025230.55,3439.60515573,N,13744.65373069,E,4,08,1.0,13.787,M,38.490,M,2.5,0141*72
$GPGGA,025230.60,3439.60516361,N,13744.65373543,E,4,08,1.0,13.788,M,38.490,M,2.6,0141*73
$GPGGA,025230.65,3439.60517292,N,13744.65374003,E,4,08,1.0,13.789,M,38.490,M,2.7,0141*7C
$GPGGA,025230.70,3439.60518449,N,13744.65374392,E,4,08,1.0,13.788,M,38.490,M,2.7,0141*7D
$GPGGA,025230.75,3439.60519466,N,13744.65374524,E,4,08,1.0,13.782,M,38.490,M,2.8,0141*7A
$GPGGA,025230.80,3439.60520300,N,13744.65374680,E,4,08,1.0,13.786,M,38.490,M,1.8,0141*77
$GPGGA,025230.85,3439.60521505,N,13744.65374689,E,4,08,1.0,13.783,M,38.490,M,1.9,0141*7D
$GPGGA,025230.90,3439.60522727,N,13744.65374421,E,4,08,1.0,13.782,M,38.490,M,1.9,0141*79
$GPGGA,025230.95,3439.60523738,N,13744.65374112,E,4,08,1.0,13.778,M,38.490,M,2.0,0141*79
$GPGGA,025231.00,3439.60525115,N,13744.65374011,E,4,08,1.0,13.777,M,38.490,M,2.0,0141*76
$GPGGA,025231.05,3439.60526411,N,13744.65374207,E,4,08,1.0,13.779,M,38.490,M,2.0,0141*7A
$GPGGA,025231.10,3439.60527693,N,13744.65374532,E,4,08,1.0,13.788,M,38.490,M,2.1,0141*79
$GPGGA,025231.15,3439.60528730,N,13744.65374956,E,4,08,1.0,13.795,M,38.490,M,2.2,0141*7A
$GPGGA,025231.20,3439.60529777,N,13744.65374958,E,4,08,1.0,13.780,M,38.490,M,1.2,0141*77
$GPGGA,025231.25,3439.60531164,N,13744.65375144,E,4,08,1.0,13.777,M,38.490,M,1.3,0141*72
$GPGGA,025231.30,3439.60532503,N,13744.65375442,E,4,08,1.0,13.773,M,38.490,M,1.3,0141*77
$GPGGA,025231.35,3439.60533871,N,13744.65375846,E,4,08,1.0,13.776,M,38.490,M,1.4,0141*71
$GPGGA,025231.40,3439.60535401,N,13744.65376225,E,4,08,1.0,13.783,M,38.490,M,1.4,0141*78
$GPGGA,025231.45,3439.60536526,N,13744.65376399,E,4,08,1.0,13.786,M,38.490,M,1.5,0141*78
$GPGGA,025231.50,3439.60537845,N,13744.65376542,E,4,08,1.0,13.786,M,38.490,M,1.5,0141*75
$GPGGA,025231.55,3439.60539582,N,13744.65376742,E,4,08,1.0,13.788,M,38.490,M,1.5,0141*74
$GPGGA,025231.60,3439.60541604,N,13744.65377480,E,4,08,1.0,13.787,M,38.490,M,1.6,0141*70
$GPGGA,025231.65,3439.60543496,N,13744.65378356,E,4,08,1.0,13.782,M,38.490,M,1.6,0141*78
$GPGGA,025231.70,3439.60544892,N,13744.65379239,E,4,08,1.0,13.777,M,38.490,M,1.7,0141*71
$GPGGA,025231.75,3439.60546379,N,13744.65380238,E,4,08,1.0,13.773,M,38.490,M,1.8,0141*74
$GPGGA,025231.80,3439.60548276,N,13744.65380606,E,4,08,1.0,13.790,M,38.490,M,1.8,0141*7A
$GPGGA,025231.85,3439.60550314,N,13744.65381033,E,4,08,1.0,13.800,M,38.490,M,1.9,0141*75
$GPGGA,025231.90,3439.60551815,N,13744.65382199,E,4,08,1.0,13.818,M,38.490,M,1.9,0141*71
$GPGGA,025231.95,3439.60553942,N,13744.65381991,E,4,08,1.0,13.802,M,38.490,M,2.0,0141*77
$GPGGA,025232.00,3439.60554969,N,13744.65382773,E,4,08,1.0,13.817,M,38.490,M,2.0,0141*73
$GPGGA,025232.05,3439.60556255,N,13744.65382809,E,4,08,1.0,13.832,M,38.490,M,1.0,0141*76
$GPGGA,025232.10,3439.60557654,N,13744.65383161,E,4,08,1.0,13.839,M,38.490,M,1.1,0141*7A
$GPGGA,025232.15,3439.60558850,N,13744.65383216,E,4,08,1.0,13.842,M,38.490,M,1.1,0141*75
$GPGGA,025232.20,3439.60560364,N,13744.65383042,E,4,08,1.0,13.844,M,38.490,M,1.2,0141*72
$GPGGA,025232.25,3439.60561987,N,13744.65382944,E,4,08,1.0,13.846,M,38.490,M,1.3,0141*7C
$GPGGA,025232.30,3439.60563437,N,13744.65382910,E,4,08,1.0,13.838,M,38.490,M,1.3,0141*74
$GPGGA,025232.35,3439.60565031,N,13744.65382692,E,4,08,1.0,13.838,M,38.490,M,1.4,0141*77
$GPGGA,025232.40,3439.60566744,N,13744.65382253,E,4,08,1.0,13.834,M,38.490,M,1.4,0141*76
$GPGGA,025232.45,3439.60568404,N,13744.65381745,E,4,08,1.0,13.835,M,38.490,M,1.5,0141*7B
$GPGGA,025232.50,3439.60569990,N,13744.65381119,E,4,08,1.0,13.835,M,38.490,M,1.5,0141*71
$GPGGA,025232.55,3439.60571549,N,13744.65380656,E,4,08,1.0,13.839,M,38.490,M,1.5,0141*74
$GPGGA,025232.60,3439.60573085,N,13744.65379914,E,4,08,1.0,13.855,M,38.490,M,1.6,0141*73
$GPGGA,025232.65,3439.60574553,N,13744.65379717,E,4,08,1.0,13.867,M,38.490,M,1.6,0141*73
$GPGGA,025232.70,3439.60575731,N,13744.65379785,E,4,08,1.0,13.875,M,38.490,M,1.7,0141*79
$GPGGA,025232.75,3439.60576870,N,13744.65380213,E,4,08,1.0,13.867,M,38.490,M,1.8,0141*75
$GPGGA,025232.80,3439.60577970,N,13744.65380347,E,4,08,1.0,13.863,M,38.490,M,1.8,0141*7B
$GPGGA,025232.85,3439.60580051,N,13744.65380230,E,4,08,1.0,13.885,M,38.490,M,1.9,0141*74
$GPGGA,025232.90,3439.60580921,N,13744.65379710,E,4,08,1.0,13.864,M,38.490,M,1.9,0141*70
$GPGGA,025232.95,3439.60582490,N,13744.65379678,E,4,08,1.0,13.865,M,38.490,M,2.0,0141*74
$GPGGA,025233.00,3439.60584597,N,13744.65379401,E,4,08,1.0,13.883,M,38.490,M,2.0,0141*7D
$GPGGA,025233.05,3439.60586256,N,13744.65379252,E,4,08,1.0,13.887,M,38.490,M,2.0,0141*74
$GPGGA,025233.10,3439.60588130,N,13744.65379448,E,4,08,1.0,13.886,M,38.490,M,2.1,0141*70
$GPGGA,025233.15,3439.60589810,N,13744.65379748,E,4,08,1.0,13.880,M,38.490,M,2.2,0141*79
$GPGGA,025233.20,3439.60591106,N,13744.65380482,E,4,08,1.0,13.870,M,38.490,M,2.2,0141*74
$GPGGA,025233.25,3439.60592159,N,13744.65381557,E,4,08,1.0,13.880,M,38.490,M,2.3,0141*7E
$GPGGA,025233.30,3439.60593769,N,13744.65381986,E,4,08,1.0,13.888,M,38.490,M,2.3,0141*76
$GPGGA,025233.35,3439.60595036,N,13744.65382547,E,4,08,1.0,13.893,M,38.490,M,2.3,0141*70
$GPGGA,025233.40,3439.60596404,N,13744.65382737,E,4,08,1.0,13.902,M,38.490,M,2.4,0141*7F
$GPGGA,025233.45,3439.60597824,N,13744.65383010,E,4,08,1.0,13.901,M,38.490,M,2.5,0141*74
$GPGGA,025233.50,3439.60599138,N,13744.65383279,E,4,08,1.0,13.912,M,38.490,M,2.5,0141*75
$GPGGA,025233.55,3439.60600100,N,13744.65383347,E,4,08,1.0,13.916,M,38.490,M,2.5,0141*70
$GPGGA,025233.60,3439.60601487,N,13744.65383322,E,4,08,1.0,13.905,M,38.490,M,2.6,0141*7F
$GPGGA,025233.65,3439.60602816,N,13744.65382915,E,4,08,1.0,13.903,M,38.490,M,2.7,0141*75
$GPGGA,025233.70,3439.60604212,N,13744.65382414,E,4,08,1.0,13.905,M,38.490,M,2.7,0141*73
$GPGGA,025233.75,3439.60605553,N,13744.65381876,E,4,08,1.0,13.899,M,38.490,M,2.8,0141*75
$GPGGA,025233.80,3439.60606718,N,13744.65381364,E,4,08,1.0,13.893,M,38.490,M,2.8,0141*73
$GPGGA,025233.85,3439.60607928,N,13744.65380469,E,4,08,1.0,13.855,M,38.490,M,1.9,0141*79
$GPGGA,025233.90,3439.60608864,N,13744.65379420,E,4,08,1.0,13.855,M,38.490,M,1.9,0141*70
$GPGGA,025233.95,3439.60610368,N,13744.65378430,E,4,08,1.0,13.845,M,38.490,M,2.0,0141*70
$GPGGA,025234.00,3439.60611659,N,13744.65377393,E,4,08,1.0,13.854,M,38.490,M,2.0,0141*7C
$GPGGA,025234.05,3439.60613586,N,13744.65376589,E,4,08,1.0,13.856,M,38.490,M,2.0,0141*74
$GPGGA,025234.10,3439.60615743,N,13744.65375863,E,4,08,1.0,13.859,M,38.490,M,2.1,0141*79
$GPGGA,025234.15,3439.60617925,N,13744.65375105,E,4,08,1.0,13.866,M,38.490,M,2.2,0141*76
$GPGGA,025234.20,3439.60619812,N,13744.65374381,E,4,08,1.0,13.860,M,38.490,M,2.2,0141*72
$GPGGA,025234.25,3439.60621013,N,13744.65373392,E,4,08,1.0,13.848,M,38.490,M,2.3,0141*7B
$GPGGA,025234.30,3439.60622278,N,13744.65372312,E,4,08,1.0,13.847,M,38.490,M,2.3,0141*75
$GPGGA,025234.35,3439.60622543,N,13744.65371441,E,4,08,1.0,13.843,M,38.490,M,1.4,0141*7D
$GPGGA,025234.40,3439.60623698,N,13744.65370405,E,4,08,1.0,13.848,M,38.490,M,1.4,0141*71
$GPGGA,025234.45,3439.60625061,N,13744.65369187,E,4,08,1.0,13.855,M,38.490,M,1.5,0141*78
