$GPGGA,044419.15,3439.65211883,N,13744.68264287,E,4,08,1.1,10.045,M,38.490,M,2.2,0012*7B
$GPGGA,044419.20,3439.65211829,N,13744.68264409,E,4,08,1.1,10.042,M,38.490,M,2.2,0012*7A
$GPGGA,044419.25,3439.65211861,N,13744.68264288,E,4,08,1.1,10.044,M,38.490,M,2.3,0012*7B
$GPGGA,044419.30,3439.65211808,N,13744.68264312,E,4,08,1.1,10.044,M,38.490,M,2.3,0012*72
$GPGGA,044419.35,3439.65211770,N,13744.68264343,E,4,08,1.1,10.043,M,38.490,M,2.3,0012*74
$GPGGA,044419.40,3439.65211685,N,13744.68264212,E,4,08,1.1,10.045,M,38.490,M,2.4,0012*79
$GPGGA,044419.45,3439.65211654,N,13744.68264273,E,4,08,1.1,10.042,M,38.490,M,2.5,0012*71
$GPGGA,044419.50,3439.65211649,N,13744.68264146,E,4,08,1.1,10.041,M,38.490,M,2.5,0012*7F
$GPGGA,044419.55,3439.65211542,N,13744.68264093,E,4,08,1.1,10.041,M,38.490,M,2.5,0012*7B
$GPGGA,044419.60,3439.65211473,N,13744.68264241,E,4,08,1.1,10.044,M,38.490,M,2.6,0012*75
$GPGGA,044419.65,3439.65211430,N,13744.68264148,E,4,08,1.1,10.045,M,38.490,M,2.7,0012*7D
$GPGGA,044419.70,3439.65211309,N,13744.68264053,E,4,08,1.1,10.037,M,38.490,M,2.7,0012*7A
$GPGGA,044419.75,3439.65211236,N,13744.68263977,E,4,08,1.1,10.041,M,38.490,M,2.8,0012*74
$GPGGA,044419.80,3439.65211264,N,13744.68263753,E,4,08,1.1,10.048,M,38.490,M,2.8,0012*78
$GPGGA,044419.85,3439.65211033,N,13744.68263705,E,4,08,1.1,10.048,M,38.490,M,2.8,0012*7E
$GPGGA,044419.90,3439.65210819,N,13744.68263798,E,4,08,1.1,10.050,M,38.490,M,2.9,0012*77
$GPGGA,044419.95,3439.65210696,N,13744.68263919,E,4,08,1.1,10.047,M,38.490,M,3.0,0012*72
$GPGGA,044420.00,3439.65210593,N,13744.68264015,E,4,08,1.1,10.040,M,38.490,M,3.0,0012*77
$GPGGA,044420.05,3439.65210302,N,13744.68264244,E,4,08,1.1,10.052,M,38.490,M,3.0,0012*79
$GPGGA,044420.10,3439.65210246,N,13744.68264211,E,4,08,1.1,10.047,M,38.490,M,3.1,0012*79
$GPGGA,044420.15,3439.65210153,N,13744.68264141,E,4,08,1.1,10.048,M,38.490,M,3.2,0012*71
$GPGGA,044420.20,3439.65209536,N,13744.68263899,E,4,08,1.1,10.044,M,38.490,M,2.2,0012*7E
$GPGGA,044420.25,3439.65209701,N,13744.68263720,E,4,08,1.1,10.043,M,38.490,M,2.3,0012*76
$GPGGA,044420.30,3439.65209593,N,13744.68263498,E,4,08,1.1,10.052,M,38.490,M,2.3,0012*7B
$GPGGA,044420.35,3439.65209394,N,13744.68263058,E,4,08,1.1,10.053,M,38.490,M,2.3,0012*76
$GPGGA,044420.40,3439.65209220,N,13744.68262659,E,4,08,1.1,10.053,M,38.490,M,2.4,0012*7B
$GPGGA,044420.45,3439.65208985,N,13744.68262227,E,4,08,1.1,10.053,M,38.490,M,2.5,0012*77
$GPGGA,044420.50,3439.65208659,N,13744.68261546,E,4,08,1.1,10.050,M,38.490,M,2.5,0012*7D
$GPGGA,044420.55,3439.65208343,N,13744.68260762,E,4,08,1.1,10.057,M,38.490,M,2.5,0012*74
$GPGGA,044420.60,3439.65207914,N,13744.68260202,E,4,08,1.1,10.061,M,38.490,M,2.6,0012*70
$GPGGA,044420.65,3439.65207627,N,13744.68259500,E,4,08,1.1,10.061,M,38.490,M,1.6,0012*76
$GPGGA,044420.70,3439.65207147,N,13744.68258598,E,4,08,1.1,10.062,M,38.490,M,1.7,0012*71
$GPGGA,044420.75,3439.65207454,N,13744.68257601,E,4,08,1.1,10.066,M,38.490,M,1.8,0012*74
$GPGGA,044420.80,3439.65206460,N,13744.68256596,E,4,08,1.1,10.072,M,38.490,M,1.8,0012*71
$GPGGA,044420.85,3439.65206143,N,13744.68255652,E,4,08,1.1,10.069,M,38.490,M,1.9,0012*73
$GPGGA,044420.90,3439.65205952,N,13744.68254847,E,4,08,1.1,10.067,M,38.490,M,1.9,0012*79
$GPGGA,044420.95,3439.65205811,N,13744.68253792,E,4,08,1.1,10.071,M,38.490,M,2.0,0012*77
$GPGGA,044421.00,3439.65205729,N,13744.68252783,E,4,08,1.1,10.077,M,38.490,M,2.0,0012*79
$GPGGA,044421.05,3439.65205552,N,13744.68252138,E,4,08,1.1,10.081,M,38.490,M,2.0,0012*7D
$GPGGA,044421.10,3439.65205443,N,13744.68251351,E,4,08,1.1,10.077,M,38.490,M,1.1,0012*7D
$GPGGA,044421.15,3439.65205640,N,13744.68250602,E,4,08,1.1,10.079,M,38.490,M,1.1,0012*75
$GPGGA,044421.20,3439.65206046,N,13744.68249980,E,4,08,1.1,10.076,M,38.490,M,1.2,0012*71
$GPGGA,044421.25,3439.65206681,N,13744.68249458,E,4,08,1.1,10.071,M,38.490,M,1.3,0012*77
$GPGGA,044421.30,3439.65207235,N,13744.68248784,E,4,08,1.1,10.070,M,38.490,M,1.3,0012*7B
$GPGGA,044421.35,3439.65208180,N,13744.68248183,E,4,08,1.1,10.067,M,38.490,M,1.4,0012*7C
$GPGGA,044421.40,3439.65209194,N,13744.68247846,E,4,08,1.1,10.064,M,38.490,M,1.4,0012*76
$GPGGA,044421.45,3439.65210072,N,13744.68247311,E,4,08,1.1,10.061,M,38.490,M,1.5,0012*7F
$GPGGA,044421.50,3439.65211048,N,13744.68246718,E,4,08,1.1,10.064,M,38.490,M,1.5,0012*7A
$GPGGA,044421.55,3439.65211941,N,13744.68246048,E,4,08,1.1,10.067,M,38.490,M,1.5,0012*7E
$GPGGA,044421.60,3439.65212468,N,13744.68245344,E,4,08,1.1,10.061,M,38.490,M,1.6,0012*74
$GPGGA,044421.65,3439.65212892,N,13744.68244630,E,4,08,1.1,10.051,M,38.490,M,1.6,0012*7C
$GPGGA,044421.70,3439.65213192,N,13744.68243868,E,4,08,1.1,10.045,M,38.490,M,1.7,0012*70
$GPGGA,044421.75,3439.65213788,N,13744.68242716,E,4,08,1.1,10.050,M,38.490,M,1.8,0012*74
$GPGGA,044421.80,3439.65214335,N,13744.68241204,E,4,08,1.1,10.054,M,38.490,M,1.8,0012*7A
$GPGGA,044421.85,3439.65214702,N,13744.68239582,E,4,08,1.1,10.050,M,38.490,M,1.9,0012*7C
$GPGGA,044421.90,3439.65215079,N,13744.68237904,E,4,08,1.1,10.047,M,38.490,M,1.9,0012*78
$GPGGA,044421.95,3439.65215129,N,13744.68236325,E,4,08,1.1,10.044,M,38.490,M,2.0,0012*78
$GPGGA,044422.00,3439.65215050,N,13744.68234832,E,4,08,1.1,10.037,M,38.490,M,2.0,0012*73
$GPGGA,044422.05,3439.65214675,N,13744.68233426,E,4,08,1.1,10.028,M,38.490,M,1.0,0012*75
$GPGGA,044422.10,3439.65214647,N,13744.68232102,E,4,08,1.1,10.042,M,38.490,M,1.1,0012*7F
$GPGGA,044422.15,3439.65214865,N,13744.68230243,E,4,08,1.1,10.048,M,38.490,M,1.1,0012*7A
$GPGGA,044422.20,3439.65214681,N,13744.68228314,E,4,08,1.1,10.048,M,38.490,M,1.2,0012*71
$GPGGA,044422.25,3439.65214974,N,13744.68226424,E,4,08,1.1,10.046,M,38.490,M,1.3,0012*74
$GPGGA,044422.30,3439.65215583,N,13744.68225064,E,4,08,1.1,10.044,M,38.490,M,1.3,0012*74
$GPGGA,044422.35,3439.65216200,N,13744.68223964,E,4,08,1.1,10.040,M,38.490,M,1.4,0012*72
$GPGGA,044422.40,3439.65216257,N,13744.68222761,E,4,08,1.1,10.054,M,38.490,M,1.4,0012*7D
$GPGGA,044422.45,3439.65216400,N,13744.68221290,E,4,08,1.1,10.046,M,38.490,M,1.5,0012*76
$GPGGA,044422.50,3439.65216589,N,13744.68219503,E,4,08,1.1,10.050,M,38.490,M,1.5,0012*73
$GPGGA,044422.55,3439.65216837,N,13744.68218312,E,4,08,1.1,10.059,M,38.490,M,1.5,0012*70
$GPGGA,044422.60,3439.65217197,N,13744.68217138,E,4,08,1.1,10.054,M,38.490,M,1.6,0012*7F
$GPGGA,044422.65,3439.65217370,N,13744.68215847,E,4,08,1.1,10.046,M,38.490,M,1.6,0012*71
$GPGGA,044422.70,3439.65217838,N,13744.68214457,E,4,08,1.1,10.040,M,38.490,M,1.7,0012*79
$GPGGA,044422.75,3439.65218492,N,13744.68213284,E,4,08,1.1,10.033,M,38.490,M,1.8,0012*7B
$GPGGA,044422.80,3439.65219242,N,13744.68212072,E,4,08,1.1,10.024,M,38.490,M,1.8,0012*77
$GPGGA,044422.85,3439.65220156,N,13744.68210734,E,4,08,1.1,10.022,M,38.490,M,1.9,0012*7E
$GPGGA,044422.90,3439.65220780,N,13744.68209175,E,4,08,1.1,10.019,M,38.490,M,1.9,0012*74
$GPGGA,044422.95,3439.65221314,N,13744.68207732,E,4,08,1.1,10.037,M,38.490,M,2.0,0012*74
$GPGGA,044423.00,3439.65221167,N,13744.68206048,E,4,08,1.1,10.062,M,38.490,M,2.0,0012*74
$GPGGA,044423.05,3439.65221579,N,13744.68205079,E,4,08,1.1,10.052,M,38.490,M,1.0,0012*7B
$GPGGA,044423.10,3439.65221829,N,13744.68203738,E,4,08,1.1,10.053,M,38.490,M,1.1,0012*73
$GPGGA,044423.15,3439.65221828,N,13744.68202285,E,4,08,1.1,10.059,M,38.490,M,1.1,0012*7F
$GPGGA,044423.20,3439.65221726,N,13744.68200953,E,4,08,1.1,10.064,M,38.490,M,1.2,0012*77
$GPGGA,044423.25,3439.65221882,N,13744.68199191,E,4,08,1.1,10.070,M,38.490,M,1.3,0012*72
$GPGGA,044423.30,3439.65221789,N,13744.68197533,E,4,08,1.1,10.067,M,38.490,M,1.3,0012*76
$GPGGA,044423.35,3439.65221846,N,13744.68195352,E,4,08,1.1,10.065,M,38.490,M,1.4,0012*79
$GPGGA,044423.40,3439.65221771,N,13744.68193004,E,4,08,1.1,10.060,M,38.490,M,1.4,0012*73
$GPGGA,044423.45,3439.65221340,N,13744.68191165,E,4,08,1.1,10.055,M,38.490,M,1.5,0012*73
$GPGGA,044423.50,3439.65220916,N,13744.68189400,E,4,08,1.1,10.051,M,38.490,M,1.5,0012*74
$GPGGA,044423.55,3439.65220556,N,13744.68187372,E,4,08,1.1,10.042,M,38.490,M,1.5,0012*77
$GPGGA,044423.60,3439.65220888,N,13744.68185408,E,4,08,1.1,10.033,M,38.490,M,1.6,0012*72
$GPGGA,044423.65,3439.65220772,N,13744.68183573,E,4,08,1.1,10.028,M,38.490,M,1.6,0012*7C
$GPGGA,044423.70,3439.65220628,N,13744.68181780,E,4,08,1.1,10.037,M,38.490,M,1.7,0012*75
$GPGGA,044423.75,3439.65220150,N,13744.68180018,E,4,08,1.1,10.057,M,38.490,M,1.8,0012*76
$GPGGA,044423.80,3439.65220289,N,13744.68178452,E,4,08,1.1,10.058,M,38.490,M,1.8,0012*79
$GPGGA,044423.85,3439.65220385,N,13744.68176807,E,4,08,1.1,10.066,M,38.490,M,1.9,0012*7F
$GPGGA,044423.90,3439.65220747,N,13744.68175741,E,4,08,1.1,10.046,M,38.490,M,0.9,0012*7C
$GPGGA,044423.95,3439.65220746,N,13744.68174377,E,4,08,1.1,10.035,M,38.490,M,0.9,0012*7C
$GPGGA,044424.00,3439.65220813,N,13744.68172867,E,4,08,1.1,10.031,M,38.490,M,1.0,0012*78
$GPGGA,044424.05,3439.65221256,N,13744.68171389,E,4,08,1.1,10.021,M,38.490,M,1.0,0012*7E
$GPGGA,044424.10,3439.65221901,N,13744.68170000,E,4,08,1.1,10.011,M,38.490,M,1.1,0012*72
$GPGGA,044424.15,3439.65222702,N,13744.68168526,E,4,08,1.1,10.013,M,38.490,M,1.1,0012*73
$GPGGA,044424.20,3439.65223589,N,13744.68167000,E,4,08,1.1,10.008,M,38.490,M,1.2,0012*72
$GPGGA,044424.25,3439.65224433,N,13744.68165300,E,4,08,1.1,10.000,M,38.490,M,1.3,0012*78
$GPGGA,044424.30,3439.65225515,N,13744.68163820,E,4,08,1.1,9.992,M,38.490,M,1.3,0012*4D
$GPGGA,044424.35,3439.65226538,N,13744.68162530,E,4,08,1.1,10.003,M,38.490,M,1.4,0012*77
$GPGGA,044424.40,3439.65227670,N,13744.68161298,E,4,08,1.1,10.003,M,38.490,M,1.4,0012*7D
$GPGGA,044424.45,3439.65228361,N,13744.68160177,E,4,08,1.1,10.009,M,38.490,M,1.5,0012*7A
$GPGGA,044424.50,3439.65229049,N,13744.68158971,E,4,08,1.1,10.003,M,38.490,M,1.5,0012*79
$GPGGA,044424.55,3439.65229449,N,13744.68157882,E,4,08,1.1,10.007,M,38.490,M,1.5,0012*7E
$GPGGA,044424.60,3439.65229993,N,13744.68156452,E,4,08,1.1,10.001,M,38.490,M,1.6,0012*77
$GPGGA,044424.65,3439.65230573,N,13744.68155054,E,4,08,1.1,9.998,M,38.490,M,1.6,0012*48
$GPGGA,044424.70,3439.65231379,N,13744.68153591,E,4,08,1.1,10.001,M,38.490,M,1.7,0012*7B
$GPGGA,044424.75,3439.65232148,N,13744.68152107,E,4,08,1.1,10.002,M,38.490,M,1.8,0012*7B
$GPGGA,044424.80,3439.65233052,N,13744.68150722,E,4,08,1.1,10.001,M,38.490,M,1.8,0012*7A
$GPGGA,044424.85,3439.65234283,N,13744.68149311,E,4,08,1.1,10.005,M,38.490,M,1.9,0012*7F
$GPGGA,044424.90,3439.65235296,N,13744.68147624,E,4,08,1.1,9.998,M,38.490,M,1.9,0012*46
$GPGGA,044424.95,3439.65236259,N,13744.68145868,E,4,08,1.1,9.990,M,38.490,M,2.0,0012*45
$GPGGA,044425.00,3439.65236895,N,13744.68143778,E,4,08,1.1,9.974,M,38.490,M,2.0,0012*40
$GPGGA,044425.05,3439.65237629,N,13744.68141744,E,4,08,1.1,9.966,M,38.490,M,2.0,0012*43
$GPGGA,044425.10,3439.65238047,N,13744.68140677,E,4,08,1.1,9.983,M,38.490,M,2.1,0012*4C
$GPGGA,044425.15,3439.65239112,N,13744.68139566,E,4,08,1.1,9.980,M,38.490,M,2.2,0012*44
$GPGGA,044425.20,3439.65240048,N,13744.68138265,E,4,08,1.1,9.975,M,38.490,M,2.2,0012*4D
$GPGGA,044425.25,3439.65240986,N,13744.68137166,E,4,08,1.1,9.985,M,38.490,M,2.3,0012*42
$GPGGA,044425.30,3439.65242164,N,13744.68136047,E,4,08,1.1,9.982,M,38.490,M,2.3,0012*44
$GPGGA,044425.35,3439.65243205,N,13744.68135286,E,4,08,1.1,9.989,M,38.490,M,2.3,0012*43
$GPGGA,044425.40,3439.65244167,N,13744.68134820,E,4,08,1.1,9.987,M,38.490,M,2.4,0012*4F
$GPGGA,044425.45,3439.65244848,N,13744.68134213,E,4,08,1.1,9.985,M,38.490,M,2.5,0012*47
$GPGGA,044425.50,3439.65245652,N,13744.68133798,E,4,08,1.1,9.980,M,38.490,M,2.5,0012*43
$GPGGA,044425.55,3439.65246759,N,13744.68133306,E,4,08,1.1,9.981,M,38.490,M,2.5,0012*4D
$GPGGA,044425.60,3439.65247733,N,13744.68132933,E,4,08,1.1,9.986,M,38.490,M,2.6,0012*4F
$GPGGA,044425.65,3439.65248853,N,13744.68132676,E,4,08,1.1,9.983,M,38.490,M,2.7,0012*46
$GPGGA,044425.70,3439.65249496,N,13744.68132532,E,4,08,1.1,9.999,M,38.490,M,2.7,0012*4E
$GPGGA,044425.75,3439.65250513,N,13744.68132682,E,4,08,1.1,10.004,M,38.490,M,2.8,0012*7D
$GPGGA,044425.80,3439.65251104,N,13744.68133117,E,4,08,1.1,10.032,M,38.490,M,2.8,0012*7B
$GPGGA,044425.85,3439.65252818,N,13744.68133400,E,4,08,1.1,10.008,M,38.490,M,2.8,0012*73
$GPGGA,044425.90,3439.65255041,N,13744.68134058,E,4,08,1.1,9.968,M,38.490,M,2.9,0012*4C
$GPGGA,044425.95,3439.65255937,N,13744.68134047,E,4,08,1.1,9.943,M,38.490,M,2.0,0012*4F
$GPGGA,044426.00,3439.65256542,N,13744.68135703,E,4,08,1.1,9.980,M,38.490,M,2.0,0012*44
$GPGGA,044426.05,3439.65257543,N,13744.68136380,E,4,08,1.1,9.974,M,38.490,M,2.0,0012*46
$GPGGA,044426.10,3439.65259278,N,13744.68137150,E,4,08,1.1,9.981,M,38.490,M,2.1,0012*46
$GPGGA,044426.15,3439.65260327,N,13744.68137368,E,4,08,1.1,9.983,M,38.490,M,2.2,0012*4A
$GPGGA,044426.20,3439.65261244,N,13744.68137696,E,4,08,1.1,9.988,M,38.490,M,2.2,0012*46
$GPGGA,044426.25,3439.65261983,N,13744.68138231,E,4,08,1.1,9.986,M,38.490,M,2.3,0012*4A
$GPGGA,044426.30,3439.65262905,N,13744.68138813,E,4,08,1.1,9.987,M,38.490,M,2.3,0012*48
$GPGGA,044426.35,3439.65263578,N,13744.68139479,E,4,08,1.1,9.992,M,38.490,M,1.4,0012*4B
$GPGGA,044426.40,3439.65264655,N,13744.68139908,E,4,08,1.1,9.992,M,38.490,M,1.4,0012*49
$GPGGA,044426.45,3439.65265779,N,13744.68140291,E,4,08,1.1,9.989,M,38.490,M,1.5,0012*4C
$GPGGA,044426.50,3439.65267025,N,13744.68140500,E,4,08,1.1,9.988,M,38.490,M,1.5,0012*4A
$GPGGA,044426.55,3439.65268449,N,13744.68140663,E,4,08,1.1,9.987,M,38.490,M,1.5,0012*47
$GPGGA,044426.60,3439.65269828,N,13744.68140902,E,4,08,1.1,9.988,M,38.490,M,1.6,0012*4F
$GPGGA,044426.65,3439.65271174,N,13744.68141305,E,4,08,1.1,9.978,M,38.490,M,1.6,0012*40
$GPGGA,044426.70,3439.65272875,N,13744.68141423,E,4,08,1.1,9.976,M,38.490,M,1.7,0012*43
$GPGGA,044426.75,3439.65274498,N,13744.68141273,E,4,08,1.1,9.979,M,38.490,M,1.8,0012*4C
$GPGGA,044426.80,3439.65275147,N,13744.68141749,E,4,08,1.1,9.976,M,38.490,M,1.8,0012*43
$GPGGA,044426.85,3439.65276949,N,13744.68141391,E,4,08,1.1,9.979,M,38.490,M,1.9,0012*4C
$GPGGA,044426.90,3439.65278211,N,13744.68141724,E,4,08,1.1,9.980,M,38.490,M,1.9,0012*4C
$GPGGA,044426.95,3439.65279306,N,13744.68142282,E,4,08,1.1,9.982,M,38.490,M,2.0,0012*4D
$GPGGA,044427.00,3439.65280491,N,13744.68142908,E,4,08,1.1,9.983,M,38.490,M,2.0,0012*47
$GPGGA,044427.05,3439.65281649,N,13744.68143787,E,4,08,1.1,9.979,M,38.490,M,2.0,0012*49
$GPGGA,044427.10,3439.65282866,N,13744.68144551,E,4,08,1.1,9.979,M,38.490,M,2.1,0012*42
$GPGGA,044427.15,3439.65284702,N,13744.68144971,E,4,08,1.1,9.982,M,38.490,M,1.1,0012*45
$GPGGA,044427.20,3439.65286224,N,13744.68145445,E,4,08,1.1,9.983,M,38.490,M,1.2,0012*49
$GPGGA,044427.25,3439.65287894,N,13744.68146352,E,4,08,1.1,9.979,M,38.490,M,1.3,0012*4A
$GPGGA,044427.30,3439.65289433,N,13744.68147208,E,4,08,1.1,9.983,M,38.490,M,1.3,0012*4B
$GPGGA,044427.35,3439.65291270,N,13744.68147933,E,4,08,1.1,9.984,M,38.490,M,1.4,0012*45
$GPGGA,044427.40,3439.65293108,N,13744.68148964,E,4,08,1.1,9.981,M,38.490,M,1.4,0012*41
$GPGGA,044427.45,3439.65294559,N,13744.68150148,E,4,08,1.1,9.971,M,38.490,M,1.5,0012*42
$GPGGA,044427.50,3439.65295999,N,13744.68151140,E,4,08,1.1,9.960,M,38.490,M,1.5,0012*4E
$GPGGA,044427.55,3439.65297448,N,13744.68152233,E,4,08,1.1,9.966,M,38.490,M,1.5,0012*4A
$GPGGA,044427.60,3439.65299399,N,13744.68152862,E,4,08,1.1,9.982,M,38.490,M,1.6,0012*4E
$GPGGA,044427.65,3439.65300984,N,13744.68153444,E,4,08,1.1,9.984,M,38.490,M,1.6,0012*43
$GPGGA,044427.70,3439.65302462,N,13744.68154206,E,4,08,1.1,9.994,M,38.490,M,1.7,0012*47
$GPGGA,044427.75,3439.65303957,N,13744.68154667,E,4,08,1.1,9.990,M,38.490,M,1.8,0012*40
$GPGGA,044427.80,3439.65305656,N,13744.68155054,E,4,08,1.1,9.995,M,38.490,M,1.8,0012*40
$GPGGA,044427.85,3439.65306896,N,13744.68155520,E,4,08,1.1,9.989,M,38.490,M,1.9,0012*4E
$GPGGA,044427.90,3439.65308292,N,13744.68156094,E,4,08,1.1,9.988,M,38.490,M,1.9,0012*42
$GPGGA,044427.95,3439.65309753,N,13744.68156643,E,4,08,1.1,9.985,M,38.490,M,2.0,0012*45
$GPGGA,044428.00,3439.65311212,N,13744.68156880,E,4,08,1.1,9.987,M,38.490,M,2.0,0012*4C
$GPGGA,044428.05,3439.65312691,N,13744.68156785,E,4,08,1.1,9.990,M,38.490,M,2.0,0012*49
$GPGGA,044428.10,3439.65314511,N,13744.68156731,E,4,08,1.1,9.983,M,38.490,M,2.1,0012*4C
$GPGGA,044428.15,3439.65316261,N,13744.68156470,E,4,08,1.1,9.984,M,38.490,M,2.2,0012*49
$GPGGA,044428.20,3439.65317688,N,13744.68156055,E,4,08,1.1,9.987,M,38.490,M,2.2,0012*4D
$GPGGA,044428.25,3439.65319050,N,13744.68155768,E,4,08,1.1,9.976,M,38.490,M,2.3,0012*40
$GPGGA,044428.30,3439.65320740,N,13744.68154897,E,4,08,1.1,9.971,M,38.490,M,2.3,0012*41
$GPGGA,044428.35,3439.65322163,N,13744.68154149,E,4,08,1.1,9.960,M,38.490,M,2.3,0012*4B
$GPGGA,044428.40,3439.65323829,N,13744.68153748,E,4,08,1.1,9.966,M,38.490,M,2.4,0012*4E
$GPGGA,044428.45,3439.65325600,N,13744.68153306,E,4,08,1.1,9.961,M,38.490,M,2.5,0012*40
$GPGGA,044428.50,3439.65327153,N,13744.68153087,E,4,08,1.1,9.969,M,38.490,M,2.5,0012*45
$GPGGA,044428.55,3439.65328676,N,13744.68152963,E,4,08,1.1,9.971,M,38.490,M,2.5,0012*44
$GPGGA,044428.60,3439.65330003,N,13744.68152669,E,4,08,1.1,9.968,M,38.490,M,2.6,0012*41
$GPGGA,044428.65,3439.65331306,N,13744.68152626,E,4,08,1.1,9.974,M,38.490,M,2.7,0012*44
$GPGGA,044428.70,3439.65332861,N,13744.68152474,E,4,08,1.1,9.978,M,38.490,M,2.7,0012*40
$GPGGA,044428.75,3439.65334549,N,13744.68152112,E,4,08,1.1,9.980,M,38.490,M,2.8,0012*49
$GPGGA,044428.80,3439.65336113,N,13744.68151899,E,4,08,1.1,9.982,M,38.490,M,2.8,0012*41
$GPGGA,044428.85,3439.65337868,N,13744.68151664,E,4,08,1.1,9.983,M,38.490,M,2.8,0012*4D
$GPGGA,044428.90,3439.65339242,N,13744.68151002,E,4,08,1.1,10.007,M,38.490,M,2.9,0012*7F
$GPGGA,044428.95,3439.65340844,N,13744.68150542,E,4,08,1.1,10.005,M,38.490,M,2.0,0012*73
$GPGGA,044429.00,3439.65342279,N,13744.68150229,E,4,08,1.1,10.005,M,38.490,M,2.0,0012*72
$GPGGA,044429.05,3439.65344078,N,13744.68150053,E,4,08,1.1,10.001,M,38.490,M,2.0,0012*79
$GPGGA,044429.10,3439.65346270,N,13744.68149707,E,4,08,1.1,10.002,M,38.490,M,2.1,0012*79
$GPGGA,044429.15,3439.65348154,N,13744.68149845,E,4,08,1.1,9.986,M,38.490,M,2.2,0012*40
$GPGGA,044429.20,3439.65349718,N,13744.68149336,E,4,08,1.1,10.020,M,38.490,M,2.2,0012*7B
$GPGGA,044429.25,3439.65352211,N,13744.68148749,E,4,08,1.1,10.041,M,38.490,M,2.3,0012*73
$GPGGA,044429.30,3439.65353033,N,13744.68148626,E,4,08,1.1,10.021,M,38.490,M,2.3,0012*7A
$GPGGA,044429.35,3439.65354910,N,13744.68148669,E,4,08,1.1,10.034,M,38.490,M,2.3,0012*7F
$GPGGA,044429.40,3439.65356482,N,13744.68148570,E,4,08,1.1,10.021,M,38.490,M,2.4,0012*71
$GPGGA,044429.45,3439.65358414,N,13744.68148315,E,4,08,1.1,10.019,M,38.490,M,1.5,0012*79
$GPGGA,044429.50,3439.65360188,N,13744.68148166,E,4,08,1.1,10.024,M,38.490,M,1.5,0012*7E
$GPGGA,044429.55,3439.65361729,N,13744.68147839,E,4,08,1.1,10.029,M,38.490,M,1.5,0012*76
$GPGGA,044429.60,3439.65363447,N,13744.68147284,E,4,08,1.1,10.027,M,38.490,M,1.6,0012*78
$GPGGA,044429.65,3439.65365540,N,13744.68146577,E,4,08,1.1,10.017,M,38.490,M,1.6,0012*74
$GPGGA,044429.70,3439.65367345,N,13744.68146003,E,4,08,1.1,10.006,M,38.490,M,1.7,0012*76
$GPGGA,044429.75,3439.65368906,N,13744.68145503,E,4,08,1.1,9.996,M,38.490,M,1.8,0012*40
$GPGGA,044429.80,3439.65370781,N,13744.68144878,E,4,08,1.1,9.987,M,38.490,M,1.8,0012*42
$GPGGA,044429.85,3439.65373182,N,13744.68144636,E,4,08,1.1,9.955,M,38.490,M,0.9,0012*4A
$GPGGA,044429.90,3439.65374983,N,13744.68144349,E,4,08,1.1,9.972,M,38.490,M,0.9,0012*48
$GPGGA,044429.95,3439.65376662,N,13744.68143805,E,4,08,1.1,9.973,M,38.490,M,0.9,0012*4A
$GPGGA,044430.00,3439.65378175,N,13744.68143473,E,4,08,1.1,9.979,M,38.490,M,1.0,0012*4E
$GPGGA,044430.05,3439.65379565,N,13744.68143282,E,4,08,1.1,9.982,M,38.490,M,1.0,0012*43
$GPGGA,044430.10,3439.65381194,N,13744.68142862,E,4,08,1.1,9.991,M,38.490,M,1.1,0012*4C
$GPGGA,044430.15,3439.65382900,N,13744.68142458,E,4,08,1.1,9.997,M,38.490,M,1.1,0012*4C
$GPGGA,044430.20,3439.65384671,N,13744.68142409,E,4,08,1.1,9.995,M,38.490,M,1.2,0012*40
$GPGGA,044430.25,3439.65386352,N,13744.68142604,E,4,08,1.1,9.988,M,38.490,M,1.3,0012*41
$GPGGA,044430.30,3439.65388236,N,13744.68142660,E,4,08,1.1,9.982,M,38.490,M,1.3,0012*40
$GPGGA,044430.35,3439.65390258,N,13744.68142648,E,4,08,1.1,9.975,M,38.490,M,1.4,0012*41
$GPGGA,044430.40,3439.65392260,N,13744.68142745,E,4,08,1.1,9.964,M,38.490,M,1.4,0012*46
$GPGGA,044430.45,3439.65394189,N,13744.68143280,E,4,08,1.1,9.957,M,38.490,M,1.5,0012*4D
$GPGGA,044430.50,3439.65396214,N,13744.68144049,E,4,08,1.1,9.946,M,38.490,M,1.5,0012*4C
$GPGGA,044430.55,3439.65398290,N,13744.68144714,E,4,08,1.1,9.946,M,38.490,M,1.5,0012*44
$GPGGA,044430.60,3439.65399443,N,13744.68144432,E,4,08,1.1,9.980,M,38.490,M,1.6,0012*45
$GPGGA,044430.65,3439.65401711,N,13744.68144353,E,4,08,1.1,9.948,M,38.490,M,1.6,0012*46
$GPGGA,044430.70,3439.65403569,N,13744.68144649,E,4,08,1.1,9.970,M,38.490,M,1.7,0012*49
$GPGGA,044430.75,3439.65405289,N,13744.68144930,E,4,08,1.1,9.966,M,38.490,M,1.8,0012*4A
$GPGGA,044430.80,3439.65407515,N,13744.68145288,E,4,08,1.1,9.971,M,38.490,M,1.8,0012*4F
$GPGGA,044430.85,3439.65409502,N,13744.68145404,E,4,08,1.1,9.963,M,38.490,M,1.9,0012*42
$GPGGA,044430.90,3439.65411791,N,13744.68145696,E,4,08,1.1,9.958,M,38.490,M,0.9,0012*47
$GPGGA,044430.95,3439.65413618,N,13744.68146233,E,4,08,1.1,9.969,M,38.490,M,0.9,0012*4A
$GPGGA,044431.00,3439.65415472,N,13744.68146297,E,4,08,1.1,9.969,M,38.490,M,1.0,0012*49
$GPGGA,044431.05,3439.65417298,N,13744.68146043,E,4,08,1.1,9.964,M,38.490,M,1.0,0012*4A
$GPGGA,044431.10,3439.65419323,N,13744.68146142,E,4,08,1.1,9.958,M,38.490,M,1.1,0012*4F
$GPGGA,044431.15,3439.65421433,N,13744.68146057,E,4,08,1.1,9.955,M,38.490,M,1.1,0012*4F
$GPGGA,044431.20,3439.65423632,N,13744.68146053,E,4,08,1.1,9.946,M,38.490,M,1.2,0012*4D
$GPGGA,044431.25,3439.65425294,N,13744.68145972,E,4,08,1.1,9.946,M,38.490,M,1.3,0012*4E
$GPGGA,044431.30,3439.65427044,N,13744.68145705,E,4,08,1.1,9.955,M,38.490,M,1.3,0012*4B
$GPGGA,044431.35,3439.65429054,N,13744.68145629,E,4,08,1.1,9.961,M,38.490,M,1.4,0012*4E
$GPGGA,044431.40,3439.65430925,N,13744.68145495,E,4,08,1.1,9.959,M,38.490,M,1.4,0012*45
$GPGGA,044431.45,3439.65432998,N,13744.68145967,E,4,08,1.1,9.970,M,38.490,M,1.5,0012*4E
$GPGGA,044431.50,3439.65433713,N,13744.68146448,E,4,08,1.1,9.958,M,38.490,M,1.5,0012*4F
$GPGGA,044431.55,3439.65435225,N,13744.68146874,E,4,08,1.1,9.962,M,38.490,M,1.5,0012*46
$GPGGA,044431.60,3439.65437063,N,13744.68146925,E,4,08,1.1,9.964,M,38.490,M,1.6,0012*42
$GPGGA,044431.65,3439.65438833,N,13744.68147291,E,4,08,1.1,9.966,M,38.490,M,1.6,0012*42
$GPGGA,044431.70,3439.65440455,N,13744.68147650,E,4,08,1.1,9.964,M,38.490,M,1.7,0012*4F
$GPGGA,044431.75,3439.65442108,N,13744.68148403,E,4,08,1.1,9.952,M,38.490,M,1.8,0012*44
$GPGGA,044431.80,3439.65443687,N,13744.68149115,E,4,08,1.1,9.947,M,38.490,M,1.8,0012*48
$GPGGA,044431.85,3439.65445631,N,13744.68149824,E,4,08,1.1,9.941,M,38.490,M,1.9,0012*4A
$GPGGA,044431.90,3439.65447413,N,13744.68150719,E,4,08,1.1,9.933,M,38.490,M,1.9,0012*42
$GPGGA,044431.95,3439.65449221,N,13744.68151523,E,4,08,1.1,9.932,M,38.490,M,2.0,0012*4F
$GPGGA,044432.00,3439.65451004,N,13744.68152282,E,4,08,1.1,9.927,M,38.490,M,2.0,0012*47
$GPGGA,044432.05,3439.65452509,N,13744.68152789,E,4,08,1.1,9.936,M,38.490,M,1.0,0012*44
$GPGGA,044432.10,3439.65454085,N,13744.68153336,E,4,08,1.1,9.942,M,38.490,M,1.1,0012*44
$GPGGA,044432.15,3439.65455817,N,13744.68153859,E,4,08,1.1,9.949,M,38.490,M,1.1,0012*4A
$GPGGA,044432.20,3439.65457097,N,13744.68154566,E,4,08,1.1,9.947,M,38.490,M,1.2,0012*45
$GPGGA,044432.25,3439.65459033,N,13744.68155050,E,4,08,1.1,9.956,M,38.490,M,1.3,0012*40
$GPGGA,044432.30,3439.65460485,N,13744.68155773,E,4,08,1.1,9.959,M,38.490,M,1.3,0012*4E
$GPGGA,044432.35,3439.65462373,N,13744.68156180,E,4,08,1.1,9.967,M,38.490,M,1.4,0012*44
$GPGGA,044432.40,3439.65463983,N,13744.68156613,E,4,08,1.1,9.968,M,38.490,M,1.4,0012*40
$GPGGA,044432.45,3439.65465539,N,13744.68157006,E,4,08,1.1,9.966,M,38.490,M,1.5,0012*42
$GPGGA,044432.50,3439.65467013,N,13744.68157310,E,4,08,1.1,9.957,M,38.490,M,1.5,0012*4F
$GPGGA,044432.55,3439.65468607,N,13744.68157684,E,4,08,1.1,9.952,M,38.490,M,1.5,0012*4B
$GPGGA,044432.60,3439.65470232,N,13744.68157817,E,4,08,1.1,9.950,M,38.490,M,1.6,0012*43
$GPGGA,044432.65,3439.65471895,N,13744.68157747,E,4,08,1.1,9.939,M,38.490,M,1.6,0012*45
$GPGGA,044432.70,3439.65473929,N,13744.68157705,E,4,08,1.1,9.934,M,38.490,M,1.7,0012*4F
$GPGGA,044432.75,3439.65475657,N,13744.68158041,E,4,08,1.1,9.940,M,38.490,M,1.8,0012*4E
$GPGGA,044432.80,3439.65477159,N,13744.68158253,E,4,08,1.1,9.934,M,38.490,M,1.8,0012*4D
$GPGGA,044432.85,3439.65479167,N,13744.68158506,E,4,08,1.1,9.937,M,38.490,M,1.9,0012*4E
$GPGGA,044432.90,3439.65480894,N,13744.68158761,E,4,08,1.1,9.940,M,38.490,M,1.9,0012*4A
$GPGGA,044432.95,3439.65482671,N,13744.68159144,E,4,08,1.1,9.941,M,38.490,M,2.0,0012*43
$GPGGA,044433.00,3439.65484366,N,13744.68159661,E,4,08,1.1,9.946,M,38.490,M,2.0,0012*4C
$GPGGA,044433.05,3439.65485881,N,13744.68160155,E,4,08,1.1,9.947,M,38.490,M,2.0,0012*41
$GPGGA,044433.10,3439.65487446,N,13744.68160696,E,4,08,1.1,9.942,M,38.490,M,1.1,0012*4F
$GPGGA,044433.15,3439.65489280,N,13744.68160930,E,4,08,1.1,9.947,M,38.490,M,1.1,0012*4E
$GPGGA,044433.20,3439.65491225,N,13744.68161279,E,4,08,1.1,9.948,M,38.490,M,1.2,0012*45
$GPGGA,044433.25,3439.65492989,N,13744.68161937,E,4,08,1.1,9.944,M,38.490,M,1.3,0012*42
$GPGGA,044433.30,3439.65494801,N,13744.68162877,E,4,08,1.1,9.934,M,38.490,M,1.3,0012*40
$GPGGA,044433.35,3439.65496915,N,13744.68163656,E,4,08,1.1,9.937,M,38.490,M,1.4,0012*4B
$GPGGA,044433.40,3439.65498940,N,13744.68164578,E,4,08,1.1,9.935,M,38.490,M,1.4,0012*4D
$GPGGA,044433.45,3439.65500538,N,13744.68165763,E,4,08,1.1,9.920,M,38.490,M,1.5,0012*47
$GPGGA,044433.50,3439.65502291,N,13744.68166437,E,4,08,1.1,9.913,M,38.490,M,1.5,0012*44
$GPGGA,044433.55,3439.65504807,N,13744.68166897,E,4,08,1.1,9.916,M,38.490,M,1.5,0012*41
$GPGGA,044433.60,3439.65506247,N,13744.68167690,E,4,08,1.1,9.924,M,38.490,M,1.6,0012*41
$GPGGA,044433.65,3439.65507500,N,13744.68168133,E,4,08,1.1,9.927,M,38.490,M,1.6,0012*43
$GPGGA,044433.70,3439.65508852,N,13744.68168876,E,4,08,1.1,9.922,M,38.490,M,1.7,0012*4E
$GPGGA,044433.75,3439.65510323,N,13744.68169424,E,4,08,1.1,9.921,M,38.490,M,1.8,0012*49
$GPGGA,044433.80,3439.65512144,N,13744.68169500,E,4,08,1.1,9.935,M,38.490,M,1.8,0012*40
$GPGGA,044433.85,3439.65513820,N,13744.68169735,E,4,08,1.1,9.941,M,38.490,M,1.9,0012*49
$GPGGA,044433.90,3439.65516006,N,13744.68169889,E,4,08,1.1,9.945,M,38.490,M,1.9,0012*48
$GPGGA,044433.95,3439.65516802,N,13744.68170169,E,4,08,1.1,9.938,M,38.490,M,2.0,0012*4E
$GPGGA,044434.00,3439.65518232,N,13744.68170271,E,4,08,1.1,9.937,M,38.490,M,2.0,0012*47
$GPGGA,044434.05,3439.65519452,N,13744.68170187,E,4,08,1.1,9.932,M,38.490,M,1.0,0012*4F
$GPGGA,044434.10,3439.65520762,N,13744.68170047,E,4,08,1.1,9.926,M,38.490,M,1.1,0012*48
$GPGGA,044434.15,3439.65522257,N,13744.68169854,E,4,08,1.1,9.922,M,38.490,M,1.1,0012*4A
$GPGGA,044434.20,3439.65523965,N,13744.68169458,E,4,08,1.1,9.923,M,38.490,M,1.2,0012*45
$GPGGA,044434.25,3439.65525577,N,13744.68169146,E,4,08,1.1,9.912,M,38.490,M,1.3,0012*40
$GPGGA,044434.30,3439.65527217,N,13744.68168659,E,4,08,1.1,9.914,M,38.490,M,1.3,0012*49
$GPGGA,044434.35,3439.65529094,N,13744.68168920,E,4,08,1.1,9.928,M,38.490,M,1.4,0012*42
$GPGGA,044434.40,3439.65530972,N,13744.68168643,E,4,08,1.1,9.935,M,38.490,M,1.4,0012*4F
$GPGGA,044434.45,3439.65532542,N,13744.68168331,E,4,08,1.1,9.923,M,38.490,M,1.5,0012*41
$GPGGA,044434.50,3439.65533737,N,13744.68167853,E,4,08,1.1,9.922,M,38.490,M,1.5,0012*45
$GPGGA,044434.55,3439.65535050,N,13744.68168032,E,4,08,1.1,9.931,M,38.490,M,1.5,0012*42
$GPGGA,044434.60,3439.65536261,N,13744.68167966,E,4,08,1.1,9.925,M,38.490,M,1.6,0012*46
$GPGGA,044434.65,3439.65538091,N,13744.68168016,E,4,08,1.1,9.936,M,38.490,M,1.6,0012*43
$GPGGA,044434.70,3439.65538413,N,13744.68167867,E,4,08,1.1,9.938,M,38.490,M,1.7,0012*47
$GPGGA,044434.75,3439.65539468,N,13744.68167626,E,4,08,1.1,9.939,M,38.490,M,1.8,0012*4A
$GPGGA,044434.80,3439.65541128,N,13744.68167369,E,4,08,1.1,9.938,M,38.490,M,1.8,0012*41
$GPGGA,044434.85,3439.65542943,N,13744.68167250,E,4,08,1.1,9.942,M,38.490,M,1.9,0012*45
$GPGGA,044434.90,3439.65544387,N,13744.68167209,E,4,08,1.1,9.938,M,38.490,M,1.9,0012*44
$GPGGA,044434.95,3439.65546120,N,13744.68166796,E,4,08,1.1,9.936,M,38.490,M,0.9,0012*41
$GPGGA,044435.00,3439.65547840,N,13744.68166594,E,4,08,1.1,9.935,M,38.490,M,1.0,0012*49
$GPGGA,044435.05,3439.65549179,N,13744.68166424,E,4,08,1.1,9.927,M,38.490,M,1.0,0012*48
$GPGGA,044435.10,3439.65550781,N,13744.68166339,E,4,08,1.1,9.919,M,38.490,M,1.1,0012*42
$GPGGA,044435.15,3439.65552320,N,13744.68166443,E,4,08,1.1,9.915,M,38.490,M,1.1,0012*4C
$GPGGA,044435.20,3439.65554126,N,13744.68165799,E,4,08,1.1,9.927,M,38.490,M,1.2,0012*4D
$GPGGA,044435.25,3439.65555503,N,13744.68165837,E,4,08,1.1,9.929,M,38.490,M,1.3,0012*4E
$GPGGA,044435.30,3439.65557029,N,13744.68165859,E,4,08,1.1,9.943,M,38.490,M,1.3,0012*41
$GPGGA,044435.35,3439.65558628,N,13744.68165226,E,4,08,1.1,9.935,M,38.490,M,1.4,0012*48
$GPGGA,044435.40,3439.65560218,N,13744.68164895,E,4,08,1.1,9.943,M,38.490,M,1.4,0012*44
$GPGGA,044435.45,3439.65561638,N,13744.68164664,E,4,08,1.1,9.945,M,38.490,M,1.5,0012*41
$GPGGA,044435.50,3439.65562968,N,13744.68164409,E,4,08,1.1,9.946,M,38.490,M,1.5,0012*46
$GPGGA,044435.55,3439.65564376,N,13744.68163818,E,4,08,1.1,9.950,M,38.490,M,1.5,0012*4C
$GPGGA,044435.60,3439.65566121,N,13744.68162958,E,4,08,1.1,9.944,M,38.490,M,1.6,0012*4A
$GPGGA,044435.65,3439.65567458,N,13744.68162351,E,4,08,1.1,9.933,M,38.490,M,1.6,0012*46
$GPGGA,044435.70,3439.65568677,N,13744.68161378,E,4,08,1.1,9.935,M,38.490,M,1.7,0012*4D
$GPGGA,044435.75,3439.65569942,N,13744.68160398,E,4,08,1.1,9.932,M,38.490,M,1.8,0012*47
$GPGGA,044435.80,3439.65571190,N,13744.68159309,E,4,08,1.1,9.923,M,38.490,M,1.8,0012*41
$GPGGA,044435.85,3439.65572669,N,13744.68158011,E,4,08,1.1,9.913,M,38.490,M,1.9,0012*4F
$GPGGA,044435.90,3439.65574031,N,13744.68156437,E,4,08,1.1,9.916,M,38.490,M,1.9,0012*4D
$GPGGA,044435.95,3439.65575607,N,13744.68154811,E,4,08,1.1,9.928,M,38.490,M,2.0,0012*47
$GPGGA,044436.00,3439.65577404,N,13744.68153278,E,4,08,1.1,9.931,M,38.490,M,2.0,0012*41
$GPGGA,044436.05,3439.65578966,N,13744.68152334,E,4,08,1.1,9.943,M,38.490,M,2.0,0012*4F
$GPGGA,044436.10,3439.65580150,N,13744.68151326,E,4,08,1.1,9.944,M,38.490,M,2.1,0012*47
$GPGGA,044436.15,3439.65581189,N,13744.68150246,E,4,08,1.1,9.945,M,38.490,M,2.2,0012*43
$GPGGA,044436.20,3439.65582438,N,13744.68148966,E,4,08,1.1,9.937,M,38.490,M,2.2,0012*4C
$GPGGA,044436.25,3439.65583558,N,13744.68148063,E,4,08,1.1,9.938,M,38.490,M,2.3,0012*4D
$GPGGA,044436.30,3439.65584801,N,13744.68146912,E,4,08,1.1,9.946,M,38.490,M,2.3,0012*47
$GPGGA,044436.35,3439.65586286,N,13744.68145485,E,4,08,1.1,9.954,M,38.490,M,2.3,0012*46
$GPGGA,044436.40,3439.65587707,N,13744.68143909,E,4,08,1.1,9.950,M,38.490,M,1.4,0012*46
$GPGGA,044436.45,3439.65589192,N,13744.68142773,E,4,08,1.1,9.949,M,38.490,M,1.5,0012*4C
$GPGGA,044436.50,3439.65590816,N,13744.68141694,E,4,08,1.1,9.944,M,38.490,M,1.5,0012*43
$GPGGA,044436.55,3439.65592514,N,13744.68140598,E,4,08,1.1,9.934,M,38.490,M,1.5,0012*42
$GPGGA,044436.60,3439.65593696,N,13744.68139917,E,4,08,1.1,9.914,M,38.490,M,1.6,0012*48
$GPGGA,044436.65,3439.65595151,N,13744.68139515,E,4,08,1.1,9.918,M,38.490,M,1.6,0012*45
$GPGGA,044436.70,3439.65596674,N,13744.68137855,E,4,08,1.1,9.930,M,38.490,M,1.7,0012*4E
$GPGGA,044436.75,3439.65597908,N,13744.68137135,E,4,08,1.1,9.927,M,38.490,M,1.8,0012*48
$GPGGA,044436.80,3439.65599297,N,13744.68135743,E,4,08,1.1,9.944,M,38.490,M,1.8,0012*41
$GPGGA,044436.85,3439.65600591,N,13744.68134345,E,4,08,1.1,9.942,M,38.490,M,1.9,0012*42
$GPGGA,044436.90,3439.65602075,N,13744.68133120,E,4,08,1.1,9.945,M,38.490,M,1.9,0012*4A
$GPGGA,044436.95,3439.65603435,N,13744.68132093,E,4,08,1.1,9.937,M,38.490,M,0.9,0012*42
$GPGGA,044437.00,3439.65604488,N,13744.68131149,E,4,08,1.1,9.930,M,38.490,M,1.0,0012*44
$GPGGA,044437.05,3439.65605530,N,13744.68129908,E,4,08,1.1,9.927,M,38.490,M,1.0,0012*40
$GPGGA,044437.10,3439.65606552,N,13744.68128290,E,4,08,1.1,9.929,M,38.490,M,1.1,0012*47
$GPGGA,044437.15,3439.65607683,N,13744.68126488,E,4,08,1.1,9.924,M,38.490,M,1.1,0012*40
$GPGGA,044437.20,3439.65608682,N,13744.68124779,E,4,08,1.1,9.922,M,38.490,M,1.2,0012*42
$GPGGA,044437.25,3439.65609657,N,13744.68123154,E,4,08,1.1,9.918,M,38.490,M,1.3,0012*48
$GPGGA,044437.30,3439.65610352,N,13744.68121451,E,4,08,1.1,9.909,M,38.490,M,1.3,0012*46
$GPGGA,044437.35,3439.65610979,N,13744.68119709,E,4,08,1.1,9.900,M,38.490,M,1.4,0012*4B
$GPGGA,044437.40,3439.65612217,N,13744.68117872,E,4,08,1.1,9.890,M,38.490,M,1.4,0012*4D
$GPGGA,044437.45,3439.65613673,N,13744.68116132,E,4,08,1.1,9.887,M,38.490,M,1.5,0012*44
$GPGGA,044437.50,3439.65614552,N,13744.68114356,E,4,08,1.1,9.894,M,38.490,M,1.5,0012*47
$GPGGA,044437.55,3439.65615677,N,13744.68112833,E,4,08,1.1,9.899,M,38.490,M,1.5,0012*44
$GPGGA,044437.60,3439.65616758,N,13744.68111617,E,4,08,1.1,9.902,M,38.490,M,1.6,0012*46
$GPGGA,044437.65,3439.65617441,N,13744.68110389,E,4,08,1.1,9.917,M,38.490,M,1.6,0012*4E
$GPGGA,044437.70,3439.65618377,N,13744.68108952,E,4,08,1.1,9.917,M,38.490,M,1.7,0012*43
$GPGGA,044437.75,3439.65619356,N,13744.68107401,E,4,08,1.1,9.912,M,38.490,M,1.8,0012*4A
$GPGGA,044437.80,3439.65620458,N,13744.68105987,E,4,08,1.1,9.909,M,38.490,M,1.8,0012*48
$GPGGA,044437.85,3439.65621637,N,13744.68104505,E,4,08,1.1,9.910,M,38.490,M,1.9,0012*49
$GPGGA,044437.90,3439.65622694,N,13744.68102974,E,4,08,1.1,9.898,M,38.490,M,1.9,0012*4A
$GPGGA,044437.95,3439.65623939,N,13744.68101261,E,4,08,1.1,9.887,M,38.490,M,0.9,0012*45
$GPGGA,044438.00,3439.65624998,N,13744.68099756,E,4,08,1.1,9.882,M,38.490,M,1.0,0012*46
$GPGGA,044438.05,3439.65626189,N,13744.68098297,E,4,08,1.1,9.871,M,38.490,M,1.0,0012*4C
$GPGGA,044438.10,3439.65627531,N,13744.68096997,E,4,08,1.1,9.858,M,38.490,M,1.1,0012*41
$GPGGA,044438.15,3439.65628798,N,13744.68095861,E,4,08,1.1,9.874,M,38.490,M,1.1,0012*4F
$GPGGA,044438.20,3439.65630046,N,13744.68094387,E,4,08,1.1,9.870,M,38.490,M,1.2,0012*41
$GPGGA,044438.25,3439.65631189,N,13744.68092740,E,4,08,1.1,9.869,M,38.490,M,1.3,0012*47
$GPGGA,044438.30,3439.65632104,N,13744.68091276,E,4,08,1.1,9.870,M,38.490,M,1.3,0012*4E
$GPGGA,044438.35,3439.65633260,N,13744.68089742,E,4,08,1.1,9.869,M,38.490,M,1.4,0012*4F
$GPGGA,044438.40,3439.65634527,N,13744.68088574,E,4,08,1.1,9.872,M,38.490,M,1.4,0012*42
$GPGGA,044438.45,3439.65635672,N,13744.68087444,E,4,08,1.1,9.872,M,38.490,M,1.5,0012*49
$GPGGA,044438.50,3439.65636655,N,13744.68086203,E,4,08,1.1,9.879,M,38.490,M,1.5,0012*44
$GPGGA,044438.55,3439.65637614,N,13744.68084853,E,4,08,1.1,9.883,M,38.490,M,1.5,0012*4D
$GPGGA,044438.60,3439.65638550,N,13744.68083461,E,4,08,1.1,9.876,M,38.490,M,1.6,0012*44
$GPGGA,044438.65,3439.65639603,N,13744.68082056,E,4,08,1.1,9.876,M,38.490,M,1.6,0012*44
$GPGGA,044438.70,3439.65640898,N,13744.68080474,E,4,08,1.1,9.872,M,38.490,M,1.7,0012*41
$GPGGA,044438.75,3439.65642248,N,13744.68078611,E,4,08,1.1,9.867,M,38.490,M,0.8,0012*4D
$GPGGA,044438.80,3439.65643330,N,13744.68076813,E,4,08,1.1,9.862,M,38.490,M,0.8,0012*4F
$GPGGA,044438.85,3439.65644429,N,13744.68074989,E,4,08,1.1,9.854,M,38.490,M,0.9,0012*46
$GPGGA,044438.90,3439.65645549,N,13744.68073336,E,4,08,1.1,9.853,M,38.490,M,0.9,0012*4A
$GPGGA,044438.95,3439.65646798,N,13744.68071661,E,4,08,1.1,9.842,M,38.490,M,0.9,0012*47
$GPGGA,044439.00,3439.65647836,N,13744.68070361,E,4,08,1.1,9.858,M,38.490,M,1.0,0012*47
$GPGGA,044439.05,3439.65648718,N,13744.68069229,E,4,08,1.1,9.856,M,38.490,M,1.0,0012*45
$GPGGA,044439.10,3439.65650031,N,13744.68068222,E,4,08,1.1,9.849,M,38.490,M,1.1,0012*41
$GPGGA,044439.15,3439.65651296,N,13744.68067133,E,4,08,1.1,9.849,M,38.490,M,1.1,0012*46
$GPGGA,044439.20,3439.65652246,N,13744.68065923,E,4,08,1.1,9.852,M,38.490,M,1.2,0012*4C
$GPGGA,044439.25,3439.65652747,N,13744.68064663,E,4,08,1.1,9.867,M,38.490,M,1.3,0012*40
$GPGGA,044439.30,3439.65653575,N,13744.68063272,E,4,08,1.1,9.861,M,38.490,M,1.3,0012*43
$GPGGA,044439.35,3439.65654476,N,13744.68062075,E,4,08,1.1,9.859,M,38.490,M,1.4,0012*4B
$GPGGA,044439.40,3439.65655447,N,13744.68061113,E,4,08,1.1,9.859,M,38.490,M,1.4,0012*48
$GPGGA,044439.45,3439.65656387,N,13744.68060157,E,4,08,1.1,9.860,M,38.490,M,1.5,0012*4F
$GPGGA,044439.50,3439.65657119,N,13744.68059129,E,4,08,1.1,9.858,M,38.490,M,1.5,0012*47
$GPGGA,044439.55,3439.65658016,N,13744.68058037,E,4,08,1.1,9.855,M,38.490,M,1.5,0012*41
$GPGGA,044439.60,3439.65658813,N,13744.68056996,E,4,08,1.1,9.851,M,38.490,M,1.6,0012*41
$GPGGA,044439.65,3439.65659978,N,13744.68056025,E,4,08,1.1,9.835,M,38.490,M,0.6,0012*4B
$GPGGA,044439.70,3439.65661441,N,13744.68054795,E,4,08,1.1,9.824,M,38.490,M,0.7,0012*4C
$GPGGA,044439.75,3439.65662793,N,13744.68053683,E,4,08,1.1,9.828,M,38.490,M,0.8,0012*44
$GPGGA,044439.80,3439.65663801,N,13744.68052668,E,4,08,1.1,9.841,M,38.490,M,0.8,0012*40
$GPGGA,044439.85,3439.65664679,N,13744.68051352,E,4,08,1.1,9.849,M,38.490,M,0.9,0012*45
$GPGGA,044439.90,3439.65665681,N,13744.68050033,E,4,08,1.1,9.845,M,38.490,M,0.9,0012*4E
$GPGGA,044439.95,3439.65666758,N,13744.68049069,E,4,08,1.1,9.841,M,38.490,M,0.9,0012*4E
$GPGGA,044440.00,3439.65667771,N,13744.68048276,E,4,08,1.1,9.837,M,38.490,M,1.0,0012*42
$GPGGA,044440.05,3439.65668432,N,13744.68047201,E,4,08,1.1,9.846,M,38.490,M,1.0,0012*45
$GPGGA,044440.10,3439.65669352,N,13744.68045986,E,4,08,1.1,9.843,M,38.490,M,1.1,0012*43
$GPGGA,044440.15,3439.65670033,N,13744.68044828,E,4,08,1.1,9.840,M,38.490,M,1.1,0012*4D
$GPGGA,044440.20,3439.65670824,N,13744.68043471,E,4,08,1.1,9.831,M,38.490,M,1.2,0012*47
$GPGGA,044440.25,3439.65671484,N,13744.68042081,E,4,08,1.1,9.824,M,38.490,M,1.3,0012*4A
$GPGGA,044440.30,3439.65672155,N,13744.68040621,E,4,08,1.1,9.818,M,38.490,M,1.3,0012*45
$GPGGA,044440.35,3439.65672893,N,13744.68038904,E,4,08,1.1,9.812,M,38.490,M,1.4,0012*49
$GPGGA,044440.40,3439.65673746,N,13744.68037049,E,4,08,1.1,9.809,M,38.490,M,1.4,0012*48
$GPGGA,044440.45,3439.65674339,N,13744.68035020,E,4,08,1.1,9.799,M,38.490,M,1.5,0012*4C
$GPGGA,044440.50,3439.65675458,N,13744.68033215,E,4,08,1.1,9.779,M,38.490,M,1.5,0012*45
$GPGGA,044440.55,3439.65676231,N,13744.68031326,E,4,08,1.1,9.794,M,38.490,M,1.5,0012*4A
$GPGGA,044440.60,3439.65676959,N,13744.68029182,E,4,08,1.1,9.800,M,38.490,M,1.6,0012*4D
$GPGGA,044440.65,3439.65677650,N,13744.68027427,E,4,08,1.1,9.809,M,38.490,M,1.6,0012*42
$GPGGA,044440.70,3439.65678464,N,13744.68025779,E,4,08,1.1,9.808,M,38.490,M,1.7,0012*46
$GPGGA,044440.75,3439.65679417,N,13744.68024278,E,4,08,1.1,9.804,M,38.490,M,1.8,0012*40
$GPGGA,044440.80,3439.65679884,N,13744.68022789,E,4,08,1.1,9.816,M,38.490,M,1.8,0012*42
$GPGGA,044440.85,3439.65680781,N,13744.68021321,E,4,08,1.1,9.814,M,38.490,M,1.9,0012*4D
$GPGGA,044440.90,3439.65681614,N,13744.68019915,E,4,08,1.1,9.806,M,38.490,M,1.9,0012*40
$GPGGA,044440.95,3439.65682497,N,13744.68018671,E,4,08,1.1,9.805,M,38.490,M,2.0,0012*4A
$GPGGA,044441.00,3439.65683406,N,13744.68017450,E,4,08,1.1,9.801,M,38.490,M,2.0,0012*44
$GPGGA,044441.05,3439.65684524,N,13744.68016118,E,4,08,1.1,9.795,M,38.490,M,2.0,0012*4D
$GPGGA,044441.10,3439.65685735,N,13744.68014782,E,4,08,1.1,9.792,M,38.490,M,2.1,0012*4B
$GPGGA,044441.15,3439.65686837,N,13744.68013809,E,4,08,1.1,9.784,M,38.490,M,2.2,0012*4F
$GPGGA,044441.20,3439.65688075,N,13744.68012303,E,4,08,1.1,9.778,M,38.490,M,2.2,0012*4A
$GPGGA,044441.25,3439.65689279,N,13744.68010956,E,4,08,1.1,9.774,M,38.490,M,2.3,0012*45
$GPGGA,044441.30,3439.65690419,N,13744.68009280,E,4,08,1.1,9.771,M,38.490,M,2.3,0012*44
$GPGGA,044441.35,3439.65691778,N,13744.68007434,E,4,08,1.1,9.769,M,38.490,M,2.3,0012*4A
$GPGGA,044441.40,3439.65692684,N,13744.68005833,E,4,08,1.1,9.763,M,38.490,M,2.4,0012*4D
$GPGGA,044441.45,3439.65694131,N,13744.68004357,E,4,08,1.1,9.766,M,38.490,M,2.5,0012*4B
$GPGGA,044441.50,3439.65695487,N,13744.68002879,E,4,08,1.1,9.769,M,38.490,M,2.5,0012*48
$GPGGA,044441.55,3439.65696730,N,13744.68001183,E,4,08,1.1,9.779,M,38.490,M,2.5,0012*4F
$GPGGA,044441.60,3439.65697943,N,13744.67999673,E,4,08,1.1,9.782,M,38.490,M,2.6,0012*4A
$GPGGA,044441.65,3439.65699055,N,13744.67998239,E,4,08,1.1,9.782,M,38.490,M,2.7,0012*45
$GPGGA,044441.70,3439.65700127,N,13744.67996472,E,4,08,1.1,9.781,M,38.490,M,2.7,0012*40
$GPGGA,044441.75,3439.65701156,N,13744.67994692,E,4,08,1.1,9.770,M,38.490,M,2.8,0012*4D
$GPGGA,044441.80,3439.65702314,N,13744.67992598,E,4,08,1.1,9.740,M,38.490,M,2.8,0012*4C
$GPGGA,044441.85,3439.65702725,N,13744.67990420,E,4,08,1.1,9.715,M,38.490,M,2.8,0012*4F
$GPGGA,044441.90,3439.65703449,N,13744.67989544,E,4,08,1.1,9.722,M,38.490,M,2.9,0012*4D
$GPGGA,044441.95,3439.65704821,N,13744.67988314,E,4,08,1.1,9.729,M,38.490,M,3.0,0012*4C
$GPGGA,044442.00,3439.65705683,N,13744.67986507,E,4,08,1.1,9.747,M,38.490,M,3.0,0012*46
$GPGGA,044442.05,3439.65706718,N,13744.67985188,E,4,08,1.1,9.747,M,38.490,M,3.0,0012*43
$GPGGA,044442.10,3439.65707813,N,13744.67984018,E,4,08,1.1,9.739,M,38.490,M,2.1,0012*42
$GPGGA,044442.15,3439.65708727,N,13744.67983878,E,4,08,1.1,9.734,M,38.490,M,2.2,0012*47
$GPGGA,044442.20,3439.65709711,N,13744.67983334,E,4,08,1.1,9.745,M,38.490,M,2.2,0012*40
$GPGGA,044442.25,3439.65710697,N,13744.67982442,E,4,08,1.1,9.741,M,38.490,M,2.3,0012*40
$GPGGA,044442.30,3439.65711887,N,13744.67981794,E,4,08,1.1,9.737,M,38.490,M,2.3,0012*40
$GPGGA,044442.35,3439.65713346,N,13744.67981155,E,4,08,1.1,9.733,M,38.490,M,2.3,0012*4E
$GPGGA,044442.40,3439.65714773,N,13744.67980367,E,4,08,1.1,9.734,M,38.490,M,2.4,0012*4B
$GPGGA,044442.45,3439.65715948,N,13744.67979798,E,4,08,1.1,9.726,M,38.490,M,1.5,0012*4A
$GPGGA,044442.50,3439.65717451,N,13744.67979268,E,4,08,1.1,9.710,M,38.490,M,1.5,0012*46
$GPGGA,044442.55,3439.65718960,N,13744.67978749,E,4,08,1.1,9.705,M,38.490,M,1.5,0012*40
$GPGGA,044442.60,3439.65720420,N,13744.67978415,E,4,08,1.1,9.703,M,38.490,M,1.6,0012*4B
$GPGGA,044442.65,3439.65721391,N,13744.67977776,E,4,08,1.1,9.712,M,38.490,M,1.6,0012*4B
$GPGGA,044442.70,3439.65722985,N,13744.67977523,E,4,08,1.1,9.714,M,38.490,M,1.7,0012*46
$GPGGA,044442.75,3439.65724712,N,13744.67976549,E,4,08,1.1,9.714,M,38.490,M,1.8,0012*47
$GPGGA,044442.80,3439.65725926,N,13744.67975842,E,4,08,1.1,9.739,M,38.490,M,1.8,0012*4F
$GPGGA,044442.85,3439.65727176,N,13744.67974890,E,4,08,1.1,9.738,M,38.490,M,1.9,0012*4B
$GPGGA,044442.90,3439.65728502,N,13744.67974290,E,4,08,1.1,9.753,M,38.490,M,0.9,0012*41
$GPGGA,044442.95,3439.65730380,N,13744.67973419,E,4,08,1.1,9.753,M,38.490,M,0.9,0012*41
$GPGGA,044443.00,3439.65730897,N,13744.67972443,E,4,08,1.1,9.742,M,38.490,M,1.0,0012*47
$GPGGA,044443.05,3439.65731952,N,13744.67971376,E,4,08,1.1,9.742,M,38.490,M,1.0,0012*49
$GPGGA,044443.10,3439.65732802,N,13744.67970199,E,4,08,1.1,9.744,M,38.490,M,1.1,0012*4F
$GPGGA,044443.15,3439.65733966,N,13744.67969032,E,4,08,1.1,9.739,M,38.490,M,1.1,0012*4A
$GPGGA,044443.20,3439.65735374,N,13744.67967657,E,4,08,1.1,9.727,M,38.490,M,1.2,0012*44
$GPGGA,044443.25,3439.65736605,N,13744.67966016,E,4,08,1.1,9.721,M,38.490,M,1.3,0012*44
$GPGGA,044443.30,3439.65737716,N,13744.67964208,E,4,08,1.1,9.715,M,38.490,M,1.3,0012*4A
$GPGGA,044443.35,3439.65738509,N,13744.67962525,E,4,08,1.1,9.701,M,38.490,M,1.4,0012*40
$GPGGA,044443.40,3439.65738729,N,13744.67960641,E,4,08,1.1,9.699,M,38.490,M,1.4,0012*41
$GPGGA,044443.45,3439.65738733,N,13744.67958886,E,4,08,1.1,9.702,M,38.490,M,1.5,0012*43
$GPGGA,044443.50,3439.65739475,N,13744.67956766,E,4,08,1.1,9.680,M,38.490,M,1.5,0012*43
$GPGGA,044443.55,3439.65740546,N,13744.67954749,E,4,08,1.1,9.673,M,38.490,M,1.5,0012*4A
$GPGGA,044443.60,3439.65742017,N,13744.67954270,E,4,08,1.1,9.686,M,38.490,M,1.6,0012*49
$GPGGA,044443.65,3439.65743439,N,13744.67953035,E,4,08,1.1,9.678,M,38.490,M,1.6,0012*40
$GPGGA,044443.70,3439.65744293,N,13744.67951624,E,4,08,1.1,9.703,M,38.490,M,1.7,0012*4D
$GPGGA,044443.75,3439.65745365,N,13744.67950191,E,4,08,1.1,9.696,M,38.490,M,1.8,0012*4B
$GPGGA,044443.80,3439.65746370,N,13744.67949137,E,4,08,1.1,9.698,M,38.490,M,1.8,0012*4C
$GPGGA,044443.85,3439.65748296,N,13744.67947926,E,4,08,1.1,9.693,M,38.490,M,1.9,0012*42
$GPGGA,044443.90,3439.65749717,N,13744.67946894,E,4,08,1.1,9.693,M,38.490,M,1.9,0012*42
$GPGGA,044443.95,3439.65751088,N,13744.67945918,E,4,08,1.1,9.687,M,38.490,M,2.0,0012*46
$GPGGA,044444.00,3439.65752239,N,13744.67944901,E,4,08,1.1,9.679,M,38.490,M,2.0,0012*4E
$GPGGA,044444.05,3439.65753626,N,13744.67943943,E,4,08,1.1,9.670,M,38.490,M,2.0,0012*48
$GPGGA,044444.10,3439.65754972,N,13744.67942888,E,4,08,1.1,9.664,M,38.490,M,2.1,0012*46
$GPGGA,044444.15,3439.65756458,N,13744.67941636,E,4,08,1.1,9.659,M,38.490,M,2.2,0012*41
$GPGGA,044444.20,3439.65757922,N,13744.67940239,E,4,08,1.1,9.657,M,38.490,M,2.2,0012*42
$GPGGA,044444.25,3439.65759112,N,13744.67938779,E,4,08,1.1,9.668,M,38.490,M,2.3,0012*41
$GPGGA,044444.30,3439.65760523,N,13744.67937248,E,4,08,1.1,9.672,M,38.490,M,2.3,0012*4A
$GPGGA,044444.35,3439.65761863,N,13744.67936022,E,4,08,1.1,9.669,M,38.490,M,2.3,0012*42
$GPGGA,044444.40,3439.65763013,N,13744.67934577,E,4,08,1.1,9.671,M,38.490,M,2.4,0012*44
$GPGGA,044444.45,3439.65764224,N,13744.67933117,E,4,08,1.1,9.674,M,38.490,M,2.5,0012*41
$GPGGA,044444.50,3439.65765266,N,13744.67931943,E,4,08,1.1,9.665,M,38.490,M,2.5,0012*49
$GPGGA,044444.55,3439.65766606,N,13744.67930341,E,4,08,1.1,9.676,M,38.490,M,2.5,0012*46
$GPGGA,044444.60,3439.65767697,N,13744.67928889,E,4,08,1.1,9.673,M,38.490,M,2.6,0012*49
$GPGGA,044444.65,3439.65769086,N,13744.67927397,E,4,08,1.1,9.655,M,38.490,M,1.6,0012*48
$GPGGA,044444.70,3439.65770137,N,13744.67925581,E,4,08,1.1,9.641,M,38.490,M,1.7,0012*48
$GPGGA,044444.75,3439.65771048,N,13744.67923844,E,4,08,1.1,9.636,M,38.490,M,1.8,0012*48
$GPGGA,044444.80,3439.65772107,N,13744.67922193,E,4,08,1.1,9.630,M,38.490,M,1.8,0012*4F
$GPGGA,044444.85,3439.65772821,N,13744.67920487,E,4,08,1.1,9.622,M,38.490,M,1.9,0012*47
$GPGGA,044444.90,3439.65773587,N,13744.67918649,E,4,08,1.1,9.615,M,38.490,M,1.9,0012*4C
$GPGGA,044444.95,3439.65774840,N,13744.67916921,E,4,08,1.1,9.624,M,38.490,M,2.0,0012*4F
$GPGGA,044445.00,3439.65775831,N,13744.67915053,E,4,08,1.1,9.613,M,38.490,M,2.0,0012*4E
$GPGGA,044445.05,3439.65776880,N,13744.67913570,E,4,08,1.1,9.625,M,38.490,M,2.0,0012*45
$GPGGA,044445.10,3439.65778063,N,13744.67912312,E,4,08,1.1,9.630,M,38.490,M,1.1,0012*4F
$GPGGA,044445.15,3439.65779240,N,13744.67910856,E,4,08,1.1,9.631,M,38.490,M,1.1,0012*40
$GPGGA,044445.20,3439.65780225,N,13744.67909336,E,4,08,1.1,9.638,M,38.490,M,1.2,0012*4C
$GPGGA,044445.25,3439.65781257,N,13744.67907932,E,4,08,1.1,9.640,M,38.490,M,1.3,0012*43
$GPGGA,044445.30,3439.65782000,N,13744.67906349,E,4,08,1.1,9.646,M,38.490,M,1.3,0012*45
$GPGGA,044445.35,3439.65783033,N,13744.67905002,E,4,08,1.1,9.646,M,38.490,M,1.4,0012*49
$GPGGA,044445.40,3439.65784098,N,13744.67903602,E,4,08,1.1,9.634,M,38.490,M,1.4,0012*48
$GPGGA,044445.45,3439.65785338,N,13744.67902041,E,4,08,1.1,9.622,M,38.490,M,1.5,0012*43
$GPGGA,044445.50,3439.65786693,N,13744.67900626,E,4,08,1.1,9.618,M,38.490,M,1.5,0012*4C
$GPGGA,044445.55,3439.65788010,N,13744.67899429,E,4,08,1.1,9.619,M,38.490,M,1.5,0012*47
$GPGGA,044445.60,3439.65789731,N,13744.67898185,E,4,08,1.1,9.601,M,38.490,M,1.6,0012*4C
$GPGGA,044445.65,3439.65791255,N,13744.67897245,E,4,08,1.1,9.600,M,38.490,M,1.6,0012*46
$GPGGA,044445.70,3439.65791594,N,13744.67895508,E,4,08,1.1,9.651,M,38.490,M,1.7,0012*41
$GPGGA,044445.75,3439.65793488,N,13744.67894240,E,4,08,1.1,9.631,M,38.490,M,1.8,0012*49
$GPGGA,044445.80,3439.65794758,N,13744.67892841,E,4,08,1.1,9.637,M,38.490,M,1.8,0012*41
$GPGGA,044445.85,3439.65795858,N,13744.67891351,E,4,08,1.1,9.635,M,38.490,M,1.9,0012*40
$GPGGA,044445.90,3439.65797258,N,13744.67890289,E,4,08,1.1,9.638,M,38.490,M,1.9,0012*44
$GPGGA,044445.95,3439.65798636,N,13744.67889104,E,4,08,1.1,9.636,M,38.490,M,2.0,0012*48
$GPGGA,044446.00,3439.65799846,N,13744.67887652,E,4,08,1.1,9.639,M,38.490,M,2.0,0012*4A
$GPGGA,044446.05,3439.65800966,N,13744.67886161,E,4,08,1.1,9.640,M,38.490,M,2.0,0012*4B
$GPGGA,044446.10,3439.65802043,N,13744.67884856,E,4,08,1.1,9.635,M,38.490,M,2.1,0012*4F
$GPGGA,044446.15,3439.65803205,N,13744.67883674,E,4,08,1.1,9.629,M,38.490,M,2.2,0012*4C
$GPGGA,044446.20,3439.65804233,N,13744.67882283,E,4,08,1.1,9.627,M,38.490,M,2.2,0012*4B
$GPGGA,044446.25,3439.65805167,N,13744.67881001,E,4,08,1.1,9.624,M,38.490,M,2.3,0012*44
$GPGGA,044446.30,3439.65805942,N,13744.67879560,E,4,08,1.1,9.617,M,38.490,M,2.3,0012*4A
$GPGGA,044446.35,3439.65807096,N,13744.67877870,E,4,08,1.1,9.608,M,38.490,M,2.3,0012*41
$GPGGA,044446.40,3439.65808296,N,13744.67875807,E,4,08,1.1,9.599,M,38.490,M,2.4,0012*40
$GPGGA,044446.45,3439.65809423,N,13744.67874091,E,4,08,1.1,9.594,M,38.490,M,2.5,0012*46
$GPGGA,044446.50,3439.65810867,N,13744.67872698,E,4,08,1.1,9.594,M,38.490,M,2.5,0012*4F
$GPGGA,044446.55,3439.65812182,N,13744.67871301,E,4,08,1.1,9.597,M,38.490,M,2.5,0012*4F
$GPGGA,044446.60,3439.65813573,N,13744.67869794,E,4,08,1.1,9.603,M,38.490,M,2.6,0012*4E
$GPGGA,044446.65,3439.65814515,N,13744.67868065,E,4,08,1.1,9.611,M,38.490,M,2.7,0012*46
$GPGGA,044446.70,3439.65815502,N,13744.67866488,E,4,08,1.1,9.610,M,38.490,M,2.7,0012*4D
$GPGGA,044446.75,3439.65816548,N,13744.67865019,E,4,08,1.1,9.617,M,38.490,M,2.8,0012*42
$GPGGA,044446.80,3439.65817757,N,13744.67863578,E,4,08,1.1,9.621,M,38.490,M,2.8,0012*44
$GPGGA,044446.85,3439.65819100,N,13744.67862256,E,4,08,1.1,9.617,M,38.490,M,2.8,0012*44
$GPGGA,044446.90,3439.65820430,N,13744.67860942,E,4,08,1.1,9.610,M,38.490,M,2.9,0012*46
$GPGGA,044446.95,3439.65821226,N,13744.67859534,E,4,08,1.1,9.620,M,38.490,M,2.0,0012*4E
$GPGGA,044447.00,3439.65823147,N,13744.67858376,E,4,08,1.1,9.595,M,38.490,M,2.0,0012*49
$GPGGA,044447.05,3439.65824774,N,13744.67857380,E,4,08,1.1,9.588,M,38.490,M,2.0,0012*47
$GPGGA,044447.10,3439.65826367,N,13744.67856285,E,4,08,1.1,9.585,M,38.490,M,2.1,0012*4E
$GPGGA,044447.15,3439.65827566,N,13744.67855252,E,4,08,1.1,9.581,M,38.490,M,2.2,0012*43
$GPGGA,044447.20,3439.65829119,N,13744.67854139,E,4,08,1.1,9.580,M,38.490,M,2.2,0012*49
$GPGGA,044447.25,3439.65830221,N,13744.67852992,E,4,08,1.1,9.583,M,38.490,M,2.3,0012*41
$GPGGA,044447.30,3439.65831928,N,13744.67851957,E,4,08,1.1,9.577,M,38.490,M,2.3,0012*47
$GPGGA,044447.35,3439.65833246,N,13744.67850705,E,4,08,1.1,9.576,M,38.490,M,1.4,0012*4E
$GPGGA,044447.40,3439.65833926,N,13744.67849336,E,4,08,1.1,9.602,M,38.490,M,1.4,0012*4D
$GPGGA,044447.45,3439.65835144,N,13744.67848374,E,4,08,1.1,9.601,M,38.490,M,1.5,0012*47
$GPGGA,044447.50,3439.65836351,N,13744.67847104,E,4,08,1.1,9.603,M,38.490,M,1.5,0012*4E
$GPGGA,044447.55,3439.65837277,N,13744.67846039,E,4,08,1.1,9.604,M,38.490,M,1.5,0012*46
$GPGGA,044447.60,3439.65838392,N,13744.67844976,E,4,08,1.1,9.601,M,38.490,M,1.6,0012*43
$GPGGA,044447.65,3439.65839476,N,13744.67843732,E,4,08,1.1,9.600,M,38.490,M,1.6,0012*42
$GPGGA,044447.70,3439.65840613,N,13744.67842397,E,4,08,1.1,9.603,M,38.490,M,1.7,0012*41
$GPGGA,044447.75,3439.65841564,N,13744.67841113,E,4,08,1.1,9.599,M,38.490,M,1.8,0012*44
$GPGGA,044447.80,3439.65842251,N,13744.67839759,E,4,08,1.1,9.590,M,38.490,M,1.8,0012*42
$GPGGA,044447.85,3439.65842873,N,13744.67838118,E,4,08,1.1,9.589,M,38.490,M,0.9,0012*47
$GPGGA,044447.90,3439.65843469,N,13744.67836567,E,4,08,1.1,9.581,M,38.490,M,0.9,0012*4F
$GPGGA,044447.95,3439.65843834,N,13744.67835178,E,4,08,1.1,9.570,M,38.490,M,0.9,0012*49
$GPGGA,044448.00,3439.65844350,N,13744.67833629,E,4,08,1.1,9.558,M,38.490,M,1.0,0012*43
$GPGGA,044448.05,3439.65845032,N,13744.67832496,E,4,08,1.1,9.563,M,38.490,M,1.0,0012*4F
$GPGGA,044448.10,3439.65845966,N,13744.67830668,E,4,08,1.1,9.564,M,38.489,M,1.1,0012*4C
$GPGGA,044448.15,3439.65846612,N,13744.67828881,E,4,08,1.1,9.570,M,38.489,M,1.1,0012*43
$GPGGA,044448.20,3439.65847455,N,13744.67827335,E,4,08,1.1,9.580,M,38.489,M,1.2,0012*42
$GPGGA,044448.25,3439.65848495,N,13744.67825950,E,4,08,1.1,9.587,M,38.489,M,1.3,0012*49
$GPGGA,044448.30,3439.65849449,N,13744.67824776,E,4,08,1.1,9.581,M,38.489,M,1.3,0012*40
$GPGGA,044448.35,3439.65850405,N,13744.67823486,E,4,08,1.1,9.578,M,38.489,M,1.4,0012*4F
$GPGGA,044448.40,3439.65851473,N,13744.67822211,E,4,08,1.1,9.577,M,38.489,M,1.4,0012*4B
$GPGGA,044448.45,3439.65852320,N,13744.67821045,E,4,08,1.1,9.578,M,38.489,M,1.5,0012*42
$GPGGA,044448.50,3439.65853361,N,13744.67819955,E,4,08,1.1,9.570,M,38.489,M,1.5,0012*49
$GPGGA,044448.55,3439.65854669,N,13744.67818911,E,4,08,1.1,9.558,M,38.489,M,1.5,0012*4D
$GPGGA,044448.60,3439.65856010,N,13744.67817904,E,4,08,1.1,9.549,M,38.489,M,1.6,0012*49
$GPGGA,044448.65,3439.65857364,N,13744.67816745,E,4,08,1.1,9.552,M,38.489,M,1.6,0012*4D
$GPGGA,044448.70,3439.65858285,N,13744.67815525,E,4,08,1.1,9.569,M,38.489,M,1.7,0012*46
$GPGGA,044448.75,3439.65859952,N,13744.67814262,E,4,08,1.1,9.563,M,38.489,M,1.8,0012*43
$GPGGA,044448.80,3439.65861734,N,13744.67813108,E,4,08,1.1,9.547,M,38.489,M,0.8,0012*43
$GPGGA,044448.85,3439.65862770,N,13744.67811640,E,4,08,1.1,9.569,M,38.489,M,0.9,0012*41
$GPGGA,044448.90,3439.65865190,N,13744.67810354,E,4,08,1.1,9.548,M,38.489,M,0.9,0012*48
$GPGGA,044448.95,3439.65866676,N,13744.67808979,E,4,08,1.1,9.547,M,38.489,M,0.9,0012*42
$GPGGA,044449.00,3439.65868209,N,13744.67807445,E,4,08,1.1,9.552,M,38.489,M,1.0,0012*4C
$GPGGA,044449.05,3439.65869319,N,13744.67806054,E,4,08,1.1,9.564,M,38.489,M,1.0,0012*48
$GPGGA,044449.10,3439.65870596,N,13744.67804605,E,4,08,1.1,9.570,M,38.489,M,1.1,0012*41
$GPGGA,044449.15,3439.65871852,N,13744.67803360,E,4,08,1.1,9.569,M,38.489,M,1.1,0012*49
$GPGGA,044449.20,3439.65873001,N,13744.67802005,E,4,08,1.1,9.562,M,38.489,M,1.2,0012*4A
$GPGGA,044449.25,3439.65873882,N,13744.67800583,E,4,08,1.1,9.559,M,38.489,M,1.3,0012*4C
$GPGGA,044449.30,3439.65875080,N,13744.67798816,E,4,08,1.1,9.559,M,38.489,M,1.3,0012*4B
$GPGGA,044449.35,3439.65876138,N,13744.67796867,E,4,08,1.1,9.551,M,38.489,M,1.4,0012*48
$GPGGA,044449.40,3439.65877091,N,13744.67795251,E,4,08,1.1,9.551,M,38.489,M,1.4,0012*45
$GPGGA,044449.45,3439.65877567,N,13744.67793593,E,4,08,1.1,9.556,M,38.489,M,1.5,0012*45
$GPGGA,044449.50,3439.65878401,N,13744.67791523,E,4,08,1.1,9.548,M,38.489,M,1.5,0012*49
$GPGGA,044449.55,3439.65879200,N,13744.67789658,E,4,08,1.1,9.549,M,38.489,M,1.5,0012*4D
$GPGGA,044449.60,3439.65880178,N,13744.67787996,E,4,08,1.1,9.562,M,38.489,M,1.6,0012*48
$GPGGA,044449.65,3439.65880962,N,13744.67786745,E,4,08,1.1,9.562,M,38.489,M,1.6,0012*4F
$GPGGA,044449.70,3439.65881642,N,13744.67785464,E,4,08,1.1,9.558,M,38.489,M,1.7,0012*4C
$GPGGA,044449.75,3439.65882631,N,13744.67784306,E,4,08,1.1,9.562,M,38.489,M,1.8,0012*4A
$GPGGA,044449.80,3439.65883671,N,13744.67782893,E,4,08,1.1,9.570,M,38.489,M,1.8,0012*47
$GPGGA,044449.85,3439.65884304,N,13744.67781518,E,4,08,1.1,9.569,M,38.489,M,1.9,0012*46
$GPGGA,044449.90,3439.65885124,N,13744.67780253,E,4,08,1.1,9.570,M,38.489,M,1.9,0012*42
$GPGGA,044449.95,3439.65886051,N,13744.67778776,E,4,08,1.1,9.568,M,38.489,M,2.0,0012*41
$GPGGA,044450.00,3439.65886859,N,13744.67777219,E,4,08,1.1,9.566,M,38.489,M,2.0,0012*48
$GPGGA,044450.05,3439.65887822,N,13744.67775665,E,4,08,1.1,9.561,M,38.489,M,2.0,0012*4A
$GPGGA,044450.10,3439.65888942,N,13744.67774107,E,4,08,1.1,9.555,M,38.489,M,2.1,0012*42
$GPGGA,044450.15,3439.65890245,N,13744.67772787,E,4,08,1.1,9.557,M,38.489,M,2.2,0012*4B
$GPGGA,044450.20,3439.65891409,N,13744.67771547,E,4,08,1.1,9.555,M,38.489,M,2.2,0012*4D
$GPGGA,044450.25,3439.65892294,N,13744.67770242,E,4,08,1.1,9.553,M,38.489,M,1.3,0012*4E
$GPGGA,044450.30,3439.65893540,N,13744.67768797,E,4,08,1.1,9.545,M,38.489,M,1.3,0012*46
$GPGGA,044450.35,3439.65894864,N,13744.67767072,E,4,08,1.1,9.542,M,38.489,M,1.4,0012*4C
$GPGGA,044450.40,3439.65895943,N,13744.67765627,E,4,08,1.1,9.557,M,38.489,M,1.4,0012*4B
$GPGGA,044450.45,3439.65897215,N,13744.67764686,E,4,08,1.1,9.567,M,38.489,M,1.5,0012*4C
$GPGGA,044450.50,3439.65898384,N,13744.67763495,E,4,08,1.1,9.568,M,38.489,M,1.5,0012*46
$GPGGA,044450.55,3439.65899496,N,13744.67762273,E,4,08,1.1,9.568,M,38.489,M,1.5,0012*49
$GPGGA,044450.60,3439.65900434,N,13744.67760853,E,4,08,1.1,9.564,M,38.489,M,1.6,0012*43
$GPGGA,044450.65,3439.65900953,N,13744.67759529,E,4,08,1.1,9.589,M,38.489,M,1.6,0012*43
$GPGGA,044450.70,3439.65902328,N,13744.67758827,E,4,08,1.1,9.565,M,38.489,M,1.7,0012*42
$GPGGA,044450.75,3439.65903429,N,13744.67757558,E,4,08,1.1,9.572,M,38.489,M,1.8,0012*43
$GPGGA,044450.80,3439.65904384,N,13744.67756394,E,4,08,1.1,9.567,M,38.489,M,1.8,0012*4D
$GPGGA,044450.85,3439.65904742,N,13744.67754827,E,4,08,1.1,9.584,M,38.489,M,1.9,0012*4B
$GPGGA,044450.90,3439.65905843,N,13744.67753606,E,4,08,1.1,9.553,M,38.489,M,1.9,0012*40
$GPGGA,044450.95,3439.65906468,N,13744.67751803,E,4,08,1.1,9.547,M,38.489,M,2.0,0012*45
$GPGGA,044451.00,3439.65907249,N,13744.67750584,E,4,08,1.1,9.542,M,38.489,M,2.0,0012*4A
$GPGGA,044451.05,3439.65907811,N,13744.67749096,E,4,08,1.1,9.557,M,38.489,M,2.0,0012*42
$GPGGA,044451.10,3439.65908537,N,13744.67747772,E,4,08,1.1,9.559,M,38.489,M,2.1,0012*4C
$GPGGA,044451.15,3439.65909504,N,13744.67746100,E,4,08,1.1,9.564,M,38.489,M,2.2,0012*47
$GPGGA,044451.20,3439.65910248,N,13744.67744768,E,4,08,1.1,9.574,M,38.489,M,2.2,0012*4D
$GPGGA,044451.25,3439.65911022,N,13744.67743867,E,4,08,1.1,9.575,M,38.489,M,2.3,0012*40
$GPGGA,044451.30,3439.65911870,N,13744.67742849,E,4,08,1.1,9.570,M,38.489,M,2.3,0012*43
$GPGGA,044451.35,3439.65912687,N,13744.67741810,E,4,08,1.1,9.568,M,38.489,M,2.3,0012*45
$GPGGA,044451.40,3439.65913674,N,13744.67740649,E,4,08,1.1,9.571,M,38.489,M,2.4,0012*46
$GPGGA,044451.45,3439.65914928,N,13744.67739721,E,4,08,1.1,9.571,M,38.489,M,2.5,0012*42
$GPGGA,044451.50,3439.65916163,N,13744.67738818,E,4,08,1.1,9.566,M,38.489,M,2.5,0012*41
$GPGGA,044451.55,3439.65917423,N,13744.67737858,E,4,08,1.1,9.563,M,38.489,M,2.5,0012*4A
$GPGGA,044451.60,3439.65918686,N,13744.67736985,E,4,08,1.1,9.560,M,38.489,M,2.6,0012*4E
$GPGGA,044451.65,3439.65920136,N,13744.67736354,E,4,08,1.1,9.551,M,38.489,M,2.7,0012*49
$GPGGA,044451.70,3439.65921613,N,13744.67735818,E,4,08,1.1,9.544,M,38.489,M,2.7,0012*48
$GPGGA,044451.75,3439.65923034,N,13744.67734978,E,4,08,1.1,9.539,M,38.489,M,2.8,0012*4F
$GPGGA,044451.80,3439.65924153,N,13744.67734116,E,4,08,1.1,9.547,M,38.489,M,2.8,0012*4B
$GPGGA,044451.85,3439.65925438,N,13744.67733284,E,4,08,1.1,9.560,M,38.489,M,2.8,0012*4D
$GPGGA,044451.90,3439.65927031,N,13744.67732585,E,4,08,1.1,9.564,M,38.489,M,2.9,0012*44
$GPGGA,044451.95,3439.65928703,N,13744.67731881,E,4,08,1.1,9.566,M,38.489,M,3.0,0012*48
$GPGGA,044452.00,3439.65929851,N,13744.67730946,E,4,08,1.1,9.583,M,38.489,M,3.0,0012*4E
$GPGGA,044452.05,3439.65931205,N,13744.67729898,E,4,08,1.1,9.587,M,38.489,M,3.0,0012*47
$GPGGA,044452.10,3439.65932461,N,13744.67728795,E,4,08,1.1,9.583,M,38.489,M,3.1,0012*42
$GPGGA,044452.15,3439.65933557,N,13744.67727635,E,4,08,1.1,9.581,M,38.489,M,3.2,0012*47
$GPGGA,044452.20,3439.65934696,N,13744.67726438,E,4,08,1.1,9.584,M,38.489,M,3.2,0012*43
$GPGGA,044452.25,3439.65935962,N,13744.67725208,E,4,08,1.1,9.582,M,38.489,M,3.3,0012*42
$GPGGA,044452.30,3439.65937117,N,13744.67723813,E,4,08,1.1,9.579,M,38.489,M,2.3,0012*4D
$GPGGA,044452.35,3439.65938163,N,13744.67722272,E,4,08,1.1,9.570,M,38.489,M,2.3,0012*41
$GPGGA,044452.40,3439.65939062,N,13744.67720666,E,4,08,1.1,9.567,M,38.489,M,2.4,0012*40
$GPGGA,044452.45,3439.65939849,N,13744.67719239,E,4,08,1.1,9.562,M,38.489,M,2.5,0012*44
$GPGGA,044452.50,3439.65940700,N,13744.67717452,E,4,08,1.1,9.556,M,38.489,M,2.5,0012*4E
$GPGGA,044452.55,3439.65941697,N,13744.67715532,E,4,08,1.1,9.549,M,38.489,M,2.5,0012*4E
$GPGGA,044452.60,3439.65942671,N,13744.67713518,E,4,08,1.1,9.553,M,38.489,M,2.6,0012*45
$GPGGA,044452.65,3439.65943645,N,13744.67711744,E,4,08,1.1,9.554,M,38.489,M,2.7,0012*49
$GPGGA,044452.70,3439.65944671,N,13744.67710209,E,4,08,1.1,9.560,M,38.489,M,1.7,0012*44
