DESCRIPTION:
Logging still 3 min


[2014-10-09 03:02:43]$GPGGA,065353.400,3815.2946,N,14050.6393,E,1,9,1.04,146.5,M,37.1,M,,*58
[2014-10-09 03:02:43]$GPGGA,065353.600,3815.2946,N,14050.6393,E,1,9,1.04,146.5,M,37.1,M,,*5A
[2014-10-09 03:02:43]$GPGGA,065353.800,3815.2946,N,14050.6393,E,1,9,1.04,146.5,M,37.1,M,,*54
[2014-10-09 03:02:43]$GPGGA,065354.000,3815.2946,N,14050.6393,E,1,9,1.04,146.5,M,37.1,M,,*5B
[2014-10-09 03:02:43]$GPGGA,065354.200,3815.2946,N,14050.6393,E,1,9,1.04,146.5,M,37.1,M,,*59
[2014-10-09 03:02:44]$GPGGA,065354.400,3815.2946,N,14050.6393,E,1,9,1.04,146.5,M,37.1,M,,*5F
[2014-10-09 03:02:44]$GPGGA,065354.600,3815.2946,N,14050.6393,E,1,9,1.04,146.5,M,37.1,M,,*5D
[2014-10-09 03:02:44]$GPGGA,065354.800,3815.2946,N,14050.6393,E,1,9,1.04,146.5,M,37.1,M,,*53
[2014-10-09 03:02:44]$GPGGA,065355.000,3815.2946,N,14050.6393,E,1,9,1.34,146.5,M,37.1,M,,*59
[2014-10-09 03:02:44]$GPGGA,065355.200,3815.2946,N,14050.6393,E,1,8,1.34,146.5,M,37.1,M,,*5A
[2014-10-09 03:02:45]$GPGGA,065355.400,3815.2946,N,14050.6393,E,1,8,1.34,146.5,M,37.1,M,,*5C
[2014-10-09 03:02:45]$GPGGA,065355.600,3815.2946,N,14050.6393,E,1,8,1.34,146.5,M,37.1,M,,*5E
[2014-10-09 03:02:45]$GPGGA,065355.800,3815.2946,N,14050.6393,E,1,8,1.34,146.5,M,37.1,M,,*50
[2014-10-09 03:02:45]$GPGGA,065356.000,3815.2946,N,14050.6393,E,1,7,1.61,146.5,M,37.1,M,,*54
[2014-10-09 03:02:45]$GPGGA,065356.200,3815.2946,N,14050.6393,E,1,7,1.61,146.5,M,37.1,M,,*56
[2014-10-09 03:02:46]$GPGGA,065356.400,3815.2946,N,14050.6393,E,1,7,1.61,146.5,M,37.1,M,,*50
[2014-10-09 03:02:46]$GPGGA,065356.600,3815.2946,N,14050.6393,E,1,7,1.61,146.5,M,37.1,M,,*52
[2014-10-09 03:02:46]$GPGGA,065356.800,3815.2946,N,14050.6393,E,1,7,1.61,146.5,M,37.1,M,,*5C
[2014-10-09 03:02:47]$GPGGA,065357.000,3815.2946,N,14050.6393,E,1,7,1.61,146.5,M,37.1,M,,*55
[2014-10-09 03:02:47]$GPGGA,065357.200,3815.2946,N,14050.6393,E,1,7,1.61,146.5,M,37.1,M,,*57
[2014-10-09 03:02:47]$GPGGA,065357.400,3815.2946,N,14050.6393,E,1,7,1.61,146.5,M,37.1,M,,*51
[2014-10-09 03:02:47]$GPGGA,065357.600,3815.2946,N,14050.6393,E,1,7,1.61,146.5,M,37.1,M,,*53
[2014-10-09 03:02:47]$GPGGA,065357.800,3815.2946,N,14050.6393,E,1,7,1.61,146.5,M,37.1,M,,*5D
[2014-10-09 03:02:47]$GPGGA,065358.000,3815.2946,N,14050.6393,E,1,7,1.61,146.5,M,37.1,M,,*5A
[2014-10-09 03:02:47]$GPGGA,065358.200,3815.2946,N,14050.6393,E,1,7,1.61,146.5,M,37.1,M,,*58
[2014-10-09 03:02:48]$GPGGA,065358.400,3815.2946,N,14050.6393,E,1,7,1.61,146.5,M,37.1,M,,*5E
[2014-10-09 03:02:48]$GPGGA,065358.600,3815.2946,N,14050.6393,E,1,7,1.61,146.5,M,37.1,M,,*5C
[2014-10-09 03:02:48]$GPGGA,065358.800,3815.2946,N,14050.6393,E,1,7,1.61,146.5,M,37.1,M,,*52
[2014-10-09 03:02:48]$GPGGA,065359.000,3815.2946,N,14050.6393,E,1,8,1.23,146.5,M,37.1,M,,*52
[2014-10-09 03:02:48]$GPGGA,065359.200,3815.2946,N,14050.6393,E,1,8,1.23,146.5,M,37.1,M,,*50
[2014-10-09 03:02:49]$GPGGA,065359.400,3815.2946,N,14050.6393,E,1,8,1.23,146.5,M,37.1,M,,*56
[2014-10-09 03:02:49]$GPGGA,065359.600,3815.2946,N,14050.6393,E,1,8,1.23,146.5,M,37.1,M,,*54
[2014-10-09 03:02:49]$GPGGA,065359.800,3815.2946,N,14050.6393,E,1,8,1.23,146.5,M,37.1,M,,*5A
[2014-10-09 03:02:49]$GPGGA,065400.000,3815.2946,N,14050.6393,E,1,8,1.23,146.5,M,37.1,M,,*59
[2014-10-09 03:02:49]$GPGGA,065400.200,3815.2946,N,14050.6393,E,1,8,1.23,146.5,M,37.1,M,,*5B
[2014-10-09 03:02:50]$GPGGA,065400.400,3815.2946,N,14050.6393,E,1,8,1.23,146.5,M,37.1,M,,*5D
[2014-10-09 03:02:50]$GPGGA,065400.600,3815.2946,N,14050.6393,E,1,8,1.23,146.5,M,37.1,M,,*5F
[2014-10-09 03:02:50]$GPGGA,065400.800,3815.2946,N,14050.6393,E,1,8,1.23,146.5,M,37.1,M,,*51
[2014-10-09 03:02:50]$GPGGA,065401.000,3815.2946,N,14050.6393,E,1,8,1.23,146.5,M,37.1,M,,*58
[2014-10-09 03:02:50]$GPGGA,065401.200,3815.2947,N,14050.6393,E,1,8,1.23,146.5,M,37.1,M,,*5B
[2014-10-09 03:02:51]$GPGGA,065401.400,3815.2947,N,14050.6393,E,1,8,1.23,146.5,M,37.1,M,,*5D
[2014-10-09 03:02:51]$GPGGA,065401.600,3815.2947,N,14050.6393,E,1,8,1.23,146.5,M,37.1,M,,*5F
[2014-10-09 03:02:51]$GPGGA,065401.800,3815.2947,N,14050.6393,E,1,8,1.23,146.5,M,37.1,M,,*51
[2014-10-09 03:02:51]$GPGGA,065402.000,3815.2947,N,14050.6393,E,1,8,1.23,146.5,M,37.1,M,,*5A
[2014-10-09 03:02:51]$GPGGA,065402.200,3815.2947,N,14050.6393,E,1,8,1.23,146.5,M,37.1,M,,*58
[2014-10-09 03:02:52]$GPGGA,065402.400,3815.2947,N,14050.6393,E,1,8,1.23,146.5,M,37.1,M,,*5E
[2014-10-09 03:02:52]$GPGGA,065402.600,3815.2947,N,14050.6393,E,1,8,1.23,146.5,M,37.1,M,,*5C
[2014-10-09 03:02:52]$GPGGA,065402.800,3815.2947,N,14050.6393,E,1,8,1.23,146.5,M,37.1,M,,*52
[2014-10-09 03:02:52]$GPGGA,065403.000,3815.2947,N,14050.6393,E,1,8,1.23,146.5,M,37.1,M,,*5B
[2014-10-09 03:02:52]$GPGGA,065403.200,3815.2947,N,14050.6393,E,1,8,1.23,146.5,M,37.1,M,,*59
[2014-10-09 03:02:53]$GPGGA,065403.400,3815.2947,N,14050.6393,E,1,8,1.23,146.5,M,37.1,M,,*5F
[2014-10-09 03:02:53]$GPGGA,065403.600,3815.2947,N,14050.6393,E,1,7,1.61,146.5,M,37.1,M,,*54
[2014-10-09 03:02:53]$GPGGA,065403.800,3815.2947,N,14050.6393,E,1,7,1.61,146.5,M,37.1,M,,*5A
[2014-10-09 03:02:53]$GPGGA,065404.000,3815.2947,N,14050.6393,E,1,7,1.61,146.5,M,37.1,M,,*55
[2014-10-09 03:02:53]$GPGGA,065404.200,3815.2947,N,14050.6393,E,1,7,1.61,146.5,M,37.1,M,,*57
[2014-10-09 03:02:54]$GPGGA,065404.400,3815.2947,N,14050.6393,E,1,7,1.61,146.5,M,37.1,M,,*51
[2014-10-09 03:02:54]$GPGGA,065404.600,3815.2947,N,14050.6393,E,1,7,1.61,146.5,M,37.1,M,,*53
[2014-10-09 03:02:54]$GPGGA,065404.800,3815.2947,N,14050.6393,E,1,7,1.61,146.5,M,37.1,M,,*5D
[2014-10-09 03:02:54]$GPGGA,065405.000,3815.2947,N,14050.6393,E,1,7,1.61,146.5,M,37.1,M,,*54
[2014-10-09 03:02:54]$GPGGA,065405.200,3815.2947,N,14050.6393,E,1,7,1.61,146.5,M,37.1,M,,*56
[2014-10-09 03:02:55]$GPGGA,065405.400,3815.2947,N,14050.6393,E,1,7,1.61,146.5,M,37.1,M,,*50
[2014-10-09 03:02:55]$GPGGA,065405.600,3815.2947,N,14050.6393,E,1,7,1.61,146.5,M,37.1,M,,*52
[2014-10-09 03:02:55]$GPGGA,065405.800,3815.2947,N,14050.6393,E,1,7,1.61,146.5,M,37.1,M,,*5C
[2014-10-09 03:02:55]$GPGGA,065406.000,3815.2947,N,14050.6393,E,1,7,1.61,146.5,M,37.1,M,,*57
[2014-10-09 03:02:55]$GPGGA,065406.200,3815.2947,N,14050.6393,E,1,7,1.61,146.5,M,37.1,M,,*55
[2014-10-09 03:02:56]$GPGGA,065406.400,3815.2947,N,14050.6393,E,1,7,1.61,146.5,M,37.1,M,,*53
[2014-10-09 03:02:56]$GPGGA,065406.600,3815.2947,N,14050.6393,E,1,7,1.61,146.5,M,37.1,M,,*51
[2014-10-09 03:02:56]$GPGGA,065406.800,3815.2947,N,14050.6393,E,1,7,1.61,146.5,M,37.1,M,,*5F
[2014-10-09 03:02:56]$GPGGA,065407.000,3815.2947,N,14050.6393,E,1,7,1.61,146.5,M,37.1,M,,*56
[2014-10-09 03:02:56]$GPGGA,065407.200,3815.2947,N,14050.6393,E,1,7,1.61,146.5,M,37.1,M,,*54
[2014-10-09 03:02:57]$GPGGA,065407.400,3815.2947,N,14050.6393,E,1,7,1.61,146.5,M,37.1,M,,*52
[2014-10-09 03:02:57]$GPGGA,065407.600,3815.2947,N,14050.6393,E,1,7,1.61,146.5,M,37.1,M,,*50
[2014-10-09 03:02:57]$GPGGA,065407.800,3815.2947,N,14050.6393,E,1,7,1.61,146.5,M,37.1,M,,*5E
[2014-10-09 03:02:57]$GPGGA,065408.000,3815.2947,N,14050.6393,E,1,7,1.61,146.5,M,37.1,M,,*59
[2014-10-09 03:02:57]$GPGGA,065408.200,3815.2947,N,14050.6393,E,1,7,1.61,146.5,M,37.1,M,,*5B
[2014-10-09 03:02:58]$GPGGA,065408.400,3815.2947,N,14050.6393,E,1,7,1.61,146.5,M,37.1,M,,*5D
[2014-10-09 03:02:58]$GPGGA,065408.600,3815.2947,N,14050.6393,E,1,7,1.61,146.5,M,37.1,M,,*5F
[2014-10-09 03:02:58]$GPGGA,065408.800,3815.2947,N,14050.6393,E,1,7,1.61,146.5,M,37.1,M,,*51
[2014-10-09 03:02:58]$GPGGA,065409.000,3815.2947,N,14050.6393,E,1,7,1.61,146.5,M,37.1,M,,*58
[2014-10-09 03:02:58]$GPGGA,065409.200,3815.2947,N,14050.6393,E,1,7,1.61,146.5,M,37.1,M,,*5A
[2014-10-09 03:02:59]$GPGGA,065409.400,3815.2947,N,14050.6393,E,1,7,1.61,146.5,M,37.1,M,,*5C
[2014-10-09 03:02:59]$GPGGA,065409.600,3815.2947,N,14050.6393,E,1,7,1.61,146.5,M,37.1,M,,*5E
[2014-10-09 03:02:59]$GPGGA,065409.800,3815.2947,N,14050.6393,E,1,7,1.61,146.5,M,37.1,M,,*50
[2014-10-09 03:02:59]$GPGGA,065410.000,3815.2947,N,14050.6393,E,1,7,1.61,146.5,M,37.1,M,,*50
[2014-10-09 03:02:59]$GPGGA,065410.200,3815.2947,N,14050.6393,E,1,7,1.61,146.5,M,37.1,M,,*52
[2014-10-09 03:03:00]$GPGGA,065410.400,3815.2947,N,14050.6393,E,1,7,1.61,146.5,M,37.1,M,,*54
[2014-10-09 03:03:00]$GPGGA,065410.600,3815.2947,N,14050.6392,E,1,7,1.61,146.5,M,37.1,M,,*57
[2014-10-09 03:03:00]$GPGGA,065410.800,3815.2947,N,14050.6392,E,1,7,1.61,146.5,M,37.1,M,,*59
[2014-10-09 03:03:00]$GPGGA,065411.000,3815.2947,N,14050.6392,E,1,7,1.61,146.5,M,37.1,M,,*50
[2014-10-09 03:03:00]$GPGGA,065411.200,3815.2947,N,14050.6392,E,1,7,1.61,146.5,M,37.1,M,,*52
[2014-10-09 03:03:01]$GPGGA,065411.400,3815.2947,N,14050.6392,E,1,7,1.61,146.5,M,37.1,M,,*54
[2014-10-09 03:03:01]$GPGGA,065411.600,3815.2947,N,14050.6392,E,1,7,1.61,146.5,M,37.1,M,,*56
[2014-10-09 03:03:01]$GPGGA,065411.800,3815.2947,N,14050.6392,E,1,7,1.61,146.5,M,37.1,M,,*58
[2014-10-09 03:03:01]$GPGGA,065412.000,3815.2947,N,14050.6392,E,1,7,1.61,146.5,M,37.1,M,,*53
[2014-10-09 03:03:01]$GPGGA,065412.200,3815.2947,N,14050.6392,E,1,7,1.61,146.5,M,37.1,M,,*51
[2014-10-09 03:03:02]$GPGGA,065412.400,3815.2947,N,14050.6392,E,1,7,1.61,146.5,M,37.1,M,,*57
[2014-10-09 03:03:02]$GPGGA,065412.600,3815.2947,N,14050.6392,E,1,7,1.61,146.5,M,37.1,M,,*55
[2014-10-09 03:03:02]$GPGGA,065412.800,3815.2947,N,14050.6392,E,1,7,1.61,146.5,M,37.1,M,,*5B
[2014-10-09 03:03:02]$GPGGA,065413.000,3815.2947,N,14050.6392,E,1,7,1.61,146.5,M,37.1,M,,*52
[2014-10-09 03:03:02]$GPGGA,065413.200,3815.2947,N,14050.6392,E,1,7,1.61,146.5,M,37.1,M,,*50
[2014-10-09 03:03:03]$GPGGA,065413.400,3815.2947,N,14050.6392,E,1,7,1.61,146.5,M,37.1,M,,*56
[2014-10-09 03:03:03]$GPGGA,065413.600,3815.2947,N,14050.6392,E,1,7,1.61,146.5,M,37.1,M,,*54
[2014-10-09 03:03:03]$GPGGA,065413.800,3815.2947,N,14050.6392,E,1,7,1.61,146.5,M,37.1,M,,*5A
[2014-10-09 03:03:03]$GPGGA,065414.000,3815.2947,N,14050.6392,E,1,7,1.61,146.5,M,37.1,M,,*55
[2014-10-09 03:03:04]$GPGGA,065414.200,3815.2947,N,14050.6392,E,1,7,1.61,146.5,M,37.1,M,,*57
[2014-10-09 03:03:04]$GPGGA,065414.400,3815.2947,N,14050.6392,E,1,7,1.61,146.6,M,37.1,M,,*52
[2014-10-09 03:03:04]$GPGGA,065414.600,3815.2947,N,14050.6392,E,1,7,1.61,146.6,M,37.1,M,,*50
[2014-10-09 03:03:04]$GPGGA,065414.800,3815.2947,N,14050.6392,E,1,7,1.61,146.6,M,37.1,M,,*5E
[2014-10-09 03:03:04]$GPGGA,065415.000,3815.2947,N,14050.6392,E,1,7,1.61,146.6,M,37.1,M,,*57
[2014-10-09 03:03:04]$GPGGA,065415.200,3815.2947,N,14050.6392,E,1,7,1.61,146.6,M,37.1,M,,*55
[2014-10-09 03:03:05]$GPGGA,065415.400,3815.2947,N,14050.6392,E,1,7,1.61,146.6,M,37.1,M,,*53
[2014-10-09 03:03:05]$GPGGA,065415.600,3815.2947,N,14050.6392,E,1,7,1.61,146.6,M,37.1,M,,*51
[2014-10-09 03:03:05]$GPGGA,065415.800,3815.2947,N,14050.6392,E,1,7,1.61,146.6,M,37.1,M,,*5F
[2014-10-09 03:03:05]$GPGGA,065416.000,3815.2947,N,14050.6392,E,1,7,1.61,146.6,M,37.1,M,,*54
[2014-10-09 03:03:05]$GPGGA,065416.200,3815.2947,N,14050.6392,E,1,7,1.61,146.6,M,37.1,M,,*56
[2014-10-09 03:03:06]$GPGGA,065416.400,3815.2947,N,14050.6392,E,1,7,1.61,146.6,M,37.1,M,,*50
[2014-10-09 03:03:06]$GPGGA,065416.600,3815.2947,N,14050.6392,E,1,7,1.61,146.6,M,37.1,M,,*52
[2014-10-09 03:03:06]$GPGGA,065416.800,3815.2947,N,14050.6392,E,1,7,1.61,146.6,M,37.1,M,,*5C
[2014-10-09 03:03:06]$GPGGA,065417.000,3815.2947,N,14050.6392,E,1,7,1.61,146.6,M,37.1,M,,*55
[2014-10-09 03:03:07]$GPGGA,065417.200,3815.2947,N,14050.6392,E,1,7,1.61,146.6,M,37.1,M,,*57
[2014-10-09 03:03:07]$GPGGA,065417.400,3815.2947,N,14050.6392,E,1,7,1.61,146.6,M,37.1,M,,*51
[2014-10-09 03:03:07]$GPGGA,065417.600,3815.2947,N,14050.6392,E,1,8,1.23,146.6,M,37.1,M,,*5A
[2014-10-09 03:03:07]$GPGGA,065417.800,3815.2947,N,14050.6392,E,1,8,1.23,146.6,M,37.1,M,,*54
[2014-10-09 03:03:07]$GPGGA,065418.000,3815.2947,N,14050.6392,E,1,8,1.23,146.6,M,37.1,M,,*53
[2014-10-09 03:03:07]$GPGGA,065418.200,3815.2947,N,14050.6392,E,1,8,1.23,146.6,M,37.1,M,,*51
[2014-10-09 03:03:08]$GPGGA,065418.400,3815.2947,N,14050.6392,E,1,8,1.23,146.6,M,37.1,M,,*57
[2014-10-09 03:03:08]$GPGGA,065418.600,3815.2947,N,14050.6392,E,1,8,1.23,146.6,M,37.1,M,,*55
[2014-10-09 03:03:08]$GPGGA,065418.800,3815.2947,N,14050.6392,E,1,8,1.23,146.6,M,37.1,M,,*5B
[2014-10-09 03:03:08]$GPGGA,065419.000,3815.2947,N,14050.6392,E,1,8,1.23,146.6,M,37.1,M,,*52
[2014-10-09 03:03:08]$GPGGA,065419.200,3815.2947,N,14050.6392,E,1,8,1.23,146.6,M,37.1,M,,*50
[2014-10-09 03:03:09]$GPGGA,065419.400,3815.2947,N,14050.6392,E,1,8,1.23,146.6,M,37.1,M,,*56
[2014-10-09 03:03:09]$GPGGA,065419.600,3815.2947,N,14050.6392,E,1,8,1.23,146.6,M,37.1,M,,*54
[2014-10-09 03:03:09]$GPGGA,065419.800,3815.2947,N,14050.6392,E,1,8,1.23,146.6,M,37.1,M,,*5A
[2014-10-09 03:03:09]$GPGGA,065420.000,3815.2948,N,14050.6392,E,1,8,1.23,146.6,M,37.1,M,,*57
[2014-10-09 03:03:10]$GPGGA,065420.200,3815.2948,N,14050.6392,E,1,8,1.23,146.6,M,37.1,M,,*55
[2014-10-09 03:03:10]$GPGGA,065420.400,3815.2948,N,14050.6392,E,1,9,1.15,146.6,M,37.1,M,,*57
[2014-10-09 03:03:10]$GPGGA,065420.600,3815.2948,N,14050.6392,E,1,9,1.15,146.6,M,37.1,M,,*55
[2014-10-09 03:03:10]$GPGGA,065420.800,3815.2948,N,14050.6392,E,1,9,1.15,146.6,M,37.1,M,,*5B
[2014-10-09 03:03:10]$GPGGA,065421.000,3815.2948,N,14050.6392,E,1,9,1.15,146.6,M,37.1,M,,*52
[2014-10-09 03:03:10]$GPGGA,065421.200,3815.2948,N,14050.6392,E,1,9,1.15,146.6,M,37.1,M,,*50
[2014-10-09 03:03:11]$GPGGA,065421.400,3815.2948,N,14050.6392,E,1,9,1.15,146.6,M,37.1,M,,*56
[2014-10-09 03:03:11]$GPGGA,065421.600,3815.2948,N,14050.6392,E,1,9,1.15,146.6,M,37.1,M,,*54
[2014-10-09 03:03:11]$GPGGA,065421.800,3815.2948,N,14050.6392,E,1,9,1.15,146.6,M,37.1,M,,*5A
[2014-10-09 03:03:11]$GPGGA,065422.000,3815.2948,N,14050.6392,E,1,9,1.15,146.6,M,37.1,M,,*51
[2014-10-09 03:03:11]$GPGGA,065422.200,3815.2948,N,14050.6392,E,1,9,1.15,146.6,M,37.1,M,,*53
[2014-10-09 03:03:12]$GPGGA,065422.400,3815.2948,N,14050.6392,E,1,9,1.15,146.6,M,37.1,M,,*55
[2014-10-09 03:03:12]$GPGGA,065422.600,3815.2948,N,14050.6392,E,1,9,1.15,146.6,M,37.1,M,,*57
[2014-10-09 03:03:12]$GPGGA,065422.800,3815.2948,N,14050.6392,E,1,9,1.15,146.6,M,37.1,M,,*59
[2014-10-09 03:03:12]$GPGGA,065423.000,3815.2948,N,14050.6392,E,1,9,1.15,146.6,M,37.1,M,,*50
[2014-10-09 03:03:12]$GPGGA,065423.200,3815.2948,N,14050.6392,E,1,9,1.15,146.6,M,37.1,M,,*52
[2014-10-09 03:03:13]$GPGGA,065423.400,3815.2948,N,14050.6392,E,1,9,1.15,146.6,M,37.1,M,,*54
[2014-10-09 03:03:13]$GPGGA,065423.600,3815.2948,N,14050.6392,E,1,9,1.15,146.6,M,37.1,M,,*56
[2014-10-09 03:03:13]$GPGGA,065423.800,3815.2948,N,14050.6392,E,1,9,1.15,146.6,M,37.1,M,,*58
[2014-10-09 03:03:13]$GPGGA,065424.000,3815.2948,N,14050.6392,E,1,9,1.15,146.6,M,37.1,M,,*57
[2014-10-09 03:03:13]$GPGGA,065424.200,3815.2948,N,14050.6392,E,1,9,1.15,146.6,M,37.1,M,,*55
[2014-10-09 03:03:14]$GPGGA,065424.400,3815.2948,N,14050.6392,E,1,9,1.15,146.6,M,37.1,M,,*53
[2014-10-09 03:03:14]$GPGGA,065424.600,3815.2948,N,14050.6392,E,1,9,1.15,146.6,M,37.1,M,,*51
[2014-10-09 03:03:14]$GPGGA,065424.800,3815.2948,N,14050.6392,E,1,9,1.15,146.6,M,37.1,M,,*5F
[2014-10-09 03:03:14]$GPGGA,065425.000,3815.2948,N,14050.6392,E,1,9,1.15,146.6,M,37.1,M,,*56
[2014-10-09 03:03:14]$GPGGA,065425.200,3815.2948,N,14050.6392,E,1,9,1.15,146.6,M,37.1,M,,*54
[2014-10-09 03:03:15]$GPGGA,065425.400,3815.2947,N,14050.6392,E,1,9,1.15,146.6,M,37.1,M,,*5D
[2014-10-09 03:03:15]$GPGGA,065425.600,3815.2947,N,14050.6392,E,1,9,1.15,146.6,M,37.1,M,,*5F
[2014-10-09 03:03:15]$GPGGA,065425.800,3815.2947,N,14050.6392,E,1,9,1.15,146.6,M,37.1,M,,*51
[2014-10-09 03:03:15]$GPGGA,065426.000,3815.2947,N,14050.6392,E,1,9,1.15,146.6,M,37.1,M,,*5A
[2014-10-09 03:03:15]$GPGGA,065426.200,3815.2947,N,14050.6392,E,1,9,1.15,146.6,M,37.1,M,,*58
[2014-10-09 03:03:16]$GPGGA,065426.400,3815.2947,N,14050.6392,E,1,9,1.15,146.6,M,37.1,M,,*5E
[2014-10-09 03:03:16]$GPGGA,065426.600,3815.2947,N,14050.6392,E,1,9,1.15,146.6,M,37.1,M,,*5C
[2014-10-09 03:03:16]$GPGGA,065426.800,3815.2947,N,14050.6392,E,1,9,1.15,146.6,M,37.1,M,,*52
[2014-10-09 03:03:16]$GPGGA,065427.000,3815.2947,N,14050.6392,E,1,9,1.15,146.6,M,37.1,M,,*5B
[2014-10-09 03:03:16]$GPGGA,065427.200,3815.2947,N,14050.6392,E,1,9,1.15,146.6,M,37.1,M,,*59
[2014-10-09 03:03:17]$GPGGA,065427.400,3815.2947,N,14050.6392,E,1,9,1.15,146.6,M,37.1,M,,*5F
[2014-10-09 03:03:17]$GPGGA,065427.600,3815.2947,N,14050.6392,E,1,9,1.15,146.6,M,37.1,M,,*5D
[2014-10-09 03:03:18]$GPGGA,065427.800,3815.2947,N,14050.6392,E,1,9,1.15,146.6,M,37.1,M,,*53
[2014-10-09 03:03:18]$GPGGA,065428.000,3815.2947,N,14050.6392,E,1,9,1.15,146.6,M,37.1,M,,*54
[2014-10-09 03:03:18]$GPGGA,065428.200,3815.2947,N,14050.6392,E,1,9,1.15,146.6,M,37.1,M,,*56
[2014-10-09 03:03:18]$GPGGA,065428.400,3815.2947,N,14050.6392,E,1,9,1.15,146.6,M,37.1,M,,*50
[2014-10-09 03:03:18]$GPGGA,065428.600,3815.2947,N,14050.6392,E,1,9,1.15,146.6,M,37.1,M,,*52
[2014-10-09 03:03:18]$GPGGA,065428.800,3815.2947,N,14050.6392,E,1,9,1.15,146.6,M,37.1,M,,*5C
[2014-10-09 03:03:18]$GPGGA,065429.000,3815.2947,N,14050.6392,E,1,9,1.15,146.6,M,37.1,M,,*55
[2014-10-09 03:03:18]$GPGGA,065429.200,3815.2947,N,14050.6392,E,1,9,1.15,146.6,M,37.1,M,,*57
[2014-10-09 03:03:19]$GPGGA,065429.400,3815.2947,N,14050.6392,E,1,9,1.15,146.6,M,37.1,M,,*51
[2014-10-09 03:03:19]$GPGGA,065429.600,3815.2947,N,14050.6392,E,1,9,1.15,146.7,M,37.1,M,,*52
[2014-10-09 03:03:19]$GPGGA,065429.800,3815.2947,N,14050.6392,E,1,9,1.15,146.7,M,37.1,M,,*5C
[2014-10-09 03:03:19]$GPGGA,065430.000,3815.2947,N,14050.6392,E,1,9,1.15,146.7,M,37.1,M,,*5C
[2014-10-09 03:03:19]$GPGGA,065430.200,3815.2947,N,14050.6393,E,1,9,1.15,146.7,M,37.1,M,,*5F
[2014-10-09 03:03:20]$GPGGA,065430.400,3815.2947,N,14050.6393,E,1,9,1.15,146.7,M,37.1,M,,*59
[2014-10-09 03:03:20]$GPGGA,065430.600,3815.2947,N,14050.6393,E,1,9,1.15,146.7,M,37.1,M,,*5B
[2014-10-09 03:03:20]$GPGGA,065430.800,3815.2947,N,14050.6393,E,1,9,1.15,146.7,M,37.1,M,,*55
[2014-10-09 03:03:20]$GPGGA,065431.000,3815.2947,N,14050.6393,E,1,9,1.15,146.7,M,37.1,M,,*5C
[2014-10-09 03:03:20]$GPGGA,065431.200,3815.2947,N,14050.6393,E,1,9,1.15,146.7,M,37.1,M,,*5E
[2014-10-09 03:03:21]$GPGGA,065431.400,3815.2947,N,14050.6393,E,1,9,1.15,146.7,M,37.1,M,,*58
[2014-10-09 03:03:21]$GPGGA,065431.600,3815.2947,N,14050.6393,E,1,9,1.15,146.7,M,37.1,M,,*5A
[2014-10-09 03:03:21]$GPGGA,065431.800,3815.2947,N,14050.6393,E,1,9,1.15,146.7,M,37.1,M,,*54
[2014-10-09 03:03:21]$GPGGA,065432.000,3815.2947,N,14050.6393,E,1,9,1.15,146.7,M,37.1,M,,*5F
[2014-10-09 03:03:21]$GPGGA,065432.200,3815.2947,N,14050.6393,E,1,9,1.15,146.7,M,37.1,M,,*5D
[2014-10-09 03:03:22]$GPGGA,065432.400,3815.2947,N,14050.6393,E,1,9,1.15,146.7,M,37.1,M,,*5B
[2014-10-09 03:03:22]$GPGGA,065432.600,3815.2947,N,14050.6393,E,1,9,1.13,146.7,M,37.1,M,,*5F
[2014-10-09 03:03:22]$GPGGA,065432.800,3815.2947,N,14050.6393,E,1,9,1.15,146.7,M,37.1,M,,*57
[2014-10-09 03:03:22]$GPGGA,065433.000,3815.2947,N,14050.6393,E,1,9,1.15,146.7,M,37.1,M,,*5E
[2014-10-09 03:03:22]$GPGGA,065433.200,3815.2947,N,14050.6393,E,1,9,1.15,146.7,M,37.1,M,,*5C
[2014-10-09 03:03:23]$GPGGA,065433.400,3815.2947,N,14050.6393,E,1,9,1.15,146.7,M,37.1,M,,*5A
[2014-10-09 03:03:23]$GPGGA,065433.600,3815.2947,N,14050.6393,E,1,9,1.15,146.7,M,37.1,M,,*58
[2014-10-09 03:03:23]$GPGGA,065433.800,3815.2947,N,14050.6393,E,1,8,1.17,146.7,M,37.1,M,,*55
[2014-10-09 03:03:23]$GPGGA,065434.000,3815.2947,N,14050.6393,E,1,8,1.17,146.7,M,37.1,M,,*5A
[2014-10-09 03:03:23]$GPGGA,065434.200,3815.2947,N,14050.6393,E,1,8,1.17,146.7,M,37.1,M,,*58
[2014-10-09 03:03:24]$GPGGA,065434.400,3815.2947,N,14050.6393,E,1,8,1.17,146.7,M,37.1,M,,*5E
[2014-10-09 03:03:24]$GPGGA,065434.600,3815.2947,N,14050.6393,E,1,8,1.17,146.7,M,37.1,M,,*5C
[2014-10-09 03:03:24]$GPGGA,065434.800,3815.2947,N,14050.6393,E,1,8,1.17,146.7,M,37.1,M,,*52
[2014-10-09 03:03:24]$GPGGA,065435.000,3815.2947,N,14050.6393,E,1,8,1.17,146.7,M,37.1,M,,*5B
[2014-10-09 03:03:24]$GPGGA,065435.200,3815.2947,N,14050.6393,E,1,8,1.17,146.7,M,37.1,M,,*59
[2014-10-09 03:03:25]$GPGGA,065435.400,3815.2947,N,14050.6393,E,1,8,1.17,146.7,M,37.1,M,,*5F
[2014-10-09 03:03:25]$GPGGA,065435.600,3815.2947,N,14050.6393,E,1,8,1.17,146.7,M,37.1,M,,*5D
[2014-10-09 03:03:25]$GPGGA,065435.800,3815.2947,N,14050.6393,E,1,8,1.17,146.7,M,37.1,M,,*53
[2014-10-09 03:03:25]$GPGGA,065436.000,3815.2947,N,14050.6393,E,1,8,1.17,146.7,M,37.1,M,,*58
[2014-10-09 03:03:25]$GPGGA,065436.200,3815.2947,N,14050.6393,E,1,8,1.17,146.7,M,37.1,M,,*5A
[2014-10-09 03:03:26]$GPGGA,065436.400,3815.2947,N,14050.6393,E,1,8,1.17,146.7,M,37.1,M,,*5C
[2014-10-09 03:03:26]$GPGGA,065436.600,3815.2947,N,14050.6393,E,1,8,1.17,146.7,M,37.1,M,,*5E
[2014-10-09 03:03:26]$GPGGA,065436.800,3815.2947,N,14050.6393,E,1,8,1.17,146.7,M,37.1,M,,*50
[2014-10-09 03:03:26]$GPGGA,065437.000,3815.2947,N,14050.6393,E,1,8,1.17,146.8,M,37.1,M,,*56
[2014-10-09 03:03:26]$GPGGA,065437.200,3815.2947,N,14050.6393,E,1,8,1.17,146.8,M,37.1,M,,*54
[2014-10-09 03:03:27]$GPGGA,065437.400,3815.2947,N,14050.6393,E,1,9,1.15,146.8,M,37.1,M,,*51
[2014-10-09 03:03:27]$GPGGA,065437.600,3815.2947,N,14050.6393,E,1,9,1.15,146.8,M,37.1,M,,*53
[2014-10-09 03:03:27]$GPGGA,065437.800,3815.2947,N,14050.6393,E,1,9,1.15,146.8,M,37.1,M,,*5D
[2014-10-09 03:03:28]$GPGGA,065438.000,3815.2947,N,14050.6393,E,1,9,1.15,146.8,M,37.1,M,,*5A
[2014-10-09 03:03:28]$GPGGA,065438.200,3815.2947,N,14050.6393,E,1,9,1.15,146.8,M,37.1,M,,*58
[2014-10-09 03:03:28]$GPGGA,065438.400,3815.2947,N,14050.6393,E,1,9,1.15,146.8,M,37.1,M,,*5E
[2014-10-09 03:03:28]$GPGGA,065438.600,3815.2947,N,14050.6393,E,1,9,1.15,146.8,M,37.1,M,,*5C
[2014-10-09 03:03:28]$GPGGA,065438.800,3815.2947,N,14050.6393,E,1,9,1.15,146.8,M,37.1,M,,*52
[2014-10-09 03:03:28]$GPGGA,065439.000,3815.2947,N,14050.6393,E,1,9,1.15,146.8,M,37.1,M,,*5B
[2014-10-09 03:03:28]$GPGGA,065439.200,3815.2947,N,14050.6393,E,1,9,1.15,146.8,M,37.1,M,,*59
[2014-10-09 03:03:29]$GPGGA,065439.400,3815.2947,N,14050.6393,E,1,9,1.15,146.8,M,37.1,M,,*5F
[2014-10-09 03:03:29]$GPGGA,065439.600,3815.2947,N,14050.6393,E,1,9,1.15,146.8,M,37.1,M,,*5D
[2014-10-09 03:03:29]$GPGGA,065439.800,3815.2947,N,14050.6393,E,1,9,1.15,146.8,M,37.1,M,,*53
[2014-10-09 03:03:29]$GPGGA,065440.000,3815.2947,N,14050.6393,E,1,9,1.15,146.8,M,37.1,M,,*55
[2014-10-09 03:03:29]$GPGGA,065440.200,3815.2947,N,14050.6393,E,1,9,1.15,146.8,M,37.1,M,,*57
[2014-10-09 03:03:30]$GPGGA,065440.400,3815.2947,N,14050.6393,E,1,9,1.15,146.8,M,37.1,M,,*51
[2014-10-09 03:03:30]$GPGGA,065440.600,3815.2947,N,14050.6393,E,1,9,1.15,146.8,M,37.1,M,,*53
[2014-10-09 03:03:30]$GPGGA,065440.800,3815.2947,N,14050.6393,E,1,9,1.15,146.8,M,37.1,M,,*5D
[2014-10-09 03:03:30]$GPGGA,065441.000,3815.2947,N,14050.6393,E,1,9,1.15,146.8,M,37.1,M,,*54
[2014-10-09 03:03:30]$GPGGA,065441.200,3815.2947,N,14050.6393,E,1,9,1.15,146.8,M,37.1,M,,*56
[2014-10-09 03:03:31]$GPGGA,065441.400,3815.2947,N,14050.6393,E,1,9,1.15,146.8,M,37.1,M,,*50
[2014-10-09 03:03:31]$GPGGA,065441.600,3815.2947,N,14050.6393,E,1,9,1.15,146.8,M,37.1,M,,*52
[2014-10-09 03:03:31]$GPGGA,065441.800,3815.2946,N,14050.6393,E,1,9,1.15,146.8,M,37.1,M,,*5D
[2014-10-09 03:03:31]$GPGGA,065442.000,3815.2946,N,14050.6393,E,1,9,1.15,146.8,M,37.1,M,,*56
[2014-10-09 03:03:31]$GPGGA,065442.200,3815.2946,N,14050.6393,E,1,9,1.15,146.8,M,37.1,M,,*54
[2014-10-09 03:03:32]$GPGGA,065442.400,3815.2946,N,14050.6393,E,1,9,1.15,146.8,M,37.1,M,,*52
[2014-10-09 03:03:32]$GPGGA,065442.600,3815.2946,N,14050.6393,E,1,9,1.15,146.8,M,37.1,M,,*50
[2014-10-09 03:03:32]$GPGGA,065442.800,3815.2946,N,14050.6393,E,1,9,1.15,146.8,M,37.1,M,,*5E
[2014-10-09 03:03:32]$GPGGA,065443.000,3815.2946,N,14050.6393,E,1,9,1.15,146.8,M,37.1,M,,*57
[2014-10-09 03:03:32]$GPGGA,065443.200,3815.2946,N,14050.6393,E,1,9,1.15,146.8,M,37.1,M,,*55
[2014-10-09 03:03:33]$GPGGA,065443.400,3815.2946,N,14050.6393,E,1,9,1.15,146.8,M,37.1,M,,*53
[2014-10-09 03:03:33]$GPGGA,065443.600,3815.2946,N,14050.6393,E,1,9,1.15,146.8,M,37.1,M,,*51
[2014-10-09 03:03:33]$GPGGA,065443.800,3815.2946,N,14050.6393,E,1,9,1.15,146.8,M,37.1,M,,*5F
[2014-10-09 03:03:33]$GPGGA,065444.000,3815.2946,N,14050.6393,E,1,9,1.15,146.8,M,37.1,M,,*50
[2014-10-09 03:03:33]$GPGGA,065444.200,3815.2946,N,14050.6393,E,1,9,1.15,146.8,M,37.1,M,,*52
[2014-10-09 03:03:34]$GPGGA,065444.400,3815.2946,N,14050.6393,E,1,9,1.15,146.8,M,37.1,M,,*54
[2014-10-09 03:03:34]$GPGGA,065444.600,3815.2946,N,14050.6393,E,1,9,1.15,146.8,M,37.1,M,,*56
[2014-10-09 03:03:34]$GPGGA,065444.800,3815.2946,N,14050.6393,E,1,9,1.15,146.8,M,37.1,M,,*58
[2014-10-09 03:03:34]$GPGGA,065445.000,3815.2946,N,14050.6393,E,1,9,1.15,146.8,M,37.1,M,,*51
[2014-10-09 03:03:34]$GPGGA,065445.200,3815.2946,N,14050.6393,E,1,9,1.15,146.8,M,37.1,M,,*53
[2014-10-09 03:03:35]$GPGGA,065445.400,3815.2946,N,14050.6393,E,1,9,1.15,146.9,M,37.1,M,,*54
[2014-10-09 03:03:35]$GPGGA,065445.600,3815.2946,N,14050.6393,E,1,9,1.15,146.9,M,37.1,M,,*56
[2014-10-09 03:03:35]$GPGGA,065445.800,3815.2946,N,14050.6393,E,1,9,1.15,146.9,M,37.1,M,,*58
[2014-10-09 03:03:35]$GPGGA,065446.000,3815.2946,N,14050.6393,E,1,8,1.23,146.9,M,37.1,M,,*57
[2014-10-09 03:03:35]$GPGGA,065446.200,3815.2946,N,14050.6393,E,1,8,1.23,146.9,M,37.1,M,,*55
[2014-10-09 03:03:36]$GPGGA,065446.400,3815.2946,N,14050.6393,E,1,8,1.23,146.9,M,37.1,M,,*53
[2014-10-09 03:03:36]$GPGGA,065446.600,3815.2946,N,14050.6393,E,1,8,1.23,146.9,M,37.1,M,,*51
[2014-10-09 03:03:36]$GPGGA,065446.800,3815.2946,N,14050.6393,E,1,8,1.23,146.9,M,37.1,M,,*5F
[2014-10-09 03:03:36]$GPGGA,065447.000,3815.2946,N,14050.6393,E,1,8,1.23,146.9,M,37.1,M,,*56
[2014-10-09 03:03:36]$GPGGA,065447.200,3815.2946,N,14050.6393,E,1,8,1.23,146.9,M,37.1,M,,*54
[2014-10-09 03:03:37]$GPGGA,065447.400,3815.2946,N,14050.6393,E,1,8,1.23,146.9,M,37.1,M,,*52
[2014-10-09 03:03:37]$GPGGA,065447.600,3815.2946,N,14050.6393,E,1,8,1.23,146.9,M,37.1,M,,*50
[2014-10-09 03:03:37]$GPGGA,065447.800,3815.2946,N,14050.6393,E,1,8,1.23,146.9,M,37.1,M,,*5E
[2014-10-09 03:03:37]$GPGGA,065448.000,3815.2946,N,14050.6393,E,1,8,1.23,146.9,M,37.1,M,,*59
[2014-10-09 03:03:38]$GPGGA,065448.200,3815.2946,N,14050.6393,E,1,8,1.23,146.9,M,37.1,M,,*5B
[2014-10-09 03:03:38]$GPGGA,065448.400,3815.2946,N,14050.6393,E,1,8,1.23,146.9,M,37.1,M,,*5D
[2014-10-09 03:03:38]$GPGGA,065448.600,3815.2946,N,14050.6393,E,1,8,1.23,146.9,M,37.1,M,,*5F
[2014-10-09 03:03:38]$GPGGA,065448.800,3815.2946,N,14050.6393,E,1,8,1.23,146.9,M,37.1,M,,*51
[2014-10-09 03:03:38]$GPGGA,065449.000,3815.2946,N,14050.6393,E,1,8,1.23,146.9,M,37.1,M,,*58
[2014-10-09 03:03:38]$GPGGA,065449.200,3815.2946,N,14050.6393,E,1,8,1.23,146.9,M,37.1,M,,*5A
[2014-10-09 03:03:39]$GPGGA,065449.400,3815.2946,N,14050.6393,E,1,8,1.23,146.9,M,37.1,M,,*5C
[2014-10-09 03:03:39]$GPGGA,065449.600,3815.2946,N,14050.6393,E,1,8,1.23,146.9,M,37.1,M,,*5E
[2014-10-09 03:03:39]$GPGGA,065449.800,3815.2946,N,14050.6393,E,1,8,1.23,146.9,M,37.1,M,,*50
[2014-10-09 03:03:39]$GPGGA,065450.000,3815.2946,N,14050.6393,E,1,8,1.23,146.9,M,37.1,M,,*50
[2014-10-09 03:03:39]$GPGGA,065450.200,3815.2946,N,14050.6393,E,1,8,1.23,146.9,M,37.1,M,,*52
[2014-10-09 03:03:40]$GPGGA,065450.400,3815.2946,N,14050.6393,E,1,8,1.23,146.9,M,37.1,M,,*54
[2014-10-09 03:03:40]$GPGGA,065450.600,3815.2946,N,14050.6393,E,1,8,1.23,146.9,M,37.1,M,,*56
[2014-10-09 03:03:40]$GPGGA,065450.800,3815.2946,N,14050.6393,E,1,8,1.23,146.9,M,37.1,M,,*58
[2014-10-09 03:03:40]$GPGGA,065451.000,3815.2946,N,14050.6393,E,1,8,1.23,146.9,M,37.1,M,,*51
[2014-10-09 03:03:40]$GPGGA,065451.200,3815.2946,N,14050.6393,E,1,8,1.23,146.9,M,37.1,M,,*53
[2014-10-09 03:03:41]$GPGGA,065451.400,3815.2946,N,14050.6393,E,1,8,1.23,146.9,M,37.1,M,,*55
[2014-10-09 03:03:41]$GPGGA,065451.600,3815.2946,N,14050.6393,E,1,8,1.23,146.9,M,37.1,M,,*57
[2014-10-09 03:03:41]$GPGGA,065451.800,3815.2946,N,14050.6393,E,1,8,1.23,146.9,M,37.1,M,,*59
[2014-10-09 03:03:41]$GPGGA,065452.000,3815.2946,N,14050.6393,E,1,8,1.23,146.9,M,37.1,M,,*52
[2014-10-09 03:03:41]$GPGGA,065452.200,3815.2946,N,14050.6393,E,1,8,1.23,146.9,M,37.1,M,,*50
[2014-10-09 03:03:42]$GPGGA,065452.400,3815.2946,N,14050.6393,E,1,8,1.23,146.9,M,37.1,M,,*56
[2014-10-09 03:03:42]$GPGGA,065452.600,3815.2946,N,14050.6393,E,1,8,1.23,146.9,M,37.1,M,,*54
[2014-10-09 03:03:42]$GPGGA,065452.800,3815.2946,N,14050.6393,E,1,8,1.23,146.9,M,37.1,M,,*5A
[2014-10-09 03:03:42]$GPGGA,065453.000,3815.2946,N,14050.6393,E,1,8,1.23,146.9,M,37.1,M,,*53
[2014-10-09 03:03:42]$GPGGA,065453.200,3815.2946,N,14050.6393,E,1,8,1.23,146.9,M,37.1,M,,*51
[2014-10-09 03:03:43]$GPGGA,065453.400,3815.2946,N,14050.6393,E,1,8,1.23,146.9,M,37.1,M,,*57
[2014-10-09 03:03:43]$GPGGA,065453.600,3815.2946,N,14050.6393,E,1,8,1.23,146.9,M,37.1,M,,*55
[2014-10-09 03:03:43]$GPGGA,065453.800,3815.2946,N,14050.6393,E,1,8,1.23,146.9,M,37.1,M,,*5B
[2014-10-09 03:03:43]$GPGGA,065454.000,3815.2946,N,14050.6393,E,1,8,1.23,146.9,M,37.1,M,,*54
[2014-10-09 03:03:43]$GPGGA,065454.200,3815.2946,N,14050.6393,E,1,8,1.23,146.9,M,37.1,M,,*56
[2014-10-09 03:03:44]$GPGGA,065454.400,3815.2946,N,14050.6393,E,1,8,1.23,146.9,M,37.1,M,,*50
[2014-10-09 03:03:44]$GPGGA,065454.600,3815.2946,N,14050.6393,E,1,8,1.23,146.9,M,37.1,M,,*52
[2014-10-09 03:03:44]$GPGGA,065454.800,3815.2946,N,14050.6393,E,1,8,1.23,146.9,M,37.1,M,,*5C
[2014-10-09 03:03:44]$GPGGA,065455.000,3815.2946,N,14050.6393,E,1,8,1.23,146.9,M,37.1,M,,*55
[2014-10-09 03:03:45]$GPGGA,065455.200,3815.2946,N,14050.6393,E,1,8,1.23,146.9,M,37.1,M,,*57
[2014-10-09 03:03:45]$GPGGA,065455.400,3815.2946,N,14050.6393,E,1,8,1.23,146.9,M,37.1,M,,*51
[2014-10-09 03:03:45]$GPGGA,065455.600,3815.2946,N,14050.6393,E,1,8,1.23,146.9,M,37.1,M,,*53
[2014-10-09 03:03:45]$GPGGA,065455.800,3815.2946,N,14050.6393,E,1,8,1.23,146.9,M,37.1,M,,*5D
[2014-10-09 03:03:45]$GPGGA,065456.000,3815.2946,N,14050.6393,E,1,8,1.23,146.9,M,37.1,M,,*56
[2014-10-09 03:03:45]$GPGGA,065456.200,3815.2946,N,14050.6393,E,1,8,1.23,146.9,M,37.1,M,,*54
[2014-10-09 03:03:46]$GPGGA,065456.400,3815.2946,N,14050.6393,E,1,8,1.23,146.9,M,37.1,M,,*52
[2014-10-09 03:03:46]$GPGGA,065456.600,3815.2946,N,14050.6393,E,1,8,1.23,146.9,M,37.1,M,,*50
[2014-10-09 03:03:46]$GPGGA,065456.800,3815.2946,N,14050.6393,E,1,8,1.23,146.9,M,37.1,M,,*5E
[2014-10-09 03:03:46]$GPGGA,065457.000,3815.2946,N,14050.6393,E,1,8,1.23,146.9,M,37.1,M,,*57
[2014-10-09 03:03:47]$GPGGA,065457.200,3815.2946,N,14050.6393,E,1,8,1.23,146.9,M,37.1,M,,*55
[2014-10-09 03:03:47]$GPGGA,065457.400,3815.2946,N,14050.6393,E,1,8,1.23,147.0,M,37.1,M,,*5B
[2014-10-09 03:03:47]$GPGGA,065457.600,3815.2946,N,14050.6393,E,1,8,1.23,147.0,M,37.1,M,,*59
[2014-10-09 03:03:47]$GPGGA,065457.800,3815.2946,N,14050.6393,E,1,8,1.23,147.0,M,37.1,M,,*57
[2014-10-09 03:03:47]$GPGGA,065458.000,3815.2946,N,14050.6393,E,1,8,1.23,147.0,M,37.1,M,,*50
[2014-10-09 03:03:47]$GPGGA,065458.200,3815.2946,N,14050.6393,E,1,8,1.23,147.0,M,37.1,M,,*52
[2014-10-09 03:03:48]$GPGGA,065458.400,3815.2946,N,14050.6393,E,1,8,1.23,147.0,M,37.1,M,,*54
[2014-10-09 03:03:48]$GPGGA,065458.600,3815.2946,N,14050.6393,E,1,8,1.23,147.0,M,37.1,M,,*56
[2014-10-09 03:03:48]$GPGGA,065458.800,3815.2946,N,14050.6393,E,1,9,1.04,147.0,M,37.1,M,,*5C
[2014-10-09 03:03:48]$GPGGA,065459.000,3815.2946,N,14050.6393,E,1,9,1.04,147.0,M,37.1,M,,*55
[2014-10-09 03:03:49]$GPGGA,065459.200,3815.2946,N,14050.6393,E,1,9,1.04,147.0,M,37.1,M,,*57
[2014-10-09 03:03:49]$GPGGA,065459.400,3815.2946,N,14050.6393,E,1,9,1.04,147.0,M,37.1,M,,*51
[2014-10-09 03:03:49]$GPGGA,065459.600,3815.2946,N,14050.6393,E,1,9,1.04,147.0,M,37.1,M,,*53
[2014-10-09 03:03:49]$GPGGA,065459.800,3815.2946,N,14050.6393,E,1,9,1.04,147.0,M,37.1,M,,*5D
[2014-10-09 03:03:49]$GPGGA,065500.000,3815.2946,N,14050.6393,E,1,9,1.04,147.0,M,37.1,M,,*58
[2014-10-09 03:03:49]$GPGGA,065500.200,3815.2946,N,14050.6393,E,1,9,1.04,147.0,M,37.1,M,,*5A
[2014-10-09 03:03:50]$GPGGA,065500.400,3815.2946,N,14050.6393,E,1,9,1.04,147.0,M,37.1,M,,*5C
[2014-10-09 03:03:50]$GPGGA,065500.600,3815.2946,N,14050.6393,E,1,9,1.04,147.0,M,37.1,M,,*5E
[2014-10-09 03:03:50]$GPGGA,065500.800,3815.2946,N,14050.6393,E,1,9,1.04,147.0,M,37.1,M,,*50
[2014-10-09 03:03:50]$GPGGA,065501.000,3815.2946,N,14050.6393,E,1,9,1.04,147.0,M,37.1,M,,*59
[2014-10-09 03:03:50]$GPGGA,065501.200,3815.2946,N,14050.6393,E,1,9,1.04,147.0,M,37.1,M,,*5B
[2014-10-09 03:03:51]$GPGGA,065501.400,3815.2946,N,14050.6393,E,1,9,1.04,147.0,M,37.1,M,,*5D
[2014-10-09 03:03:51]$GPGGA,065501.600,3815.2946,N,14050.6393,E,1,9,1.04,147.0,M,37.1,M,,*5F
[2014-10-09 03:03:51]$GPGGA,065501.800,3815.2946,N,14050.6393,E,1,9,1.04,147.0,M,37.1,M,,*51
[2014-10-09 03:03:51]$GPGGA,065502.000,3815.2946,N,14050.6393,E,1,9,1.04,147.0,M,37.1,M,,*5A
[2014-10-09 03:03:52]$GPGGA,065502.200,3815.2946,N,14050.6393,E,1,9,1.04,147.0,M,37.1,M,,*58
[2014-10-09 03:03:52]$GPGGA,065502.400,3815.2946,N,14050.6393,E,1,9,1.04,147.0,M,37.1,M,,*5E
[2014-10-09 03:03:52]$GPGGA,065502.600,3815.2946,N,14050.6393,E,1,9,1.04,147.0,M,37.1,M,,*5C
[2014-10-09 03:03:52]$GPGGA,065502.800,3815.2946,N,14050.6393,E,1,9,1.04,147.0,M,37.1,M,,*52
[2014-10-09 03:03:52]$GPGGA,065503.000,3815.2946,N,14050.6393,E,1,9,1.04,147.0,M,37.1,M,,*5B
[2014-10-09 03:03:53]$GPGGA,065503.200,3815.2946,N,14050.6393,E,1,9,1.04,147.0,M,37.1,M,,*59
[2014-10-09 03:03:53]$GPGGA,065503.400,3815.2946,N,14050.6393,E,1,9,1.04,147.0,M,37.1,M,,*5F
[2014-10-09 03:03:53]$GPGGA,065503.600,3815.2946,N,14050.6393,E,1,9,1.04,147.0,M,37.1,M,,*5D
[2014-10-09 03:03:53]$GPGGA,065503.800,3815.2946,N,14050.6393,E,1,9,1.04,147.0,M,37.1,M,,*53
[2014-10-09 03:03:53]$GPGGA,065504.000,3815.2946,N,14050.6393,E,1,9,1.04,147.0,M,37.1,M,,*5C
[2014-10-09 03:03:53]$GPGGA,065504.200,3815.2946,N,14050.6393,E,1,9,1.04,147.0,M,37.1,M,,*5E
[2014-10-09 03:03:54]$GPGGA,065504.400,3815.2946,N,14050.6393,E,1,9,1.04,147.0,M,37.1,M,,*58
[2014-10-09 03:03:54]$GPGGA,065504.600,3815.2946,N,14050.6393,E,1,9,1.04,147.0,M,37.1,M,,*5A
[2014-10-09 03:03:54]$GPGGA,065504.800,3815.2946,N,14050.6393,E,1,9,1.04,147.0,M,37.1,M,,*54
[2014-10-09 03:03:54]$GPGGA,065505.000,3815.2946,N,14050.6393,E,1,9,1.04,147.0,M,37.1,M,,*5D
[2014-10-09 03:03:54]$GPGGA,065505.200,3815.2946,N,14050.6393,E,1,9,1.04,147.0,M,37.1,M,,*5F
[2014-10-09 03:03:55]$GPGGA,065505.400,3815.2946,N,14050.6393,E,1,9,1.04,147.0,M,37.1,M,,*59
[2014-10-09 03:03:55]$GPGGA,065505.600,3815.2946,N,14050.6393,E,1,9,1.04,147.0,M,37.1,M,,*5B
[2014-10-09 03:03:55]$GPGGA,065505.800,3815.2946,N,14050.6393,E,1,9,1.04,147.0,M,37.1,M,,*55
[2014-10-09 03:03:55]$GPGGA,065506.000,3815.2946,N,14050.6393,E,1,9,1.04,147.0,M,37.1,M,,*5E
[2014-10-09 03:03:55]$GPGGA,065506.200,3815.2946,N,14050.6393,E,1,9,1.04,147.0,M,37.1,M,,*5C
[2014-10-09 03:03:56]$GPGGA,065506.400,3815.2946,N,14050.6393,E,1,9,1.04,147.0,M,37.1,M,,*5A
[2014-10-09 03:03:56]$GPGGA,065506.600,3815.2946,N,14050.6393,E,1,9,1.04,147.0,M,37.1,M,,*58
[2014-10-09 03:03:56]$GPGGA,065506.800,3815.2946,N,14050.6393,E,1,9,1.04,147.0,M,37.1,M,,*56
[2014-10-09 03:03:56]$GPGGA,065507.000,3815.2946,N,14050.6393,E,1,9,1.04,147.1,M,37.1,M,,*5E
[2014-10-09 03:03:57]$GPGGA,065507.200,3815.2946,N,14050.6393,E,1,9,1.04,147.1,M,37.1,M,,*5C
[2014-10-09 03:03:57]$GPGGA,065507.400,3815.2946,N,14050.6393,E,1,9,1.04,147.1,M,37.1,M,,*5A
[2014-10-09 03:03:57]$GPGGA,065507.600,3815.2946,N,14050.6393,E,1,9,1.04,147.1,M,37.1,M,,*58
[2014-10-09 03:03:57]$GPGGA,065507.800,3815.2946,N,14050.6393,E,1,9,1.04,147.1,M,37.1,M,,*56
[2014-10-09 03:03:57]$GPGGA,065508.000,3815.2946,N,14050.6393,E,1,9,1.04,147.1,M,37.1,M,,*51
[2014-10-09 03:03:57]$GPGGA,065508.200,3815.2946,N,14050.6393,E,1,9,1.04,147.1,M,37.1,M,,*53
[2014-10-09 03:03:58]$GPGGA,065508.400,3815.2946,N,14050.6393,E,1,9,1.04,147.1,M,37.1,M,,*55
[2014-10-09 03:03:58]$GPGGA,065508.600,3815.2946,N,14050.6393,E,1,9,1.04,147.1,M,37.1,M,,*57
[2014-10-09 03:03:58]$GPGGA,065508.800,3815.2946,N,14050.6393,E,1,9,1.04,147.1,M,37.1,M,,*59
[2014-10-09 03:03:58]$GPGGA,065509.000,3815.2945,N,14050.6393,E,1,9,1.04,147.1,M,37.1,M,,*53
[2014-10-09 03:03:58]$GPGGA,065509.200,3815.2945,N,14050.6393,E,1,9,1.04,147.1,M,37.1,M,,*51
[2014-10-09 03:03:59]$GPGGA,065509.400,3815.2945,N,14050.6393,E,1,9,1.04,147.1,M,37.1,M,,*57
[2014-10-09 03:03:59]$GPGGA,065509.600,3815.2945,N,14050.6393,E,1,9,1.04,147.1,M,37.1,M,,*55
[2014-10-09 03:03:59]$GPGGA,065509.800,3815.2945,N,14050.6393,E,1,9,1.04,147.1,M,37.1,M,,*5B
[2014-10-09 03:03:59]$GPGGA,065510.000,3815.2945,N,14050.6393,E,1,9,1.04,147.1,M,37.1,M,,*5B
[2014-10-09 03:03:59]$GPGGA,065510.200,3815.2945,N,14050.6393,E,1,9,1.04,147.1,M,37.1,M,,*59
[2014-10-09 03:04:00]$GPGGA,065510.400,3815.2945,N,14050.6393,E,1,9,1.04,147.1,M,37.1,M,,*5F
[2014-10-09 03:04:00]$GPGGA,065510.600,3815.2945,N,14050.6393,E,1,9,1.04,147.1,M,37.1,M,,*5D
[2014-10-09 03:04:00]$GPGGA,065510.800,3815.2945,N,14050.6393,E,1,9,1.04,147.1,M,37.1,M,,*53
[2014-10-09 03:04:00]$GPGGA,065511.000,3815.2945,N,14050.6393,E,1,9,1.04,147.1,M,37.1,M,,*5A
[2014-10-09 03:04:01]$GPGGA,065511.200,3815.2945,N,14050.6393,E,1,9,1.04,147.1,M,37.1,M,,*58
[2014-10-09 03:04:01]$GPGGA,065511.400,3815.2945,N,14050.6393,E,1,9,1.04,147.1,M,37.1,M,,*5E
[2014-10-09 03:04:01]$GPGGA,065511.600,3815.2945,N,14050.6393,E,1,9,1.04,147.1,M,37.1,M,,*5C
[2014-10-09 03:04:01]$GPGGA,065511.800,3815.2945,N,14050.6393,E,1,9,1.04,147.1,M,37.1,M,,*52
[2014-10-09 03:04:01]$GPGGA,065512.000,3815.2945,N,14050.6393,E,1,9,1.04,147.1,M,37.1,M,,*59
[2014-10-09 03:04:01]$GPGGA,065512.200,3815.2945,N,14050.6393,E,1,9,1.04,147.1,M,37.1,M,,*5B
[2014-10-09 03:04:02]$GPGGA,065512.400,3815.2945,N,14050.6393,E,1,9,1.04,147.1,M,37.1,M,,*5D
[2014-10-09 03:04:02]$GPGGA,065512.600,3815.2945,N,14050.6393,E,1,9,1.04,147.1,M,37.1,M,,*5F
[2014-10-09 03:04:02]$GPGGA,065512.800,3815.2945,N,14050.6393,E,1,9,1.04,147.2,M,37.1,M,,*52
[2014-10-09 03:04:02]$GPGGA,065513.000,3815.2945,N,14050.6393,E,1,9,1.04,147.2,M,37.1,M,,*5B
[2014-10-09 03:04:02]$GPGGA,065513.200,3815.2945,N,14050.6393,E,1,9,1.04,147.2,M,37.1,M,,*59
[2014-10-09 03:04:03]$GPGGA,065513.400,3815.2945,N,14050.6393,E,1,9,1.04,147.2,M,37.1,M,,*5F
[2014-10-09 03:04:03]$GPGGA,065513.600,3815.2945,N,14050.6393,E,1,9,1.04,147.2,M,37.1,M,,*5D
[2014-10-09 03:04:03]$GPGGA,065513.800,3815.2945,N,14050.6393,E,1,9,1.04,147.2,M,37.1,M,,*53
[2014-10-09 03:04:03]$GPGGA,065514.000,3815.2945,N,14050.6393,E,1,9,1.04,147.2,M,37.1,M,,*5C
[2014-10-09 03:04:03]$GPGGA,065514.200,3815.2945,N,14050.6393,E,1,9,1.04,147.2,M,37.1,M,,*5E
[2014-10-09 03:04:04]$GPGGA,065514.400,3815.2945,N,14050.6393,E,1,9,1.04,147.2,M,37.1,M,,*58
[2014-10-09 03:04:04]$GPGGA,065514.600,3815.2945,N,14050.6393,E,1,9,1.04,147.2,M,37.1,M,,*5A
[2014-10-09 03:04:04]$GPGGA,065514.800,3815.2945,N,14050.6393,E,1,9,1.04,147.2,M,37.1,M,,*54
[2014-10-09 03:04:04]$GPGGA,065515.000,3815.2945,N,14050.6393,E,1,9,1.04,147.2,M,37.1,M,,*5D
[2014-10-09 03:04:04]$GPGGA,065515.200,3815.2945,N,14050.6393,E,1,9,1.04,147.2,M,37.1,M,,*5F
[2014-10-09 03:04:05]$GPGGA,065515.400,3815.2945,N,14050.6393,E,1,9,1.04,147.2,M,37.1,M,,*59
[2014-10-09 03:04:05]$GPGGA,065515.600,3815.2945,N,14050.6393,E,1,9,1.04,147.2,M,37.1,M,,*5B
[2014-10-09 03:04:05]$GPGGA,065515.800,3815.2945,N,14050.6393,E,1,9,1.04,147.2,M,37.1,M,,*55
[2014-10-09 03:04:05]$GPGGA,065516.000,3815.2945,N,14050.6393,E,1,9,1.04,147.2,M,37.1,M,,*5E
[2014-10-09 03:04:05]$GPGGA,065516.200,3815.2945,N,14050.6393,E,1,9,1.04,147.2,M,37.1,M,,*5C
[2014-10-09 03:04:06]$GPGGA,065516.400,3815.2945,N,14050.6393,E,1,9,1.04,147.2,M,37.1,M,,*5A
[2014-10-09 03:04:06]$GPGGA,065516.600,3815.2945,N,14050.6393,E,1,9,1.04,147.2,M,37.1,M,,*58
[2014-10-09 03:04:06]$GPGGA,065516.800,3815.2945,N,14050.6393,E,1,9,1.04,147.2,M,37.1,M,,*56
[2014-10-09 03:04:06]$GPGGA,065517.000,3815.2945,N,14050.6393,E,1,9,1.04,147.2,M,37.1,M,,*5F
[2014-10-09 03:04:06]$GPGGA,065517.200,3815.2945,N,14050.6393,E,1,9,1.04,147.2,M,37.1,M,,*5D
[2014-10-09 03:04:07]$GPGGA,065517.400,3815.2945,N,14050.6393,E,1,9,1.04,147.2,M,37.1,M,,*5B
[2014-10-09 03:04:07]$GPGGA,065517.600,3815.2945,N,14050.6393,E,1,9,1.04,147.2,M,37.1,M,,*59
[2014-10-09 03:04:07]$GPGGA,065517.800,3815.2945,N,14050.6393,E,1,9,1.04,147.2,M,37.1,M,,*57
[2014-10-09 03:04:08]$GPGGA,065518.000,3815.2945,N,14050.6393,E,1,9,1.04,147.2,M,37.1,M,,*50
[2014-10-09 03:04:08]$GPGGA,065518.200,3815.2945,N,14050.6393,E,1,9,1.04,147.2,M,37.1,M,,*52
[2014-10-09 03:04:08]$GPGGA,065518.400,3815.2945,N,14050.6393,E,1,9,1.04,147.2,M,37.1,M,,*54
[2014-10-09 03:04:08]$GPGGA,065518.600,3815.2945,N,14050.6393,E,1,9,1.04,147.3,M,37.1,M,,*57
[2014-10-09 03:04:08]$GPGGA,065518.800,3815.2945,N,14050.6393,E,1,9,1.04,147.3,M,37.1,M,,*59
[2014-10-09 03:04:08]$GPGGA,065519.000,3815.2945,N,14050.6393,E,1,9,1.04,147.3,M,37.1,M,,*50
[2014-10-09 03:04:08]$GPGGA,065519.200,3815.2945,N,14050.6393,E,1,9,1.04,147.3,M,37.1,M,,*52
[2014-10-09 03:04:09]$GPGGA,065519.400,3815.2945,N,14050.6393,E,1,9,1.04,147.3,M,37.1,M,,*54
[2014-10-09 03:04:09]$GPGGA,065519.600,3815.2945,N,14050.6393,E,1,9,1.04,147.3,M,37.1,M,,*56
[2014-10-09 03:04:09]$GPGGA,065519.800,3815.2945,N,14050.6393,E,1,9,1.04,147.3,M,37.1,M,,*58
[2014-10-09 03:04:09]$GPGGA,065520.000,3815.2945,N,14050.6393,E,1,9,1.04,147.3,M,37.1,M,,*5A
[2014-10-09 03:04:09]$GPGGA,065520.200,3815.2945,N,14050.6393,E,1,9,1.04,147.3,M,37.1,M,,*58
[2014-10-09 03:04:10]$GPGGA,065520.400,3815.2945,N,14050.6393,E,1,9,1.04,147.3,M,37.1,M,,*5E
[2014-10-09 03:04:10]$GPGGA,065520.600,3815.2945,N,14050.6393,E,1,9,1.04,147.3,M,37.1,M,,*5C
[2014-10-09 03:04:10]$GPGGA,065520.800,3815.2945,N,14050.6393,E,1,9,1.04,147.3,M,37.1,M,,*52
[2014-10-09 03:04:10]$GPGGA,065521.000,3815.2945,N,14050.6393,E,1,9,1.04,147.3,M,37.1,M,,*5B
[2014-10-09 03:04:10]$GPGGA,065521.200,3815.2945,N,14050.6393,E,1,9,1.04,147.3,M,37.1,M,,*59
[2014-10-09 03:04:11]$GPGGA,065521.400,3815.2945,N,14050.6393,E,1,9,1.04,147.3,M,37.1,M,,*5F
[2014-10-09 03:04:11]$GPGGA,065521.600,3815.2945,N,14050.6393,E,1,9,1.04,147.3,M,37.1,M,,*5D
[2014-10-09 03:04:11]$GPGGA,065521.800,3815.2945,N,14050.6393,E,1,9,1.04,147.3,M,37.1,M,,*53
[2014-10-09 03:04:11]$GPGGA,065522.000,3815.2945,N,14050.6393,E,1,9,1.04,147.3,M,37.1,M,,*58
[2014-10-09 03:04:11]$GPGGA,065522.200,3815.2945,N,14050.6393,E,1,9,1.04,147.3,M,37.1,M,,*5A
[2014-10-09 03:04:12]$GPGGA,065522.400,3815.2945,N,14050.6393,E,1,9,1.04,147.3,M,37.1,M,,*5C
[2014-10-09 03:04:12]$GPGGA,065522.600,3815.2945,N,14050.6393,E,1,9,1.04,147.3,M,37.1,M,,*5E
[2014-10-09 03:04:12]$GPGGA,065522.800,3815.2945,N,14050.6393,E,1,9,1.04,147.3,M,37.1,M,,*50
[2014-10-09 03:04:12]$GPGGA,065523.000,3815.2945,N,14050.6393,E,1,9,1.04,147.3,M,37.1,M,,*59
[2014-10-09 03:04:12]$GPGGA,065523.200,3815.2945,N,14050.6393,E,1,9,1.04,147.3,M,37.1,M,,*5B
[2014-10-09 03:04:13]$GPGGA,065523.400,3815.2945,N,14050.6393,E,1,9,1.04,147.3,M,37.1,M,,*5D
[2014-10-09 03:04:13]$GPGGA,065523.600,3815.2945,N,14050.6393,E,1,9,1.04,147.3,M,37.1,M,,*5F
[2014-10-09 03:04:13]$GPGGA,065523.800,3815.2945,N,14050.6393,E,1,9,1.04,147.3,M,37.1,M,,*51
[2014-10-09 03:04:13]$GPGGA,065524.000,3815.2945,N,14050.6393,E,1,9,1.04,147.4,M,37.1,M,,*59
[2014-10-09 03:04:13]$GPGGA,065524.200,3815.2945,N,14050.6393,E,1,9,1.04,147.4,M,37.1,M,,*5B
[2014-10-09 03:04:14]$GPGGA,065524.400,3815.2945,N,14050.6393,E,1,9,1.04,147.4,M,37.1,M,,*5D
[2014-10-09 03:04:14]$GPGGA,065524.600,3815.2945,N,14050.6393,E,1,9,1.04,147.4,M,37.1,M,,*5F
[2014-10-09 03:04:14]$GPGGA,065524.800,3815.2945,N,14050.6393,E,1,9,1.04,147.4,M,37.1,M,,*51
[2014-10-09 03:04:14]$GPGGA,065525.000,3815.2945,N,14050.6393,E,1,9,1.04,147.4,M,37.1,M,,*58
[2014-10-09 03:04:14]$GPGGA,065525.200,3815.2945,N,14050.6393,E,1,9,1.04,147.4,M,37.1,M,,*5A
[2014-10-09 03:04:15]$GPGGA,065525.400,3815.2945,N,14050.6393,E,1,9,1.04,147.4,M,37.1,M,,*5C
[2014-10-09 03:04:15]$GPGGA,065525.600,3815.2945,N,14050.6393,E,1,9,1.04,147.4,M,37.1,M,,*5E
[2014-10-09 03:04:15]$GPGGA,065525.800,3815.2945,N,14050.6393,E,1,9,1.04,147.4,M,37.1,M,,*50
[2014-10-09 03:04:16]$GPGGA,065526.000,3815.2945,N,14050.6393,E,1,9,1.04,147.4,M,37.1,M,,*5B
[2014-10-09 03:04:16]$GPGGA,065526.200,3815.2945,N,14050.6393,E,1,9,1.04,147.4,M,37.1,M,,*59
[2014-10-09 03:04:16]$GPGGA,065526.400,3815.2945,N,14050.6393,E,1,9,1.04,147.4,M,37.1,M,,*5F
[2014-10-09 03:04:16]$GPGGA,065526.600,3815.2945,N,14050.6393,E,1,9,1.04,147.4,M,37.1,M,,*5D
[2014-10-09 03:04:16]$GPGGA,065526.800,3815.2945,N,14050.6393,E,1,9,1.04,147.4,M,37.1,M,,*53
[2014-10-09 03:04:16]$GPGGA,065527.000,3815.2945,N,14050.6393,E,1,9,1.04,147.4,M,37.1,M,,*5A
[2014-10-09 03:04:16]$GPGGA,065527.200,3815.2945,N,14050.6393,E,1,9,1.04,147.4,M,37.1,M,,*58
[2014-10-09 03:04:17]$GPGGA,065527.400,3815.2945,N,14050.6393,E,1,9,1.04,147.4,M,37.1,M,,*5E
[2014-10-09 03:04:17]$GPGGA,065527.600,3815.2945,N,14050.6393,E,1,9,1.04,147.4,M,37.1,M,,*5C
[2014-10-09 03:04:17]$GPGGA,065527.800,3815.2945,N,14050.6393,E,1,9,1.04,147.4,M,37.1,M,,*52
[2014-10-09 03:04:17]$GPGGA,065528.000,3815.2945,N,14050.6393,E,1,9,1.04,147.4,M,37.1,M,,*55
[2014-10-09 03:04:17]$GPGGA,065528.200,3815.2945,N,14050.6393,E,1,9,1.04,147.4,M,37.1,M,,*57
[2014-10-09 03:04:18]$GPGGA,065528.400,3815.2945,N,14050.6393,E,1,9,1.04,147.4,M,37.1,M,,*51
[2014-10-09 03:04:18]$GPGGA,065528.600,3815.2945,N,14050.6393,E,1,9,1.04,147.4,M,37.1,M,,*53
[2014-10-09 03:04:18]$GPGGA,065528.800,3815.2945,N,14050.6393,E,1,9,1.04,147.4,M,37.1,M,,*5D
[2014-10-09 03:04:18]$GPGGA,065529.000,3815.2945,N,14050.6393,E,1,8,1.23,147.4,M,37.1,M,,*50
[2014-10-09 03:04:18]$GPGGA,065529.200,3815.2945,N,14050.6393,E,1,8,1.23,147.4,M,37.1,M,,*52
[2014-10-09 03:04:19]$GPGGA,065529.400,3815.2945,N,14050.6393,E,1,9,1.04,147.4,M,37.1,M,,*50
[2014-10-09 03:04:19]$GPGGA,065529.600,3815.2945,N,14050.6393,E,1,9,1.04,147.4,M,37.1,M,,*52
[2014-10-09 03:04:19]$GPGGA,065529.800,3815.2945,N,14050.6393,E,1,9,1.04,147.4,M,37.1,M,,*5C
[2014-10-09 03:04:19]$GPGGA,065530.000,3815.2945,N,14050.6393,E,1,8,1.23,147.4,M,37.1,M,,*58
[2014-10-09 03:04:19]$GPGGA,065530.200,3815.2945,N,14050.6393,E,1,8,1.23,147.4,M,37.1,M,,*5A
[2014-10-09 03:04:20]$GPGGA,065530.400,3815.2945,N,14050.6393,E,1,9,1.04,147.4,M,37.1,M,,*58
[2014-10-09 03:04:20]$GPGGA,065530.600,3815.2945,N,14050.6393,E,1,9,1.04,147.4,M,37.1,M,,*5A
[2014-10-09 03:04:20]$GPGGA,065530.800,3815.2945,N,14050.6393,E,1,9,1.04,147.4,M,37.1,M,,*54
[2014-10-09 03:04:20]$GPGGA,065531.000,3815.2945,N,14050.6393,E,1,9,1.04,147.4,M,37.1,M,,*5D
[2014-10-09 03:04:20]$GPGGA,065531.200,3815.2945,N,14050.6393,E,1,9,1.04,147.5,M,37.1,M,,*5E
[2014-10-09 03:04:21]$GPGGA,065531.400,3815.2945,N,14050.6393,E,1,9,1.04,147.5,M,37.1,M,,*58
[2014-10-09 03:04:21]$GPGGA,065531.600,3815.2945,N,14050.6393,E,1,9,1.04,147.5,M,37.1,M,,*5A
[2014-10-09 03:04:21]$GPGGA,065531.800,3815.2945,N,14050.6393,E,1,9,1.04,147.5,M,37.1,M,,*54
[2014-10-09 03:04:21]$GPGGA,065532.000,3815.2945,N,14050.6393,E,1,9,1.04,147.5,M,37.1,M,,*5F
[2014-10-09 03:04:21]$GPGGA,065532.200,3815.2945,N,14050.6393,E,1,9,1.23,147.5,M,37.1,M,,*58
[2014-10-09 03:04:22]$GPGGA,065532.400,3815.2945,N,14050.6393,E,1,8,1.23,147.5,M,37.1,M,,*5F
[2014-10-09 03:04:22]$GPGGA,065532.600,3815.2945,N,14050.6393,E,1,8,1.23,147.5,M,37.1,M,,*5D
[2014-10-09 03:04:22]$GPGGA,065532.800,3815.2945,N,14050.6393,E,1,8,1.23,147.5,M,37.1,M,,*53
[2014-10-09 03:04:22]$GPGGA,065533.000,3815.2945,N,14050.6393,E,1,8,1.23,147.5,M,37.1,M,,*5A
[2014-10-09 03:04:22]$GPGGA,065533.200,3815.2945,N,14050.6393,E,1,8,1.23,147.5,M,37.1,M,,*58
[2014-10-09 03:04:23]$GPGGA,065533.400,3815.2945,N,14050.6393,E,1,8,1.23,147.5,M,37.1,M,,*5E
[2014-10-09 03:04:23]$GPGGA,065533.600,3815.2945,N,14050.6393,E,1,8,1.23,147.5,M,37.1,M,,*5C
[2014-10-09 03:04:23]$GPGGA,065533.800,3815.2945,N,14050.6393,E,1,8,1.23,147.5,M,37.1,M,,*52
[2014-10-09 03:04:23]$GPGGA,065534.000,3815.2945,N,14050.6393,E,1,8,1.23,147.5,M,37.1,M,,*5D
[2014-10-09 03:04:23]$GPGGA,065534.200,3815.2945,N,14050.6393,E,1,8,1.23,147.5,M,37.1,M,,*5F
[2014-10-09 03:04:24]$GPGGA,065534.400,3815.2945,N,14050.6393,E,1,8,1.23,147.5,M,37.1,M,,*59
[2014-10-09 03:04:24]$GPGGA,065534.600,3815.2945,N,14050.6393,E,1,8,1.23,147.5,M,37.1,M,,*5B
[2014-10-09 03:04:24]$GPGGA,065534.800,3815.2945,N,14050.6393,E,1,8,1.23,147.5,M,37.1,M,,*55
[2014-10-09 03:04:24]$GPGGA,065535.000,3815.2945,N,14050.6393,E,1,8,1.23,147.5,M,37.1,M,,*5C
[2014-10-09 03:04:24]$GPGGA,065535.200,3815.2945,N,14050.6393,E,1,8,1.23,147.5,M,37.1,M,,*5E
[2014-10-09 03:04:25]$GPGGA,065535.400,3815.2945,N,14050.6393,E,1,8,1.23,147.5,M,37.1,M,,*58
[2014-10-09 03:04:25]$GPGGA,065535.600,3815.2945,N,14050.6393,E,1,8,1.23,147.5,M,37.1,M,,*5A
[2014-10-09 03:04:25]$GPGGA,065535.800,3815.2945,N,14050.6393,E,1,9,1.15,147.5,M,37.1,M,,*50
[2014-10-09 03:04:25]$GPGGA,065536.000,3815.2945,N,14050.6393,E,1,9,1.15,147.5,M,37.1,M,,*5B
[2014-10-09 03:04:25]$GPGGA,065536.200,3815.2945,N,14050.6393,E,1,9,1.15,147.5,M,37.1,M,,*59
[2014-10-09 03:04:26]$GPGGA,065536.400,3815.2945,N,14050.6393,E,1,9,1.15,147.5,M,37.1,M,,*5F
[2014-10-09 03:04:26]$GPGGA,065536.600,3815.2945,N,14050.6393,E,1,9,1.15,147.5,M,37.1,M,,*5D
[2014-10-09 03:04:26]$GPGGA,065536.800,3815.2945,N,14050.6393,E,1,9,1.15,147.5,M,37.1,M,,*53
[2014-10-09 03:04:26]$GPGGA,065537.000,3815.2945,N,14050.6393,E,1,9,1.15,147.5,M,37.1,M,,*5A
[2014-10-09 03:04:26]$GPGGA,065537.200,3815.2945,N,14050.6393,E,1,9,1.15,147.5,M,37.1,M,,*58
[2014-10-09 03:04:27]$GPGGA,065537.400,3815.2945,N,14050.6393,E,1,9,1.15,147.5,M,37.1,M,,*5E
[2014-10-09 03:04:27]$GPGGA,065537.600,3815.2945,N,14050.6393,E,1,9,1.15,147.5,M,37.1,M,,*5C
[2014-10-09 03:04:27]$GPGGA,065537.800,3815.2945,N,14050.6393,E,1,9,1.15,147.5,M,37.1,M,,*52
[2014-10-09 03:04:27]$GPGGA,065538.000,3815.2945,N,14050.6393,E,1,9,1.15,147.5,M,37.1,M,,*55
[2014-10-09 03:04:27]$GPGGA,065538.200,3815.2945,N,14050.6393,E,1,9,1.15,147.5,M,37.1,M,,*57
[2014-10-09 03:04:28]$GPGGA,065538.400,3815.2945,N,14050.6393,E,1,9,1.15,147.5,M,37.1,M,,*51
[2014-10-09 03:04:28]$GPGGA,065538.600,3815.2945,N,14050.6393,E,1,9,1.15,147.5,M,37.1,M,,*53
[2014-10-09 03:04:28]$GPGGA,065538.800,3815.2944,N,14050.6393,E,1,9,1.15,147.5,M,37.1,M,,*5C
[2014-10-09 03:04:28]$GPGGA,065539.000,3815.2944,N,14050.6393,E,1,9,1.15,147.5,M,37.1,M,,*55
[2014-10-09 03:04:29]$GPGGA,065539.200,3815.2944,N,14050.6393,E,1,9,1.15,147.5,M,37.1,M,,*57
[2014-10-09 03:04:29]$GPGGA,065539.400,3815.2944,N,14050.6393,E,1,9,1.15,147.5,M,37.1,M,,*51
[2014-10-09 03:04:29]$GPGGA,065539.600,3815.2944,N,14050.6393,E,1,9,1.15,147.5,M,37.1,M,,*53
[2014-10-09 03:04:29]$GPGGA,065539.800,3815.2944,N,14050.6393,E,1,9,1.15,147.5,M,37.1,M,,*5D
[2014-10-09 03:04:29]$GPGGA,065540.000,3815.2944,N,14050.6393,E,1,9,1.15,147.5,M,37.1,M,,*5B
[2014-10-09 03:04:29]$GPGGA,065540.200,3815.2944,N,14050.6393,E,1,9,1.15,147.6,M,37.1,M,,*5A
[2014-10-09 03:04:30]$GPGGA,065540.400,3815.2944,N,14050.6393,E,1,9,1.15,147.6,M,37.1,M,,*5C
[2014-10-09 03:04:30]$GPGGA,065540.600,3815.2944,N,14050.6393,E,1,9,1.15,147.6,M,37.1,M,,*5E
[2014-10-09 03:04:30]$GPGGA,065540.800,3815.2944,N,14050.6393,E,1,9,1.15,147.6,M,37.1,M,,*50
[2014-10-09 03:04:30]$GPGGA,065541.000,3815.2944,N,14050.6393,E,1,9,1.15,147.6,M,37.1,M,,*59
[2014-10-09 03:04:30]$GPGGA,065541.200,3815.2944,N,14050.6393,E,1,9,1.15,147.6,M,37.1,M,,*5B
[2014-10-09 03:04:31]$GPGGA,065541.400,3815.2944,N,14050.6393,E,1,9,1.15,147.6,M,37.1,M,,*5D
[2014-10-09 03:04:31]$GPGGA,065541.600,3815.2944,N,14050.6393,E,1,9,1.15,147.6,M,37.1,M,,*5F
[2014-10-09 03:04:31]$GPGGA,065541.800,3815.2944,N,14050.6393,E,1,9,1.15,147.6,M,37.1,M,,*51
[2014-10-09 03:04:31]$GPGGA,065542.000,3815.2944,N,14050.6393,E,1,9,1.15,147.6,M,37.1,M,,*5A
[2014-10-09 03:04:31]$GPGGA,065542.200,3815.2944,N,14050.6393,E,1,9,1.15,147.6,M,37.1,M,,*58
[2014-10-09 03:04:32]$GPGGA,065542.400,3815.2944,N,14050.6393,E,1,9,1.15,147.6,M,37.1,M,,*5E
[2014-10-09 03:04:32]$GPGGA,065542.600,3815.2944,N,14050.6393,E,1,9,1.15,147.6,M,37.1,M,,*5C
[2014-10-09 03:04:32]$GPGGA,065542.800,3815.2944,N,14050.6393,E,1,9,1.15,147.6,M,37.1,M,,*52
[2014-10-09 03:04:32]$GPGGA,065543.000,3815.2944,N,14050.6393,E,1,9,1.15,147.6,M,37.1,M,,*5B
[2014-10-09 03:04:32]$GPGGA,065543.200,3815.2944,N,14050.6393,E,1,9,1.15,147.6,M,37.1,M,,*59
[2014-10-09 03:04:33]$GPGGA,065543.400,3815.2944,N,14050.6393,E,1,9,1.15,147.6,M,37.1,M,,*5F
[2014-10-09 03:04:33]$GPGGA,065543.600,3815.2944,N,14050.6393,E,1,9,1.15,147.6,M,37.1,M,,*5D
[2014-10-09 03:04:33]$GPGGA,065543.800,3815.2944,N,14050.6393,E,1,9,1.15,147.6,M,37.1,M,,*53
[2014-10-09 03:04:33]$GPGGA,065544.000,3815.2944,N,14050.6393,E,1,9,1.15,147.6,M,37.1,M,,*5C
[2014-10-09 03:04:33]$GPGGA,065544.200,3815.2944,N,14050.6393,E,1,9,1.15,147.6,M,37.1,M,,*5E
[2014-10-09 03:04:34]$GPGGA,065544.400,3815.2944,N,14050.6393,E,1,9,1.15,147.6,M,37.1,M,,*58
[2014-10-09 03:04:34]$GPGGA,065544.600,3815.2944,N,14050.6393,E,1,9,1.15,147.6,M,37.1,M,,*5A
[2014-10-09 03:04:34]$GPGGA,065544.800,3815.2944,N,14050.6393,E,1,9,1.15,147.6,M,37.1,M,,*54
[2014-10-09 03:04:34]$GPGGA,065545.000,3815.2944,N,14050.6393,E,1,9,1.15,147.6,M,37.1,M,,*5D
[2014-10-09 03:04:34]$GPGGA,065545.200,3815.2944,N,14050.6393,E,1,9,1.15,147.6,M,37.1,M,,*5F
[2014-10-09 03:04:35]$GPGGA,065545.400,3815.2944,N,14050.6393,E,1,9,1.15,147.6,M,37.1,M,,*59
[2014-10-09 03:04:35]$GPGGA,065545.600,3815.2944,N,14050.6393,E,1,9,1.15,147.6,M,37.1,M,,*5B
[2014-10-09 03:04:35]$GPGGA,065545.800,3815.2944,N,14050.6393,E,1,9,1.15,147.6,M,37.1,M,,*55
[2014-10-09 03:04:35]$GPGGA,065546.000,3815.2944,N,14050.6393,E,1,9,1.15,147.6,M,37.1,M,,*5E
[2014-10-09 03:04:35]$GPGGA,065546.200,3815.2944,N,14050.6393,E,1,9,1.15,147.6,M,37.1,M,,*5C
[2014-10-09 03:04:36]$GPGGA,065546.400,3815.2944,N,14050.6393,E,1,9,1.15,147.6,M,37.1,M,,*5A
[2014-10-09 03:04:36]$GPGGA,065546.600,3815.2944,N,14050.6393,E,1,9,1.15,147.6,M,37.1,M,,*58
[2014-10-09 03:04:36]$GPGGA,065546.800,3815.2944,N,14050.6393,E,1,9,1.15,147.6,M,37.1,M,,*56
[2014-10-09 03:04:36]$GPGGA,065547.000,3815.2944,N,14050.6393,E,1,9,1.15,147.6,M,37.1,M,,*5F
[2014-10-09 03:04:36]$GPGGA,065547.200,3815.2944,N,14050.6393,E,1,9,1.15,147.6,M,37.1,M,,*5D
[2014-10-09 03:04:37]$GPGGA,065547.400,3815.2944,N,14050.6393,E,1,9,1.15,147.6,M,37.1,M,,*5B
[2014-10-09 03:04:37]$GPGGA,065547.600,3815.2944,N,14050.6393,E,1,9,1.15,147.6,M,37.1,M,,*59
[2014-10-09 03:04:37]$GPGGA,065547.800,3815.2944,N,14050.6393,E,1,9,1.15,147.6,M,37.1,M,,*57
[2014-10-09 03:04:37]$GPGGA,065548.000,3815.2944,N,14050.6393,E,1,9,1.15,147.6,M,37.1,M,,*50
[2014-10-09 03:04:37]$GPGGA,065548.200,3815.2944,N,14050.6393,E,1,9,1.15,147.6,M,37.1,M,,*52
[2014-10-09 03:04:38]$GPGGA,065548.400,3815.2944,N,14050.6393,E,1,9,1.15,147.6,M,37.1,M,,*54
[2014-10-09 03:04:38]$GPGGA,065548.600,3815.2944,N,14050.6393,E,1,9,1.15,147.6,M,37.1,M,,*56
[2014-10-09 03:04:38]$GPGGA,065548.800,3815.2944,N,14050.6393,E,1,9,1.15,147.6,M,37.1,M,,*58
[2014-10-09 03:04:38]$GPGGA,065549.000,3815.2944,N,14050.6393,E,1,9,1.15,147.6,M,37.1,M,,*51
[2014-10-09 03:04:38]$GPGGA,065549.200,3815.2944,N,14050.6393,E,1,9,1.15,147.6,M,37.1,M,,*53
[2014-10-09 03:04:39]$GPGGA,065549.400,3815.2944,N,14050.6393,E,1,9,1.15,147.6,M,37.1,M,,*55
[2014-10-09 03:04:39]$GPGGA,065549.600,3815.2944,N,14050.6393,E,1,9,1.15,147.6,M,37.1,M,,*57
[2014-10-09 03:04:39]$GPGGA,065549.800,3815.2944,N,14050.6393,E,1,9,1.15,147.6,M,37.1,M,,*59
[2014-10-09 03:04:39]$GPGGA,065550.000,3815.2944,N,14050.6393,E,1,9,1.15,147.6,M,37.1,M,,*59
[2014-10-09 03:04:39]$GPGGA,065550.200,3815.2944,N,14050.6393,E,1,9,1.15,147.6,M,37.1,M,,*5B
[2014-10-09 03:04:40]$GPGGA,065550.400,3815.2944,N,14050.6393,E,1,9,1.15,147.6,M,37.1,M,,*5D
[2014-10-09 03:04:40]$GPGGA,065550.600,3815.2944,N,14050.6393,E,1,9,1.15,147.6,M,37.1,M,,*5F
[2014-10-09 03:04:40]$GPGGA,065550.800,3815.2944,N,14050.6393,E,1,9,1.15,147.6,M,37.1,M,,*51
[2014-10-09 03:04:40]$GPGGA,065551.000,3815.2944,N,14050.6393,E,1,9,1.15,147.6,M,37.1,M,,*58
[2014-10-09 03:04:41]$GPGGA,065551.200,3815.2944,N,14050.6393,E,1,9,1.15,147.6,M,37.1,M,,*5A
[2014-10-09 03:04:41]$GPGGA,065551.400,3815.2944,N,14050.6393,E,1,9,1.15,147.6,M,37.1,M,,*5C
[2014-10-09 03:04:41]$GPGGA,065551.600,3815.2944,N,14050.6393,E,1,9,1.15,147.6,M,37.1,M,,*5E
[2014-10-09 03:04:41]$GPGGA,065551.800,3815.2944,N,14050.6393,E,1,9,1.15,147.6,M,37.1,M,,*50
[2014-10-09 03:04:41]$GPGGA,065552.000,3815.2944,N,14050.6393,E,1,9,1.15,147.6,M,37.1,M,,*5B
[2014-10-09 03:04:41]$GPGGA,065552.200,3815.2944,N,14050.6393,E,1,9,1.15,147.6,M,37.1,M,,*59
[2014-10-09 03:04:42]$GPGGA,065552.400,3815.2944,N,14050.6393,E,1,9,1.15,147.6,M,37.1,M,,*5F
[2014-10-09 03:04:42]$GPGGA,065552.600,3815.2944,N,14050.6393,E,1,9,1.15,147.6,M,37.1,M,,*5D
[2014-10-09 03:04:42]$GPGGA,065552.800,3815.2944,N,14050.6393,E,1,9,1.15,147.6,M,37.1,M,,*53
[2014-10-09 03:04:42]$GPGGA,065553.000,3815.2944,N,14050.6393,E,1,9,1.15,147.6,M,37.1,M,,*5A
[2014-10-09 03:04:42]$GPGGA,065553.200,3815.2944,N,14050.6393,E,1,9,1.15,147.6,M,37.1,M,,*58
[2014-10-09 03:04:43]$GPGGA,065553.400,3815.2944,N,14050.6393,E,1,9,1.15,147.6,M,37.1,M,,*5E
[2014-10-09 03:04:43]$GPGGA,065553.600,3815.2944,N,14050.6393,E,1,9,1.15,147.6,M,37.1,M,,*5C
[2014-10-09 03:04:43]$GPGGA,065553.800,3815.2944,N,14050.6393,E,1,9,1.15,147.6,M,37.1,M,,*52
[2014-10-09 03:04:43]$GPGGA,065554.000,3815.2944,N,14050.6393,E,1,9,1.15,147.6,M,37.1,M,,*5D
[2014-10-09 03:04:43]$GPGGA,065554.200,3815.2944,N,14050.6393,E,1,9,1.15,147.6,M,37.1,M,,*5F
[2014-10-09 03:04:44]$GPGGA,065554.400,3815.2944,N,14050.6393,E,1,9,1.15,147.6,M,37.1,M,,*59
[2014-10-09 03:04:44]$GPGGA,065554.600,3815.2944,N,14050.6393,E,1,9,1.15,147.6,M,37.1,M,,*5B
[2014-10-09 03:04:44]$GPGGA,065554.800,3815.2944,N,14050.6393,E,1,9,1.15,147.6,M,37.1,M,,*55
[2014-10-09 03:04:44]$GPGGA,065555.000,3815.2944,N,14050.6393,E,1,9,1.15,147.6,M,37.1,M,,*5C
[2014-10-09 03:04:45]$GPGGA,065555.200,3815.2944,N,14050.6393,E,1,9,1.15,147.6,M,37.1,M,,*5E
[2014-10-09 03:04:45]$GPGGA,065555.400,3815.2944,N,14050.6393,E,1,9,1.15,147.6,M,37.1,M,,*58
[2014-10-09 03:04:45]$GPGGA,065555.600,3815.2944,N,14050.6393,E,1,9,1.15,147.6,M,37.1,M,,*5A
[2014-10-09 03:04:45]$GPGGA,065555.800,3815.2944,N,14050.6393,E,1,9,1.15,147.6,M,37.1,M,,*54
[2014-10-09 03:04:45]$GPGGA,065556.000,3815.2944,N,14050.6393,E,1,9,1.15,147.6,M,37.1,M,,*5F
[2014-10-09 03:04:45]$GPGGA,065556.200,3815.2944,N,14050.6393,E,1,9,1.15,147.6,M,37.1,M,,*5D
[2014-10-09 03:04:46]$GPGGA,065556.400,3815.2944,N,14050.6393,E,1,9,1.15,147.6,M,37.1,M,,*5B
[2014-10-09 03:04:46]$GPGGA,065556.600,3815.2944,N,14050.6393,E,1,9,1.15,147.6,M,37.1,M,,*59
[2014-10-09 03:04:46]$GPGGA,065556.800,3815.2944,N,14050.6393,E,1,9,1.15,147.6,M,37.1,M,,*57
[2014-10-09 03:04:46]$GPGGA,065557.000,3815.2944,N,14050.6393,E,1,9,1.15,147.6,M,37.1,M,,*5E
[2014-10-09 03:04:46]$GPGGA,065557.200,3815.2944,N,14050.6393,E,1,9,1.15,147.6,M,37.1,M,,*5C
[2014-10-09 03:04:47]$GPGGA,065557.400,3815.2943,N,14050.6393,E,1,9,1.15,147.6,M,37.1,M,,*5D
[2014-10-09 03:04:47]$GPGGA,065557.600,3815.2943,N,14050.6393,E,1,9,1.15,147.6,M,37.1,M,,*5F
[2014-10-09 03:04:47]$GPGGA,065557.800,3815.2943,N,14050.6393,E,1,9,1.15,147.6,M,37.1,M,,*51
[2014-10-09 03:04:47]$GPGGA,065558.000,3815.2943,N,14050.6393,E,1,9,1.15,147.6,M,37.1,M,,*56
[2014-10-09 03:04:47]$GPGGA,065558.200,3815.2943,N,14050.6393,E,1,9,1.15,147.6,M,37.1,M,,*54
[2014-10-09 03:04:48]$GPGGA,065558.400,3815.2943,N,14050.6393,E,1,9,1.15,147.6,M,37.1,M,,*52
[2014-10-09 03:04:48]$GPGGA,065558.600,3815.2943,N,14050.6393,E,1,9,1.15,147.6,M,37.1,M,,*50
[2014-10-09 03:04:48]$GPGGA,065558.800,3815.2943,N,14050.6393,E,1,9,1.15,147.7,M,37.1,M,,*5F
[2014-10-09 03:04:48]$GPGGA,065559.000,3815.2943,N,14050.6393,E,1,9,1.15,147.7,M,37.1,M,,*56
[2014-10-09 03:04:48]$GPGGA,065559.200,3815.2943,N,14050.6393,E,1,9,1.15,147.7,M,37.1,M,,*54
[2014-10-09 03:04:49]$GPGGA,065559.400,3815.2943,N,14050.6393,E,1,9,1.15,147.7,M,37.1,M,,*52
[2014-10-09 03:04:49]$GPGGA,065559.600,3815.2943,N,14050.6393,E,1,9,1.15,147.7,M,37.1,M,,*50
[2014-10-09 03:04:49]$GPGGA,065559.800,3815.2943,N,14050.6393,E,1,9,1.15,147.7,M,37.1,M,,*5E
[2014-10-09 03:04:49]$GPGGA,065600.000,3815.2943,N,14050.6393,E,1,9,1.15,147.7,M,37.1,M,,*59
[2014-10-09 03:04:49]$GPGGA,065600.200,3815.2943,N,14050.6393,E,1,9,1.15,147.7,M,37.1,M,,*5B
[2014-10-09 03:04:50]$GPGGA,065600.400,3815.2943,N,14050.6393,E,1,9,1.15,147.7,M,37.1,M,,*5D
[2014-10-09 03:04:50]$GPGGA,065600.600,3815.2943,N,14050.6393,E,1,9,1.15,147.7,M,37.1,M,,*5F
